$GNGGA,094550.40,3422.43756820,N,10853.98399535,E,1,28,0.6,375.102,M,-35.767,M,,*58
$GNGGA,094550.50,3422.43751288,N,10853.98392386,E,1,28,0.6,375.111,M,-35.767,M,,*51
$GNGGA,094550.60,3422.43745373,N,10853.98384469,E,1,28,0.6,375.111,M,-35.767,M,,*53
$GNGGA,094550.70,3422.43739157,N,10853.98376370,E,1,28,0.6,375.127,M,-35.767,M,,*5A
$GNGGA,094550.80,3422.43731589,N,10853.98365728,E,1,28,0.6,375.120,M,-35.767,M,,*56
$GNGGA,094550.90,3422.43723742,N,10853.98353336,E,1,28,0.6,375.112,M,-35.767,M,,*5E
$GNGGA,094551.00,3422.43715477,N,10853.98340919,E,1,28,0.6,375.086,M,-35.767,M,,*5F
$GNGGA,094551.10,3422.43706870,N,10853.98325700,E,1,28,0.6,375.081,M,-35.767,M,,*55
$GNGGA,094551.20,3422.43697379,N,10853.98309785,E,1,28,0.6,375.079,M,-35.767,M,,*59
$GNGGA,094551.30,3422.43687968,N,10853.98292372,E,1,28,0.6,375.083,M,-35.767,M,,*59
$GNGGA,094551.40,3422.43681023,N,10853.98272304,E,1,28,0.6,375.124,M,-35.767,M,,*5D
$GNGGA,094551.50,3422.43671928,N,10853.98252319,E,1,28,0.6,375.125,M,-35.767,M,,*5E
$GNGGA,094551.60,3422.43662930,N,10853.98230730,E,1,28,0.6,375.107,M,-35.767,M,,*5D
$GNGGA,094551.70,3422.43653800,N,10853.98207682,E,1,28,0.6,375.117,M,-35.767,M,,*51
$GNGGA,094551.80,3422.43644552,N,10853.98183668,E,1,28,0.6,375.119,M,-35.767,M,,*57
$GNGGA,094551.90,3422.43635536,N,10853.98158221,E,1,28,0.6,375.129,M,-35.767,M,,*5E
$GNGGA,094552.00,3422.43628257,N,10853.98133260,E,1,28,0.6,375.095,M,-35.767,M,,*56
$GNGGA,094552.10,3422.43620364,N,10853.98107415,E,1,28,0.6,375.099,M,-35.767,M,,*51
$GNGGA,094552.20,3422.43612937,N,10853.98080832,E,1,28,0.6,375.123,M,-35.767,M,,*58
$GNGGA,094552.30,3422.43606044,N,10853.98055127,E,1,28,0.6,375.121,M,-35.767,M,,*56
$GNGGA,094552.40,3422.43598914,N,10853.98028735,E,1,28,0.6,375.128,M,-35.767,M,,*5F
$GNGGA,094552.50,3422.43592982,N,10853.98002693,E,1,28,0.6,375.131,M,-35.767,M,,*56
$GNGGA,094552.60,3422.43587471,N,10853.97977406,E,1,28,0.6,375.106,M,-35.767,M,,*5E
$GNGGA,094552.70,3422.43582643,N,10853.97950888,E,1,28,0.6,375.104,M,-35.767,M,,*54
$GNGGA,094552.80,3422.43578534,N,10853.97925299,E,1,28,0.6,375.078,M,-35.767,M,,*5F
$GNGGA,094552.90,3422.43573647,N,10853.97898904,E,1,28,0.6,375.080,M,-35.767,M,,*5D
$GNGGA,094553.00,3422.43569079,N,10853.97872967,E,1,28,0.6,375.074,M,-35.767,M,,*5F
$GNGGA,094553.10,3422.43565225,N,10853.97847027,E,1,28,0.6,375.085,M,-35.767,M,,*5C
$GNGGA,094553.20,3422.43561113,N,10853.97819816,E,1,28,0.6,375.179,M,-35.767,M,,*5E
$GNGGA,094553.30,3422.43557430,N,10853.97794315,E,1,28,0.6,375.178,M,-35.767,M,,*5D
$GNGGA,094553.40,3422.43553616,N,10853.97768265,E,1,28,0.6,375.177,M,-35.767,M,,*52
$GNGGA,094553.50,3422.43550010,N,10853.97743116,E,1,28,0.6,375.184,M,-35.767,M,,*52
$GNGGA,094553.60,3422.43545987,N,10853.97717785,E,1,28,0.6,375.152,M,-35.767,M,,*54
$GNGGA,094553.70,3422.43543065,N,10853.97692270,E,1,28,0.6,375.158,M,-35.767,M,,*5F
$GNGGA,094553.80,3422.43538231,N,10853.97668198,E,1,28,0.6,375.096,M,-35.767,M,,*5C
$GNGGA,094553.90,3422.43535795,N,10853.97642808,E,1,28,0.6,375.085,M,-35.767,M,,*51
$GNGGA,094554.00,3422.43533395,N,10853.97617703,E,1,28,0.6,375.092,M,-35.767,M,,*5F
$GNGGA,094554.10,3422.43531200,N,10853.97592596,E,1,28,0.6,375.078,M,-35.767,M,,*55
$GNGGA,094554.20,3422.43527956,N,10853.97570790,E,1,28,0.6,375.000,M,-35.767,M,,*5E
$GNGGA,094554.30,3422.43525508,N,10853.97545963,E,1,28,0.6,375.005,M,-35.767,M,,*5B
$GNGGA,094554.40,3422.43522796,N,10853.97521675,E,1,28,0.6,374.975,M,-35.767,M,,*5B
$GNGGA,094554.50,3422.43520366,N,10853.97497349,E,1,28,0.6,374.976,M,-35.767,M,,*56
$GNGGA,094554.60,3422.43518026,N,10853.97472321,E,1,28,0.6,374.986,M,-35.767,M,,*53
$GNGGA,094554.70,3422.43514995,N,10853.97448193,E,1,28,0.6,374.998,M,-35.767,M,,*52
$GNGGA,094554.80,3422.43511704,N,10853.97423989,E,1,28,0.6,374.982,M,-35.767,M,,*5B
$GNGGA,094554.90,3422.43508741,N,10853.97400354,E,1,28,0.6,374.985,M,-35.767,M,,*5F
$GNGGA,094555.00,3422.43506087,N,10853.97372498,E,1,28,0.6,375.065,M,-35.767,M,,*57
$GNGGA,094555.10,3422.43502358,N,10853.97349592,E,1,28,0.6,375.081,M,-35.767,M,,*5A
$GNGGA,094555.20,3422.43498348,N,10853.97325632,E,1,28,0.6,375.070,M,-35.767,M,,*57
$GNGGA,094555.30,3422.43493819,N,10853.97302218,E,1,28,0.6,375.066,M,-35.767,M,,*5C
$GNGGA,094555.40,3422.43489906,N,10853.97280006,E,1,28,0.6,375.024,M,-35.767,M,,*5F
$GNGGA,094555.50,3422.43485484,N,10853.97256688,E,1,28,0.6,374.996,M,-35.767,M,,*5F
$GNGGA,094555.60,3422.43480793,N,10853.97233845,E,1,28,0.6,374.997,M,-35.767,M,,*51
$GNGGA,094555.70,3422.43475915,N,10853.97211289,E,1,28,0.6,375.024,M,-35.767,M,,*50
$GNGGA,094555.80,3422.43471069,N,10853.97188785,E,1,28,0.6,375.033,M,-35.767,M,,*55
$GNGGA,094555.90,3422.43466355,N,10853.97166043,E,1,28,0.6,375.024,M,-35.767,M,,*55
$GNGGA,094556.00,3422.43460855,N,10853.97141858,E,1,28,0.6,375.068,M,-35.767,M,,*5D
$GNGGA,094556.10,3422.43456074,N,10853.97117865,E,1,28,0.6,375.063,M,-35.767,M,,*54
$GNGGA,094556.20,3422.43451042,N,10853.97093548,E,1,28,0.6,375.054,M,-35.767,M,,*5E
$GNGGA,094556.30,3422.43445616,N,10853.97068718,E,1,28,0.6,375.067,M,-35.767,M,,*5E
$GNGGA,094556.40,3422.43440158,N,10853.97042861,E,1,28,0.6,375.061,M,-35.767,M,,*5E
$GNGGA,094556.50,3422.43434144,N,10853.97016283,E,1,28,0.6,375.074,M,-35.767,M,,*52
$GNGGA,094556.60,3422.43428931,N,10853.96985123,E,1,28,0.6,374.951,M,-35.767,M,,*52
$GNGGA,094556.70,3422.43422305,N,10853.96956723,E,1,28,0.6,374.979,M,-35.767,M,,*56
$GNGGA,094556.80,3422.43422974,N,10853.96904607,E,1,28,0.6,373.942,M,-35.767,M,,*5A
$GNGGA,094556.90,3422.43415945,N,10853.96872776,E,1,28,0.6,373.926,M,-35.767,M,,*58
$GNGGA,094557.00,3422.43407339,N,10853.96842720,E,1,28,0.6,374.079,M,-35.767,M,,*56
$GNGGA,094557.10,3422.43399545,N,10853.96808817,E,1,28,0.6,374.096,M,-35.767,M,,*5E
$GNGGA,094557.20,3422.43396030,N,10853.96760825,E,1,28,0.6,373.481,M,-35.767,M,,*50
$GNGGA,094557.30,3422.43387673,N,10853.96724330,E,1,28,0.6,373.477,M,-35.767,M,,*56
$GNGGA,094557.40,3422.43379259,N,10853.96686848,E,1,28,0.6,373.493,M,-35.767,M,,*5B
$GNGGA,094557.50,3422.43370418,N,10853.96648301,E,1,28,0.6,373.492,M,-35.767,M,,*55
$GNGGA,094557.60,3422.43360941,N,10853.96608876,E,1,28,0.6,373.493,M,-35.768,M,,*57
$GNGGA,094557.70,3422.43351229,N,10853.96568034,E,1,28,0.6,373.511,M,-35.768,M,,*51
$GNGGA,094557.80,3422.43315428,N,10853.96552451,E,1,28,0.6,374.884,M,-35.768,M,,*51
$GNGGA,094557.90,3422.43305640,N,10853.96508910,E,1,28,0.6,374.881,M,-35.768,M,,*5F
$GNGGA,094558.00,3422.43298367,N,10853.96471654,E,1,28,0.6,375.130,M,-35.768,M,,*5E
$GNGGA,094558.10,3422.43288081,N,10853.96425667,E,1,28,0.6,375.115,M,-35.768,M,,*53
$GNGGA,094558.20,3422.43292712,N,10853.96370582,E,1,28,0.6,374.682,M,-35.768,M,,*51
$GNGGA,094558.30,3422.43281393,N,10853.96322790,E,1,28,0.6,374.682,M,-35.768,M,,*59
$GNGGA,094558.40,3422.43219515,N,10853.96312004,E,1,28,0.6,376.783,M,-35.768,M,,*5C
$GNGGA,094558.50,3422.43208764,N,10853.96261923,E,1,28,0.6,376.778,M,-35.768,M,,*54
$GNGGA,094558.60,3422.43191380,N,10853.96222406,E,1,28,0.6,377.347,M,-35.768,M,,*5E
$GNGGA,094558.70,3422.43180806,N,10853.96170688,E,1,28,0.6,377.341,M,-35.768,M,,*5C
$GNGGA,094558.80,3422.43172654,N,10853.96112987,E,1,28,0.6,377.114,M,-35.768,M,,*51
$GNGGA,094558.90,3422.43161917,N,10853.96059080,E,1,28,0.6,377.102,M,-35.768,M,,*5D
$GNGGA,094559.00,3422.43151039,N,10853.96001070,E,1,28,0.6,377.005,M,-35.768,M,,*57
$GNGGA,094559.10,3422.43140591,N,10853.95945173,E,1,28,0.6,376.995,M,-35.768,M,,*58
$GNGGA,094559.20,3422.43127991,N,10853.95891042,E,1,28,0.6,377.138,M,-35.768,M,,*53
$GNGGA,094559.30,3422.43116537,N,10853.95834434,E,1,28,0.6,377.144,M,-35.768,M,,*51
$GNGGA,094559.40,3422.43112234,N,10853.95772838,E,1,28,0.6,376.883,M,-35.768,M,,*58
$GNGGA,094559.50,3422.43101297,N,10853.95716432,E,1,28,0.6,376.874,M,-35.768,M,,*5E
$GNGGA,094559.60,3422.43096788,N,10853.95649823,E,1,28,0.6,376.377,M,-35.768,M,,*56
$GNGGA,094559.70,3422.43086019,N,10853.95593034,E,1,28,0.6,376.366,M,-35.768,M,,*53
$GNGGA,094559.80,3422.43091107,N,10853.95530891,E,1,28,0.6,376.014,M,-35.768,M,,*5C
$GNGGA,094559.90,3422.43079520,N,10853.95474014,E,1,28,0.6,376.017,M,-35.768,M,,*5D
$GNGGA,094600.00,3422.43068553,N,10853.95409561,E,1,28,0.6,375.700,M,-35.769,M,,*51
$GNGGA,094600.10,3422.43056681,N,10853.95352089,E,1,28,0.6,375.706,M,-35.769,M,,*5D
$GNGGA,094600.20,3422.43054025,N,10853.95288239,E,1,28,0.6,375.360,M,-35.769,M,,*5F
$GNGGA,094600.30,3422.43040928,N,10853.95229423,E,1,28,0.6,375.389,M,-35.769,M,,*5E
$GNGGA,094600.40,3422.43031249,N,10853.95172569,E,1,28,0.6,375.450,M,-35.769,M,,*52
$GNGGA,094600.50,3422.43017453,N,10853.95114315,E,1,28,0.6,375.475,M,-35.769,M,,*50
$GNGGA,094600.60,3422.42966577,N,10853.95081472,E,1,26,0.6,377.051,M,-35.769,M,,*5F
$GNGGA,094600.70,3422.42953041,N,10853.95021281,E,1,26,0.6,377.053,M,-35.769,M,,*5A
$GNGGA,094600.80,3422.42974301,N,10853.94935461,E,1,27,0.6,375.663,M,-35.769,M,,*54
$GNGGA,094600.90,3422.42960623,N,10853.94873498,E,1,27,0.6,375.667,M,-35.769,M,,*54
$GNGGA,094601.00,3422.42934235,N,10853.94819467,E,1,26,0.6,376.214,M,-35.769,M,,*50
$GNGGA,094601.10,3422.42919445,N,10853.94757285,E,1,26,0.6,376.218,M,-35.769,M,,*5C
$GNGGA,094601.20,3422.42892521,N,10853.94707677,E,1,27,0.6,376.840,M,-35.769,M,,*54
$GNGGA,094601.30,3422.42875718,N,10853.94644602,E,1,27,0.6,376.841,M,-35.769,M,,*51
$GNGGA,094601.40,3422.42863078,N,10853.94572273,E,1,27,0.6,376.423,M,-35.769,M,,*5C
$GNGGA,094601.50,3422.42845209,N,10853.94509070,E,1,27,0.6,376.426,M,-35.769,M,,*55
$GNGGA,094601.60,3422.42832604,N,10853.94436256,E,1,27,0.6,375.967,M,-35.769,M,,*5F
$GNGGA,094601.70,3422.42814335,N,10853.94372243,E,1,27,0.6,375.965,M,-35.769,M,,*5C
$GNGGA,094601.80,3422.42801933,N,10853.94295601,E,1,27,0.6,375.096,M,-35.769,M,,*54
$GNGGA,094601.90,3422.42781275,N,10853.94230083,E,1,27,0.6,375.133,M,-35.769,M,,*56
$GNGGA,094602.00,3422.42771702,N,10853.94153237,E,1,27,0.6,374.464,M,-35.769,M,,*5B
$GNGGA,094602.10,3422.42750002,N,10853.94087596,E,1,27,0.6,374.453,M,-35.769,M,,*5E
$GNGGA,094602.20,3422.42706151,N,10853.94044085,E,1,27,0.6,375.537,M,-35.769,M,,*53
$GNGGA,094602.30,3422.42683505,N,10853.93977730,E,1,27,0.6,375.518,M,-35.769,M,,*51
$GNGGA,094602.40,3422.42663780,N,10853.93928729,E,1,28,0.6,374.654,M,-35.769,M,,*50
$GNGGA,094602.50,3422.42640795,N,10853.93860959,E,1,28,0.6,374.643,M,-35.769,M,,*56
$GNGGA,094602.60,3422.42604962,N,10853.93803217,E,1,28,0.6,374.475,M,-35.769,M,,*50
$GNGGA,094602.70,3422.42581523,N,10853.93734636,E,1,28,0.6,374.439,M,-35.769,M,,*52
$GNGGA,094602.80,3422.42557781,N,10853.93665857,E,1,27,0.6,374.190,M,-35.769,M,,*59
$GNGGA,094602.90,3422.42533600,N,10853.93596135,E,1,27,0.6,374.205,M,-35.770,M,,*57
$GNGGA,094603.00,3422.42504273,N,10853.93539569,E,1,27,0.6,375.135,M,-35.770,M,,*52
$GNGGA,094603.10,3422.42479089,N,10853.93467755,E,1,27,0.6,375.106,M,-35.770,M,,*58
$GNGGA,094603.20,3422.42455327,N,10853.93394092,E,1,26,0.6,374.726,M,-35.770,M,,*51
$GNGGA,094603.30,3422.42429558,N,10853.93321234,E,1,26,0.6,374.747,M,-35.770,M,,*52
$GNGGA,094603.40,3422.42407103,N,10853.93230003,E,1,27,0.6,373.583,M,-35.770,M,,*58
$GNGGA,094603.50,3422.42381048,N,10853.93156436,E,1,27,0.6,373.562,M,-35.770,M,,*50
$GNGGA,094603.60,3422.42358914,N,10853.93087870,E,1,25,0.6,374.425,M,-35.770,M,,*53
$GNGGA,094603.70,3422.42333147,N,10853.93012280,E,1,25,0.6,374.386,M,-35.770,M,,*56
$GNGGA,094603.80,3422.42323504,N,10853.92922493,E,1,25,0.6,375.202,M,-35.770,M,,*58
$GNGGA,094603.90,3422.42297344,N,10853.92845427,E,1,25,0.6,375.223,M,-35.770,M,,*59
$GNGGA,094604.00,3422.42280718,N,10853.92741310,E,1,24,0.7,374.882,M,-35.770,M,,*54
$GNGGA,094604.10,3422.42253166,N,10853.92663798,E,1,24,0.7,374.872,M,-35.770,M,,*5E
$GNGGA,094604.20,3422.42211219,N,10853.92604913,E,1,24,0.7,375.858,M,-35.770,M,,*55
$GNGGA,094604.30,3422.42183527,N,10853.92526063,E,1,24,0.7,375.805,M,-35.770,M,,*53
$GNGGA,094604.40,3422.42162039,N,10853.92441927,E,1,23,0.7,375.293,M,-35.770,M,,*5A
$GNGGA,094604.50,3422.42134448,N,10853.92361125,E,1,23,0.7,375.296,M,-35.770,M,,*50
$GNGGA,094604.60,3422.42124524,N,10853.92279805,E,1,24,0.7,375.707,M,-35.770,M,,*50
$GNGGA,094604.70,3422.42095952,N,10853.92197933,E,1,24,0.7,375.677,M,-35.770,M,,*56
$GNGGA,094604.80,3422.42034303,N,10853.92140314,E,1,24,0.7,375.918,M,-35.770,M,,*5F
$GNGGA,094604.90,3422.42005000,N,10853.92057142,E,1,24,0.7,375.879,M,-35.770,M,,*5C
$GNGGA,094605.00,3422.41967828,N,10853.91975275,E,1,24,0.7,375.149,M,-35.770,M,,*5F
$GNGGA,094605.10,3422.41939037,N,10853.91891489,E,1,24,0.7,375.129,M,-35.770,M,,*5B
$GNGGA,094605.20,3422.41915543,N,10853.91796710,E,1,24,0.7,375.603,M,-35.770,M,,*54
$GNGGA,094605.30,3422.41887252,N,10853.91710319,E,1,24,0.7,375.578,M,-35.771,M,,*55
$GNGGA,094605.40,3422.41869544,N,10853.91620756,E,1,24,0.7,376.421,M,-35.771,M,,*51
$GNGGA,094605.50,3422.41840329,N,10853.91534998,E,1,24,0.7,376.411,M,-35.771,M,,*5F
$GNGGA,094605.60,3422.41805056,N,10853.91452692,E,1,24,0.7,376.061,M,-35.771,M,,*51
$GNGGA,094605.70,3422.41775636,N,10853.91363766,E,1,24,0.7,376.026,M,-35.771,M,,*54
$GNGGA,094605.80,3422.41746248,N,10853.91258407,E,1,24,0.7,375.636,M,-35.771,M,,*5F
$GNGGA,094605.90,3422.41717221,N,10853.91169927,E,1,24,0.7,375.682,M,-35.771,M,,*54
$GNGGA,094606.00,3422.41696643,N,10853.91087952,E,1,23,0.7,376.661,M,-35.771,M,,*5C
$GNGGA,094606.10,3422.41666944,N,10853.90997349,E,1,23,0.7,376.687,M,-35.771,M,,*5B
$GNGGA,094606.20,3422.41633667,N,10853.90880315,E,1,24,0.7,374.912,M,-35.771,M,,*5E
$GNGGA,094606.30,3422.41603484,N,10853.90791464,E,1,24,0.7,374.922,M,-35.771,M,,*5E
$GNGGA,094606.40,3422.41572776,N,10853.90715872,E,1,24,0.7,375.668,M,-35.771,M,,*55
$GNGGA,094606.50,3422.41542623,N,10853.90624894,E,1,24,0.7,375.699,M,-35.771,M,,*53
$GNGGA,094606.60,3422.41521443,N,10853.90523099,E,1,24,0.7,375.876,M,-35.771,M,,*5F
$GNGGA,094606.70,3422.41492399,N,10853.90432284,E,1,24,0.7,375.888,M,-35.771,M,,*59
$GNGGA,094606.80,3422.41460227,N,10853.90343476,E,1,24,0.7,375.546,M,-35.771,M,,*5A
$GNGGA,094606.90,3422.41429423,N,10853.90252623,E,1,24,0.7,375.555,M,-35.771,M,,*55
$GNGGA,094607.00,3422.41418745,N,10853.90161015,E,1,24,0.7,374.782,M,-35.771,M,,*55
$GNGGA,094607.10,3422.41387671,N,10853.90071824,E,1,24,0.7,374.784,M,-35.771,M,,*5F
$GNGGA,094607.20,3422.41357476,N,10853.89970975,E,1,24,0.7,373.988,M,-35.771,M,,*54
$GNGGA,094607.30,3422.41326779,N,10853.89881471,E,1,24,0.7,374.004,M,-35.771,M,,*53
$GNGGA,094607.40,3422.41284913,N,10853.89810418,E,1,25,0.7,373.290,M,-35.772,M,,*52
$GNGGA,094607.50,3422.41254448,N,10853.89719859,E,1,25,0.7,373.253,M,-35.772,M,,*5D
$GNGGA,094607.60,3422.41205087,N,10853.89641919,E,1,26,0.7,374.123,M,-35.772,M,,*54
$GNGGA,094607.70,3422.41174388,N,10853.89551128,E,1,26,0.7,374.077,M,-35.772,M,,*54
$GNGGA,094607.80,3422.41153869,N,10853.89441373,E,1,26,0.7,374.013,M,-35.772,M,,*54
$GNGGA,094607.90,3422.41122095,N,10853.89350594,E,1,26,0.7,373.998,M,-35.772,M,,*5D
$GNGGA,094608.00,3422.41121877,N,10853.89228861,E,1,26,0.7,373.421,M,-35.772,M,,*5A
$GNGGA,094608.10,3422.41088963,N,10853.89139183,E,1,26,0.7,373.430,M,-35.772,M,,*5B
$GNGGA,094608.20,3422.41046186,N,10853.89058235,E,1,26,0.7,373.034,M,-35.772,M,,*51
$GNGGA,094608.30,3422.41014019,N,10853.88965443,E,1,26,0.7,373.076,M,-35.772,M,,*57
$GNGGA,094608.40,3422.40952710,N,10853.88894734,E,1,26,0.7,373.659,M,-35.772,M,,*53
$GNGGA,094608.50,3422.40920213,N,10853.88801726,E,1,26,0.7,373.710,M,-35.772,M,,*52
$GNGGA,094608.60,3422.40879322,N,10853.88718976,E,1,25,0.7,374.408,M,-35.772,M,,*5D
$GNGGA,094608.70,3422.40847116,N,10853.88627600,E,1,25,0.7,374.430,M,-35.772,M,,*5C
$GNGGA,094608.80,3422.40815339,N,10853.88539371,E,1,25,0.7,374.937,M,-35.772,M,,*5E
$GNGGA,094608.90,3422.40784452,N,10853.88448275,E,1,25,0.7,374.890,M,-35.772,M,,*5C
$GNGGA,094609.00,3422.40739438,N,10853.88377359,E,1,25,0.7,374.368,M,-35.772,M,,*56
$GNGGA,094609.10,3422.40706789,N,10853.88282390,E,1,25,0.7,374.479,M,-35.772,M,,*5B
$GNGGA,094609.20,3422.40697551,N,10853.88162636,E,1,25,0.7,373.809,M,-35.772,M,,*5E
$GNGGA,094609.30,3422.40665981,N,10853.88070738,E,1,25,0.7,373.844,M,-35.772,M,,*57
$GNGGA,094609.40,3422.40613895,N,10853.87993785,E,1,25,0.7,376.123,M,-35.773,M,,*54
$GNGGA,094609.50,3422.40578445,N,10853.87902741,E,1,25,0.7,376.258,M,-35.773,M,,*55
$GNGGA,094609.60,3422.40537242,N,10853.87832203,E,1,24,0.7,375.024,M,-35.773,M,,*56
$GNGGA,094609.70,3422.40505112,N,10853.87740715,E,1,24,0.7,375.043,M,-35.773,M,,*59
$GNGGA,094609.80,3422.40470631,N,10853.87628948,E,1,24,0.7,376.458,M,-35.773,M,,*57
$GNGGA,094609.90,3422.40439178,N,10853.87538561,E,1,24,0.7,376.451,M,-35.773,M,,*5D
$GNGGA,094610.00,3422.40399066,N,10853.87438325,E,1,24,0.7,377.356,M,-35.773,M,,*59
$GNGGA,094610.10,3422.40366831,N,10853.87349758,E,1,24,0.7,377.317,M,-35.773,M,,*58
$GNGGA,094610.20,3422.40350502,N,10853.87278403,E,1,24,0.7,375.164,M,-35.773,M,,*59
$GNGGA,094610.30,3422.40318504,N,10853.87188842,E,1,24,0.7,375.208,M,-35.773,M,,*5E
$GNGGA,094610.40,3422.40291189,N,10853.87086472,E,1,24,0.7,376.433,M,-35.773,M,,*55
$GNGGA,094610.50,3422.40261740,N,10853.86997499,E,1,24,0.7,376.440,M,-35.773,M,,*51
$GNGGA,094610.60,3422.40225938,N,10853.86909059,E,1,24,0.7,376.248,M,-35.773,M,,*52
$GNGGA,094610.70,3422.40195639,N,10853.86821898,E,1,24,0.7,376.247,M,-35.773,M,,*54
$GNGGA,094610.80,3422.40190178,N,10853.86737302,E,1,24,0.7,374.290,M,-35.774,M,,*53
$GNGGA,094610.90,3422.40160340,N,10853.86652859,E,1,24,0.7,374.243,M,-35.774,M,,*5D
$GNGGA,094611.00,3422.40166346,N,10853.86544788,E,1,25,0.7,371.787,M,-35.774,M,,*5B
$GNGGA,094611.10,3422.40136773,N,10853.86460947,E,1,25,0.7,371.816,M,-35.774,M,,*50
$GNGGA,094611.20,3422.40061448,N,10853.86385667,E,1,25,0.7,374.713,M,-35.774,M,,*55
$GNGGA,094611.30,3422.40033506,N,10853.86302703,E,1,25,0.7,374.694,M,-35.774,M,,*5A
$GNGGA,094611.40,3422.40008932,N,10853.86206059,E,1,25,0.7,375.385,M,-35.774,M,,*57
$GNGGA,094611.50,3422.39980938,N,10853.86121671,E,1,25,0.7,375.336,M,-35.774,M,,*59
$GNGGA,094611.60,3422.39984445,N,10853.86042142,E,1,24,0.7,372.632,M,-35.774,M,,*5D
$GNGGA,094611.70,3422.39955273,N,10853.85961103,E,1,24,0.7,372.648,M,-35.774,M,,*50
$GNGGA,094611.80,3422.39914240,N,10853.85883154,E,1,24,0.7,374.389,M,-35.774,M,,*5B
$GNGGA,094611.90,3422.39885211,N,10853.85800774,E,1,24,0.7,374.395,M,-35.774,M,,*55
$GNGGA,094612.00,3422.39821043,N,10853.85749267,E,1,24,0.7,377.119,M,-35.774,M,,*54
$GNGGA,094612.10,3422.39793880,N,10853.85667724,E,1,24,0.7,377.129,M,-35.774,M,,*58
$GNGGA,094612.20,3422.39759355,N,10853.85595755,E,1,24,0.7,376.005,M,-35.774,M,,*58
$GNGGA,094612.30,3422.39731108,N,10853.85517081,E,1,24,0.7,376.021,M,-35.774,M,,*5F
$GNGGA,094612.40,3422.39720574,N,10853.85476410,E,1,24,0.7,375.819,M,-35.774,M,,*5D
$GNGGA,094612.50,3422.39691390,N,10853.85397545,E,1,24,0.7,375.892,M,-35.774,M,,*51
$GNGGA,094612.60,3422.39659482,N,10853.85291250,E,1,24,0.7,376.056,M,-35.774,M,,*55
$GNGGA,094612.70,3422.39634731,N,10853.85213907,E,1,24,0.7,376.057,M,-35.774,M,,*56
$GNGGA,094612.80,3422.39623833,N,10853.85109142,E,1,25,0.7,374.368,M,-35.774,M,,*5F
$GNGGA,094612.90,3422.39596294,N,10853.85033876,E,1,25,0.7,374.354,M,-35.774,M,,*5D
$GNGGA,094613.00,3422.39568706,N,10853.84941976,E,1,25,0.7,374.711,M,-35.775,M,,*52
$GNGGA,094613.10,3422.39542109,N,10853.84867102,E,1,25,0.7,374.691,M,-35.775,M,,*55
$GNGGA,094613.20,3422.39503371,N,10853.84789450,E,1,25,0.7,376.475,M,-35.775,M,,*59
$GNGGA,094613.30,3422.39478225,N,10853.84716072,E,1,25,0.7,376.474,M,-35.775,M,,*56
$GNGGA,094613.40,3422.39458936,N,10853.84661360,E,1,25,0.7,374.092,M,-35.775,M,,*55
$GNGGA,094613.50,3422.39433030,N,10853.84592133,E,1,25,0.7,374.105,M,-35.775,M,,*52
$GNGGA,094613.60,3422.39384390,N,10853.84531109,E,1,25,0.7,375.883,M,-35.775,M,,*55
$GNGGA,094613.70,3422.39361384,N,10853.84462204,E,1,25,0.7,375.910,M,-35.775,M,,*58
$GNGGA,094613.80,3422.39338265,N,10853.84392387,E,1,25,0.7,375.911,M,-35.775,M,,*56
$GNGGA,094613.90,3422.39314326,N,10853.84324730,E,1,25,0.7,375.999,M,-35.775,M,,*5A
$GNGGA,094614.00,3422.39304826,N,10853.84250431,E,1,25,0.7,375.105,M,-35.775,M,,*53
$GNGGA,094614.10,3422.39281967,N,10853.84183980,E,1,25,0.7,375.087,M,-35.775,M,,*5B
$GNGGA,094614.20,3422.39308191,N,10853.84094874,E,1,25,0.7,373.413,M,-35.775,M,,*5B
$GNGGA,094614.30,3422.39287556,N,10853.84031495,E,1,25,0.7,373.413,M,-35.775,M,,*5F
$GNGGA,094614.40,3422.39236361,N,10853.84000051,E,1,24,0.7,376.476,M,-35.775,M,,*59
$GNGGA,094614.50,3422.39216771,N,10853.83936257,E,1,24,0.7,376.434,M,-35.775,M,,*56
$GNGGA,094614.60,3422.39192561,N,10853.83882040,E,1,24,0.7,376.413,M,-35.775,M,,*56
$GNGGA,094614.70,3422.39171553,N,10853.83822904,E,1,24,0.7,376.425,M,-35.775,M,,*5D
$GNGGA,094614.80,3422.39172185,N,10853.83719270,E,1,24,0.7,369.679,M,-35.775,M,,*54
$GNGGA,094614.90,3422.39152347,N,10853.83661740,E,1,24,0.7,369.683,M,-35.775,M,,*56
$GNGGA,094615.00,3422.39139291,N,10853.83604315,E,1,24,0.7,373.700,M,-35.775,M,,*5F
$GNGGA,094615.10,3422.39120715,N,10853.83548078,E,1,24,0.7,373.688,M,-35.775,M,,*5D
$GNGGA,094615.20,3422.39083646,N,10853.83518820,E,1,24,0.7,372.634,M,-35.775,M,,*57
$GNGGA,094615.30,3422.39067703,N,10853.83466357,E,1,24,0.7,372.524,M,-35.775,M,,*5D
$GNGGA,094615.40,3422.39073607,N,10853.83381449,E,1,25,0.6,371.855,M,-35.775,M,,*54
$GNGGA,094615.50,3422.39056258,N,10853.83330876,E,1,25,0.6,371.821,M,-35.775,M,,*55
$GNGGA,094615.60,3422.39029889,N,10853.83289890,E,1,25,0.6,372.365,M,-35.775,M,,*5B
$GNGGA,094615.70,3422.39014662,N,10853.83241132,E,1,25,0.6,372.363,M,-35.775,M,,*5C
$GNGGA,094615.80,3422.38976268,N,10853.83211612,E,1,25,0.7,374.549,M,-35.775,M,,*58
$GNGGA,094615.90,3422.38961198,N,10853.83166923,E,1,25,0.7,374.562,M,-35.775,M,,*54
$GNGGA,094616.00,3422.38965124,N,10853.83099450,E,1,25,0.7,373.377,M,-35.776,M,,*53
$GNGGA,094616.10,3422.38950028,N,10853.83057844,E,1,25,0.7,373.365,M,-35.776,M,,*51
$GNGGA,094616.20,3422.38902730,N,10853.83053866,E,1,24,0.7,376.384,M,-35.776,M,,*54
$GNGGA,094616.30,3422.38889113,N,10853.83015375,E,1,24,0.7,376.435,M,-35.776,M,,*56
$GNGGA,094616.40,3422.38850160,N,10853.82970807,E,1,25,0.7,376.866,M,-35.776,M,,*5F
$GNGGA,094616.50,3422.38839445,N,10853.82933185,E,1,25,0.7,376.919,M,-35.776,M,,*5E
$GNGGA,094616.60,3422.38851319,N,10853.82893979,E,1,25,0.7,376.039,M,-35.776,M,,*56
$GNGGA,094616.70,3422.38840677,N,10853.82860021,E,1,25,0.7,376.080,M,-35.776,M,,*50
$GNGGA,094616.80,3422.38825338,N,10853.82834722,E,1,25,0.7,375.287,M,-35.776,M,,*51
$GNGGA,094616.90,3422.38816391,N,10853.82801895,E,1,25,0.7,375.295,M,-35.776,M,,*55
$GNGGA,094617.00,3422.38850576,N,10853.82748218,E,1,26,0.6,373.972,M,-35.776,M,,*5B
$GNGGA,094617.10,3422.38842065,N,10853.82715770,E,1,26,0.6,373.968,M,-35.776,M,,*56
$GNGGA,094617.20,3422.38849942,N,10853.82671449,E,1,26,0.6,374.281,M,-35.776,M,,*53
$GNGGA,094617.30,3422.38843876,N,10853.82639834,E,1,26,0.6,374.140,M,-35.776,M,,*5A
$GNGGA,094617.40,3422.38761802,N,10853.82622662,E,1,26,0.6,379.008,M,-35.776,M,,*56
$GNGGA,094617.50,3422.38756263,N,10853.82593237,E,1,26,0.6,378.981,M,-35.776,M,,*5A
$GNGGA,094617.60,3422.38754384,N,10853.82555394,E,1,27,0.6,378.593,M,-35.776,M,,*5F
$GNGGA,094617.70,3422.38749681,N,10853.82528293,E,1,27,0.6,378.627,M,-35.776,M,,*52
$GNGGA,094617.80,3422.38742797,N,10853.82503565,E,1,27,0.6,378.405,M,-35.776,M,,*55
$GNGGA,094617.90,3422.38738160,N,10853.82477753,E,1,27,0.6,378.394,M,-35.776,M,,*5D
$GNGGA,094618.00,3422.38733861,N,10853.82454908,E,1,27,0.6,377.366,M,-35.776,M,,*5B
$GNGGA,094618.10,3422.38730171,N,10853.82432030,E,1,27,0.6,377.328,M,-35.776,M,,*59
$GNGGA,094618.20,3422.38769881,N,10853.82422542,E,1,27,0.6,374.823,M,-35.776,M,,*52
$GNGGA,094618.30,3422.38767279,N,10853.82401181,E,1,27,0.6,374.841,M,-35.776,M,,*5E
$GNGGA,094618.40,3422.38825070,N,10853.82328992,E,1,28,0.6,374.084,M,-35.776,M,,*53
$GNGGA,094618.50,3422.38824211,N,10853.82307992,E,1,28,0.6,374.063,M,-35.776,M,,*52
$GNGGA,094618.60,3422.38784894,N,10853.82298061,E,1,28,0.6,374.610,M,-35.776,M,,*53
$GNGGA,094618.70,3422.38785716,N,10853.82276229,E,1,28,0.6,374.620,M,-35.776,M,,*5B
$GNGGA,094618.80,3422.38747383,N,10853.82274536,E,1,28,0.6,377.212,M,-35.776,M,,*5F
$GNGGA,094618.90,3422.38749621,N,10853.82252654,E,1,28,0.6,377.245,M,-35.776,M,,*5C
$GNGGA,094619.00,3422.38750915,N,10853.82237588,E,1,28,0.6,376.938,M,-35.776,M,,*55
$GNGGA,094619.10,3422.38755962,N,10853.82219649,E,1,28,0.6,376.814,M,-35.776,M,,*5C
$GNGGA,094619.20,3422.38785784,N,10853.82194666,E,1,27,0.6,376.117,M,-35.776,M,,*5A
$GNGGA,094619.30,3422.38792814,N,10853.82178377,E,1,27,0.6,375.991,M,-35.776,M,,*59
$GNGGA,094619.40,3422.38816743,N,10853.82144443,E,1,27,0.6,375.159,M,-35.776,M,,*53
$GNGGA,094619.50,3422.38822635,N,10853.82123669,E,1,27,0.6,375.216,M,-35.776,M,,*56
$GNGGA,094619.60,3422.38841173,N,10853.82061311,E,1,27,0.6,372.502,M,-35.776,M,,*5D
$GNGGA,094619.70,3422.38848901,N,10853.82042375,E,1,27,0.6,372.520,M,-35.776,M,,*5B
$GNGGA,094619.80,3422.38859293,N,10853.82029072,E,1,27,0.6,372.381,M,-35.776,M,,*50
$GNGGA,094619.90,3422.38870250,N,10853.82013502,E,1,27,0.6,372.364,M,-35.776,M,,*55
$GNGGA,094620.00,3422.38884269,N,10853.82000639,E,1,27,0.6,372.699,M,-35.776,M,,*59
$GNGGA,094620.10,3422.38895354,N,10853.81984959,E,1,27,0.6,372.741,M,-35.776,M,,*5C
$GNGGA,094620.20,3422.38900110,N,10853.81986228,E,1,26,0.6,373.515,M,-35.776,M,,*5C
$GNGGA,094620.30,3422.38912618,N,10853.81971697,E,1,26,0.6,373.483,M,-35.776,M,,*57
$GNGGA,094620.40,3422.38931920,N,10853.81963623,E,1,26,0.6,373.539,M,-35.776,M,,*59
$GNGGA,094620.50,3422.38945149,N,10853.81950323,E,1,26,0.6,373.540,M,-35.776,M,,*57
$GNGGA,094620.60,3422.38958444,N,10853.81941768,E,1,26,0.6,373.737,M,-35.776,M,,*59
$GNGGA,094620.70,3422.38973577,N,10853.81930463,E,1,26,0.6,373.717,M,-35.776,M,,*5C
$GNGGA,094620.80,3422.38993345,N,10853.81912685,E,1,26,0.6,373.380,M,-35.776,M,,*5A
$GNGGA,094620.90,3422.39009779,N,10853.81901463,E,1,26,0.6,373.360,M,-35.776,M,,*5D
$GNGGA,094621.00,3422.39026963,N,10853.81894059,E,1,26,0.6,373.632,M,-35.776,M,,*5F
$GNGGA,094621.10,3422.39042855,N,10853.81883702,E,1,26,0.6,373.579,M,-35.776,M,,*5B
$GNGGA,094621.20,3422.39043518,N,10853.81902833,E,1,26,0.6,375.230,M,-35.776,M,,*54
$GNGGA,094621.30,3422.39063664,N,10853.81893509,E,1,26,0.6,375.183,M,-35.776,M,,*59
$GNGGA,094621.40,3422.39078335,N,10853.81894559,E,1,26,0.6,375.669,M,-35.776,M,,*54
$GNGGA,094621.50,3422.39098890,N,10853.81884619,E,1,26,0.6,375.695,M,-35.776,M,,*5A
$GNGGA,094621.60,3422.39119079,N,10853.81878016,E,1,25,0.6,373.232,M,-35.776,M,,*58
$GNGGA,094621.70,3422.39140953,N,10853.81868616,E,1,25,0.6,373.207,M,-35.776,M,,*55
$GNGGA,094621.80,3422.39139122,N,10853.81882734,E,1,25,0.6,375.623,M,-35.776,M,,*5B
$GNGGA,094621.90,3422.39161154,N,10853.81871303,E,1,25,0.6,375.642,M,-35.776,M,,*5D
$GNGGA,094622.00,3422.39178149,N,10853.81870507,E,1,25,0.6,376.414,M,-35.776,M,,*52
$GNGGA,094622.10,3422.39202469,N,10853.81859481,E,1,25,0.6,376.457,M,-35.776,M,,*59
$GNGGA,094622.20,3422.39242262,N,10853.81848546,E,1,25,0.6,376.161,M,-35.776,M,,*59
$GNGGA,094622.30,3422.39267112,N,10853.81836613,E,1,25,0.6,376.140,M,-35.776,M,,*52
$GNGGA,094622.40,3422.39316929,N,10853.81799812,E,1,25,0.6,374.671,M,-35.776,M,,*50
$GNGGA,094622.50,3422.39343329,N,10853.81786956,E,1,25,0.6,374.705,M,-35.776,M,,*56
$GNGGA,094622.60,3422.39364859,N,10853.81776994,E,1,25,0.6,374.232,M,-35.776,M,,*5C
$GNGGA,094622.70,3422.39392680,N,10853.81762147,E,1,25,0.6,374.225,M,-35.776,M,,*5B
$GNGGA,094622.80,3422.39430037,N,10853.81722194,E,1,24,0.7,373.167,M,-35.776,M,,*59
$GNGGA,094622.90,3422.39460463,N,10853.81707371,E,1,24,0.7,373.168,M,-35.776,M,,*59
$GNGGA,094623.00,3422.39472853,N,10853.81720449,E,1,25,0.6,376.287,M,-35.776,M,,*53
$GNGGA,094623.10,3422.39505369,N,10853.81703798,E,1,25,0.6,376.283,M,-35.777,M,,*5A
$GNGGA,094623.20,3422.39536779,N,10853.81670907,E,1,25,0.6,374.928,M,-35.777,M,,*59
$GNGGA,094623.30,3422.39571575,N,10853.81655204,E,1,25,0.6,374.924,M,-35.777,M,,*56
$GNGGA,094623.40,3422.39617279,N,10853.81631494,E,1,25,0.6,373.692,M,-35.777,M,,*51
$GNGGA,094623.50,3422.39653023,N,10853.81614420,E,1,25,0.6,373.689,M,-35.777,M,,*5F
$GNGGA,094623.60,3422.39716642,N,10853.81560550,E,1,25,0.6,373.238,M,-35.777,M,,*55
$GNGGA,094623.70,3422.39755179,N,10853.81542099,E,1,25,0.6,373.254,M,-35.777,M,,*56
$GNGGA,094623.80,3422.39786303,N,10853.81530794,E,1,25,0.6,373.069,M,-35.777,M,,*5B
$GNGGA,094623.90,3422.39826863,N,10853.81512221,E,1,25,0.6,373.035,M,-35.777,M,,*50
$GNGGA,094624.00,3422.39858257,N,10853.81507824,E,1,25,0.6,373.469,M,-35.777,M,,*5C
$GNGGA,094624.10,3422.39899649,N,10853.81488780,E,1,25,0.6,373.516,M,-35.777,M,,*55
$GNGGA,094624.20,3422.39960012,N,10853.81445105,E,1,25,0.6,373.432,M,-35.777,M,,*54
$GNGGA,094624.30,3422.40002738,N,10853.81424799,E,1,25,0.6,373.341,M,-35.777,M,,*5E
$GNGGA,094624.40,3422.40049785,N,10853.81408515,E,1,26,0.6,373.269,M,-35.777,M,,*50
$GNGGA,094624.50,3422.40095896,N,10853.81387009,E,1,26,0.6,373.277,M,-35.777,M,,*5A
$GNGGA,094624.60,3422.40142330,N,10853.81357004,E,1,26,0.6,372.668,M,-35.777,M,,*5E
$GNGGA,094624.70,3422.40188014,N,10853.81336180,E,1,26,0.6,372.672,M,-35.777,M,,*5D
$GNGGA,094624.80,3422.40225013,N,10853.81337443,E,1,26,0.6,373.259,M,-35.777,M,,*56
$GNGGA,094624.90,3422.40271446,N,10853.81316525,E,1,26,0.6,373.227,M,-35.777,M,,*59
$GNGGA,094625.00,3422.40311527,N,10853.81308435,E,1,26,0.6,373.039,M,-35.777,M,,*52
$GNGGA,094625.10,3422.40361383,N,10853.81285554,E,1,26,0.6,373.007,M,-35.777,M,,*53
$GNGGA,094625.20,3422.40413768,N,10853.81255186,E,1,24,0.7,372.452,M,-35.777,M,,*53
$GNGGA,094625.30,3422.40463159,N,10853.81233564,E,1,24,0.7,372.443,M,-35.777,M,,*59
$GNGGA,094625.40,3422.40512421,N,10853.81221725,E,1,24,0.7,373.061,M,-35.777,M,,*52
$GNGGA,094625.50,3422.40560511,N,10853.81200503,E,1,24,0.7,373.051,M,-35.777,M,,*52
$GNGGA,094625.60,3422.40611219,N,10853.81191228,E,1,24,0.7,374.007,M,-35.777,M,,*5A
$GNGGA,094625.70,3422.40659250,N,10853.81168782,E,1,24,0.7,374.017,M,-35.777,M,,*58
$GNGGA,094625.80,3422.40701279,N,10853.81158270,E,1,24,0.7,373.927,M,-35.777,M,,*56
$GNGGA,094625.90,3422.40748549,N,10853.81135344,E,1,24,0.7,373.850,M,-35.777,M,,*52
$GNGGA,094626.00,3422.40792707,N,10853.81122151,E,1,25,0.6,373.963,M,-35.777,M,,*56
$GNGGA,094626.10,3422.40837418,N,10853.81100963,E,1,25,0.6,373.969,M,-35.777,M,,*59
$GNGGA,094626.20,3422.40880305,N,10853.81083136,E,1,25,0.6,373.837,M,-35.777,M,,*55
$GNGGA,094626.30,3422.40922914,N,10853.81064221,E,1,25,0.6,373.828,M,-35.777,M,,*55
$GNGGA,094626.40,3422.40966476,N,10853.81043824,E,1,25,0.6,373.892,M,-35.777,M,,*50
$GNGGA,094626.50,3422.41006970,N,10853.81025588,E,1,25,0.6,373.909,M,-35.777,M,,*5C
$GNGGA,094626.60,3422.41043379,N,10853.81004641,E,1,26,0.6,373.891,M,-35.777,M,,*5B
$GNGGA,094626.70,3422.41080615,N,10853.80988004,E,1,26,0.6,373.918,M,-35.777,M,,*51
$GNGGA,094626.80,3422.41118568,N,10853.80969896,E,1,26,0.6,373.937,M,-35.777,M,,*56
$GNGGA,094626.90,3422.41153786,N,10853.80955347,E,1,26,0.6,373.990,M,-35.778,M,,*50
$GNGGA,094627.00,3422.41191906,N,10853.80935443,E,1,25,0.6,374.366,M,-35.778,M,,*52
$GNGGA,094627.10,3422.41224912,N,10853.80923284,E,1,25,0.6,374.356,M,-35.778,M,,*52
$GNGGA,094627.20,3422.41264650,N,10853.80893900,E,1,25,0.6,374.731,M,-35.778,M,,*54
$GNGGA,094627.30,3422.41293993,N,10853.80880937,E,1,25,0.6,374.724,M,-35.778,M,,*5F
$GNGGA,094627.40,3422.41310123,N,10853.80871658,E,1,25,0.6,373.326,M,-35.778,M,,*58
$GNGGA,094627.50,3422.41337198,N,10853.80860551,E,1,25,0.6,373.340,M,-35.778,M,,*56
$GNGGA,094627.60,3422.41358279,N,10853.80832649,E,1,25,0.6,371.909,M,-35.778,M,,*58
$GNGGA,094627.70,3422.41383598,N,10853.80822044,E,1,25,0.6,371.926,M,-35.778,M,,*50
$GNGGA,094627.80,3422.41409141,N,10853.80799403,E,1,25,0.6,371.525,M,-35.778,M,,*5D
$GNGGA,094627.90,3422.41433413,N,10853.80788227,E,1,25,0.6,371.510,M,-35.778,M,,*51
$GNGGA,094628.00,3422.41451595,N,10853.80831944,E,1,25,0.6,373.573,M,-35.778,M,,*58
$GNGGA,094628.10,3422.41475587,N,10853.80820491,E,1,25,0.6,373.576,M,-35.778,M,,*5C
$GNGGA,094628.20,3422.41497936,N,10853.80808981,E,1,25,0.6,373.516,M,-35.778,M,,*55
$GNGGA,094628.30,3422.41521229,N,10853.80798063,E,1,25,0.6,373.520,M,-35.778,M,,*5B
$GNGGA,094628.40,3422.41540854,N,10853.80785739,E,1,26,0.6,373.473,M,-35.778,M,,*5B
$GNGGA,094628.50,3422.41563491,N,10853.80774725,E,1,26,0.6,373.472,M,-35.778,M,,*5C
$GNGGA,094628.60,3422.41593392,N,10853.80759218,E,1,26,0.6,373.721,M,-35.778,M,,*55
$GNGGA,094628.70,3422.41615435,N,10853.80748372,E,1,26,0.6,373.731,M,-35.778,M,,*5F
$GNGGA,094628.80,3422.41638535,N,10853.80735185,E,1,26,0.6,373.825,M,-35.778,M,,*54
$GNGGA,094628.90,3422.41659832,N,10853.80724195,E,1,26,0.6,373.837,M,-35.778,M,,*5A
$GNGGA,094629.00,3422.41684057,N,10853.80708515,E,1,26,0.6,374.036,M,-35.778,M,,*55
$GNGGA,094629.10,3422.41705315,N,10853.80697350,E,1,26,0.6,374.029,M,-35.778,M,,*57
$GNGGA,094629.20,3422.41733670,N,10853.80675070,E,1,26,0.6,374.430,M,-35.778,M,,*56
$GNGGA,094629.30,3422.41754433,N,10853.80663999,E,1,26,0.6,374.439,M,-35.778,M,,*53
$GNGGA,094629.40,3422.41775168,N,10853.80654667,E,1,26,0.6,374.422,M,-35.778,M,,*5C
$GNGGA,094629.50,3422.41796112,N,10853.80643150,E,1,26,0.6,374.439,M,-35.778,M,,*52
$GNGGA,094629.60,3422.41823576,N,10853.80622297,E,1,28,0.6,374.628,M,-35.778,M,,*55
$GNGGA,094629.70,3422.41844187,N,10853.80610905,E,1,28,0.6,374.624,M,-35.778,M,,*52
$GNGGA,094629.80,3422.41858365,N,10853.80601487,E,1,28,0.6,374.232,M,-35.778,M,,*5A
$GNGGA,094629.90,3422.41878925,N,10853.80589712,E,1,28,0.6,374.234,M,-35.778,M,,*5D
$GNGGA,094630.00,3422.41889397,N,10853.80589206,E,1,28,0.6,373.778,M,-35.778,M,,*5B
$GNGGA,094630.10,3422.41910084,N,10853.80577267,E,1,28,0.6,373.788,M,-35.778,M,,*53
$GNGGA,094630.20,3422.41932405,N,10853.80566720,E,1,28,0.6,373.775,M,-35.778,M,,*59
$GNGGA,094630.30,3422.41953217,N,10853.80554398,E,1,28,0.6,373.773,M,-35.778,M,,*5A
$GNGGA,094630.40,3422.41982207,N,10853.80544009,E,1,28,0.6,373.458,M,-35.778,M,,*50
$GNGGA,094630.50,3422.42004574,N,10853.80530708,E,1,28,0.6,373.456,M,-35.778,M,,*5D
$GNGGA,094630.60,3422.42029674,N,10853.80512982,E,1,28,0.6,373.570,M,-35.778,M,,*5B
$GNGGA,094630.70,3422.42053353,N,10853.80499240,E,1,28,0.6,373.577,M,-35.778,M,,*57
$GNGGA,094630.80,3422.42078452,N,10853.80482025,E,1,28,0.6,373.610,M,-35.778,M,,*5E
$GNGGA,094630.90,3422.42103365,N,10853.80467694,E,1,28,0.6,373.610,M,-35.778,M,,*56
$GNGGA,094631.00,3422.42132089,N,10853.80449519,E,1,28,0.6,373.724,M,-35.778,M,,*51
$GNGGA,094631.10,3422.42158062,N,10853.80434670,E,1,28,0.6,373.718,M,-35.778,M,,*50
$GNGGA,094631.20,3422.42186822,N,10853.80416344,E,1,28,0.6,373.811,M,-35.778,M,,*58
$GNGGA,094631.30,3422.42213752,N,10853.80400760,E,1,28,0.6,373.816,M,-35.779,M,,*5D
$GNGGA,094631.40,3422.42241584,N,10853.80383087,E,1,28,0.6,373.845,M,-35.779,M,,*50
$GNGGA,094631.50,3422.42269359,N,10853.80366804,E,1,28,0.6,373.858,M,-35.779,M,,*59
$GNGGA,094631.60,3422.42296224,N,10853.80352182,E,1,28,0.6,373.821,M,-35.779,M,,*5F
$GNGGA,094631.70,3422.42324524,N,10853.80335730,E,1,28,0.6,373.824,M,-35.779,M,,*5A
$GNGGA,094631.80,3422.42349753,N,10853.80323472,E,1,28,0.6,373.695,M,-35.779,M,,*5A
$GNGGA,094631.90,3422.42378678,N,10853.80306664,E,1,28,0.6,373.699,M,-35.779,M,,*5F
$GNGGA,094632.00,3422.42416267,N,10853.80278954,E,1,28,0.6,374.049,M,-35.779,M,,*58
$GNGGA,094632.10,3422.42445841,N,10853.80262098,E,1,28,0.6,374.048,M,-35.779,M,,*52
$GNGGA,094632.20,3422.42472871,N,10853.80248259,E,1,28,0.6,373.933,M,-35.779,M,,*53
$GNGGA,094632.30,3422.42503334,N,10853.80231658,E,1,28,0.6,373.929,M,-35.779,M,,*5F
$GNGGA,094632.40,3422.42537441,N,10853.80211798,E,1,28,0.6,374.046,M,-35.779,M,,*52
$GNGGA,094632.50,3422.42568746,N,10853.80195509,E,1,28,0.6,374.043,M,-35.779,M,,*5D
$GNGGA,094632.60,3422.42601050,N,10853.80179557,E,1,28,0.6,374.059,M,-35.779,M,,*50
$GNGGA,094632.70,3422.42633402,N,10853.80163053,E,1,28,0.6,374.059,M,-35.779,M,,*59
$GNGGA,094632.80,3422.42666652,N,10853.80147069,E,1,28,0.6,374.062,M,-35.779,M,,*56
$GNGGA,094632.90,3422.42700171,N,10853.80130516,E,1,28,0.6,374.063,M,-35.779,M,,*5C
$GNGGA,094633.00,3422.42730579,N,10853.80112785,E,1,28,0.6,373.973,M,-35.779,M,,*5C
$GNGGA,094633.10,3422.42764587,N,10853.80096461,E,1,28,0.6,373.970,M,-35.779,M,,*5A
$GNGGA,094633.20,3422.42799337,N,10853.80080420,E,1,28,0.6,373.982,M,-35.779,M,,*59
$GNGGA,094633.30,3422.42834294,N,10853.80064259,E,1,28,0.6,373.980,M,-35.779,M,,*58
$GNGGA,094633.40,3422.42869880,N,10853.80047221,E,1,28,0.6,373.975,M,-35.779,M,,*5C
$GNGGA,094633.50,3422.42906081,N,10853.80030390,E,1,28,0.6,373.985,M,-35.779,M,,*58
$GNGGA,094633.60,3422.42942776,N,10853.80013582,E,1,28,0.6,373.978,M,-35.779,M,,*52
$GNGGA,094633.70,3422.42979744,N,10853.79996981,E,1,28,0.6,373.982,M,-35.779,M,,*52
$GNGGA,094633.80,3422.43017284,N,10853.79980109,E,1,28,0.6,373.984,M,-35.779,M,,*5D
$GNGGA,094633.90,3422.43055415,N,10853.79963800,E,1,28,0.6,373.979,M,-35.779,M,,*5B
$GNGGA,094634.00,3422.43093962,N,10853.79947155,E,1,28,0.6,373.979,M,-35.779,M,,*5D
$GNGGA,094634.10,3422.43132949,N,10853.79930678,E,1,28,0.6,373.984,M,-35.779,M,,*55
$GNGGA,094634.20,3422.43172667,N,10853.79914394,E,1,28,0.6,373.986,M,-35.779,M,,*52
$GNGGA,094634.30,3422.43212585,N,10853.79898096,E,1,28,0.6,373.981,M,-35.779,M,,*5A
$GNGGA,094634.40,3422.43252970,N,10853.79881509,E,1,28,0.6,373.979,M,-35.779,M,,*53
$GNGGA,094634.50,3422.43293570,N,10853.79864534,E,1,28,0.6,373.984,M,-35.779,M,,*54
$GNGGA,094634.60,3422.43334772,N,10853.79847667,E,1,28,0.6,373.983,M,-35.779,M,,*58
$GNGGA,094634.70,3422.43376219,N,10853.79830387,E,1,28,0.6,373.984,M,-35.779,M,,*5B
$GNGGA,094634.80,3422.43418001,N,10853.79812673,E,1,28,0.6,373.985,M,-35.779,M,,*5F
$GNGGA,094634.90,3422.43459837,N,10853.79794625,E,1,28,0.6,373.993,M,-35.779,M,,*53
$GNGGA,094635.00,3422.43502155,N,10853.79776039,E,1,28,0.6,373.986,M,-35.779,M,,*5A
$GNGGA,094635.10,3422.43544988,N,10853.79757162,E,1,28,0.6,373.989,M,-35.779,M,,*52
$GNGGA,094635.20,3422.43588167,N,10853.79738199,E,1,28,0.6,373.996,M,-35.779,M,,*5B
$GNGGA,094635.30,3422.43631431,N,10853.79718880,E,1,28,0.6,373.992,M,-35.779,M,,*5A
$GNGGA,094635.40,3422.43675245,N,10853.79699369,E,1,28,0.6,374.000,M,-35.779,M,,*59
$GNGGA,094635.50,3422.43719084,N,10853.79680068,E,1,28,0.6,374.005,M,-35.779,M,,*53
$GNGGA,094635.60,3422.43763452,N,10853.79660684,E,1,28,0.6,374.018,M,-35.779,M,,*54
$GNGGA,094635.70,3422.43807496,N,10853.79641214,E,1,28,0.6,374.015,M,-35.780,M,,*55
$GNGGA,094635.80,3422.43851922,N,10853.79621747,E,1,28,0.6,374.027,M,-35.780,M,,*5F
$GNGGA,094635.90,3422.43896018,N,10853.79602034,E,1,28,0.6,374.027,M,-35.780,M,,*57
$GNGGA,094636.00,3422.43940212,N,10853.79582742,E,1,28,0.6,374.029,M,-35.780,M,,*5C
$GNGGA,094636.10,3422.43984008,N,10853.79563356,E,1,28,0.6,374.037,M,-35.780,M,,*5D
$GNGGA,094636.20,3422.44028056,N,10853.79544061,E,1,28,0.6,374.033,M,-35.780,M,,*5B
$GNGGA,094636.30,3422.44071929,N,10853.79524464,E,1,28,0.6,374.035,M,-35.780,M,,*56
$GNGGA,094636.40,3422.44115636,N,10853.79505408,E,1,28,0.6,374.050,M,-35.780,M,,*59
$GNGGA,094636.50,3422.44159245,N,10853.79485992,E,1,28,0.6,374.042,M,-35.780,M,,*54
$GNGGA,094636.60,3422.44202859,N,10853.79466625,E,1,28,0.6,374.054,M,-35.780,M,,*54
$GNGGA,094636.70,3422.44246773,N,10853.79446980,E,1,28,0.6,374.054,M,-35.780,M,,*50
$GNGGA,094636.80,3422.44291296,N,10853.79427090,E,1,28,0.6,374.058,M,-35.780,M,,*58
$GNGGA,094636.90,3422.44335855,N,10853.79407131,E,1,28,0.6,374.053,M,-35.780,M,,*50
$GNGGA,094637.00,3422.44380816,N,10853.79386666,E,1,28,0.6,374.055,M,-35.780,M,,*5C
$GNGGA,094637.10,3422.44426408,N,10853.79366103,E,1,28,0.6,374.062,M,-35.780,M,,*5B
$GNGGA,094637.20,3422.44472189,N,10853.79345551,E,1,28,0.6,374.058,M,-35.780,M,,*5E
$GNGGA,094637.30,3422.44518338,N,10853.79324855,E,1,28,0.6,374.066,M,-35.780,M,,*59
$GNGGA,094637.40,3422.44564749,N,10853.79304253,E,1,28,0.6,374.068,M,-35.780,M,,*57
$GNGGA,094637.50,3422.44611162,N,10853.79283979,E,1,28,0.6,374.067,M,-35.780,M,,*5A
$GNGGA,094637.60,3422.44657857,N,10853.79263883,E,1,28,0.6,374.077,M,-35.780,M,,*5F
$GNGGA,094637.70,3422.44704361,N,10853.79243835,E,1,28,0.6,374.072,M,-35.780,M,,*5D
$GNGGA,094637.80,3422.44750956,N,10853.79224663,E,1,28,0.6,374.072,M,-35.780,M,,*51
$GNGGA,094637.90,3422.44797551,N,10853.79205980,E,1,28,0.6,374.076,M,-35.780,M,,*55
$GNGGA,094638.00,3422.44844110,N,10853.79187221,E,1,28,0.6,374.073,M,-35.780,M,,*5F
$GNGGA,094638.10,3422.44890601,N,10853.79168950,E,1,28,0.6,374.075,M,-35.780,M,,*5A
$GNGGA,094638.20,3422.44936800,N,10853.79150639,E,1,28,0.6,374.058,M,-35.780,M,,*5F
$GNGGA,094638.30,3422.44983040,N,10853.79132890,E,1,28,0.6,374.061,M,-35.780,M,,*5F
$GNGGA,094638.40,3422.45029256,N,10853.79115390,E,1,28,0.6,374.051,M,-35.780,M,,*58
$GNGGA,094638.50,3422.45074998,N,10853.79098650,E,1,28,0.6,374.049,M,-35.780,M,,*5C
$GNGGA,094638.60,3422.45120593,N,10853.79082090,E,1,28,0.6,374.051,M,-35.780,M,,*50
$GNGGA,094638.70,3422.45165676,N,10853.79066166,E,1,28,0.6,374.053,M,-35.780,M,,*58
$GNGGA,094638.80,3422.45210619,N,10853.79050932,E,1,28,0.6,374.040,M,-35.780,M,,*51
$GNGGA,094638.90,3422.45255389,N,10853.79036479,E,1,28,0.6,374.039,M,-35.780,M,,*51
$GNGGA,094639.00,3422.45299770,N,10853.79023069,E,1,28,0.6,374.034,M,-35.780,M,,*57
$GNGGA,094639.10,3422.45343573,N,10853.79010590,E,1,28,0.6,374.032,M,-35.780,M,,*54
$GNGGA,094639.20,3422.45387125,N,10853.78999433,E,1,28,0.6,374.023,M,-35.780,M,,*59
$GNGGA,094639.30,3422.45430067,N,10853.78989674,E,1,28,0.6,374.024,M,-35.781,M,,*52
$GNGGA,094639.40,3422.45472419,N,10853.78981293,E,1,28,0.6,374.038,M,-35.781,M,,*56
$GNGGA,094639.50,3422.45514484,N,10853.78973703,E,1,28,0.6,374.039,M,-35.781,M,,*52
$GNGGA,094639.60,3422.45555966,N,10853.78967243,E,1,28,0.6,374.038,M,-35.781,M,,*50
$GNGGA,094639.70,3422.45596781,N,10853.78962265,E,1,28,0.6,374.035,M,-35.781,M,,*55
$GNGGA,094639.80,3422.45637487,N,10853.78959297,E,1,28,0.6,374.032,M,-35.781,M,,*55
$GNGGA,094639.90,3422.45678230,N,10853.78958750,E,1,28,0.6,374.035,M,-35.781,M,,*5D
$GNGGA,094640.00,3422.45718594,N,10853.78960955,E,1,28,0.6,374.034,M,-35.781,M,,*55
$GNGGA,094640.10,3422.45758401,N,10853.78966035,E,1,28,0.6,374.042,M,-35.781,M,,*55
$GNGGA,094640.20,3422.45793786,N,10853.78969241,E,1,28,0.6,374.356,M,-35.781,M,,*55
$GNGGA,094640.30,3422.45832822,N,10853.78978240,E,1,28,0.6,374.358,M,-35.781,M,,*5E
$GNGGA,094640.40,3422.45871832,N,10853.78988550,E,1,28,0.6,374.321,M,-35.781,M,,*58
$GNGGA,094640.50,3422.45909850,N,10853.79000387,E,1,28,0.6,374.317,M,-35.781,M,,*52
$GNGGA,094640.60,3422.45947683,N,10853.79012855,E,1,28,0.6,374.331,M,-35.781,M,,*58
$GNGGA,094640.70,3422.45985010,N,10853.79026561,E,1,28,0.6,374.325,M,-35.781,M,,*53
$GNGGA,094640.80,3422.46021793,N,10853.79041002,E,1,28,0.6,374.334,M,-35.781,M,,*55
$GNGGA,094640.90,3422.46058117,N,10853.79056805,E,1,28,0.6,374.324,M,-35.781,M,,*58
$GNGGA,094641.00,3422.46093927,N,10853.79074089,E,1,28,0.6,374.316,M,-35.781,M,,*51
$GNGGA,094641.10,3422.46128857,N,10853.79092692,E,1,28,0.6,374.322,M,-35.781,M,,*54
$GNGGA,094641.20,3422.46164444,N,10853.79113410,E,1,28,0.6,374.239,M,-35.781,M,,*5A
$GNGGA,094641.30,3422.46198336,N,10853.79134193,E,1,28,0.6,374.244,M,-35.781,M,,*5B
$GNGGA,094641.40,3422.46231903,N,10853.79155858,E,1,28,0.6,374.276,M,-35.781,M,,*58
$GNGGA,094641.50,3422.46265770,N,10853.79179529,E,1,28,0.6,374.281,M,-35.781,M,,*5F
$GNGGA,094641.60,3422.46299322,N,10853.79204003,E,1,28,0.6,374.309,M,-35.781,M,,*59
$GNGGA,094641.70,3422.46333402,N,10853.79230987,E,1,28,0.6,374.307,M,-35.781,M,,*50
$GNGGA,094641.80,3422.46371181,N,10853.79262622,E,1,28,0.6,373.967,M,-35.781,M,,*5B
$GNGGA,094641.90,3422.46405037,N,10853.79292592,E,1,28,0.6,373.977,M,-35.781,M,,*54
$GNGGA,094642.00,3422.46438548,N,10853.79324543,E,1,28,0.6,373.967,M,-35.781,M,,*5C
$GNGGA,094642.10,3422.46471903,N,10853.79358313,E,1,28,0.6,373.973,M,-35.781,M,,*5E
$GNGGA,094642.20,3422.46504797,N,10853.79393959,E,1,28,0.6,373.968,M,-35.781,M,,*54
$GNGGA,094642.30,3422.46537224,N,10853.79431466,E,1,28,0.6,373.961,M,-35.781,M,,*5F
$GNGGA,094642.40,3422.46569553,N,10853.79471079,E,1,28,0.6,373.968,M,-35.781,M,,*53
$GNGGA,094642.50,3422.46601003,N,10853.79512571,E,1,28,0.6,373.970,M,-35.781,M,,*5F
$GNGGA,094642.60,3422.46631699,N,10853.79555660,E,1,28,0.6,373.967,M,-35.781,M,,*5C
$GNGGA,094642.70,3422.46661783,N,10853.79600377,E,1,28,0.6,373.960,M,-35.781,M,,*55
$GNGGA,094642.80,3422.46690940,N,10853.79646649,E,1,28,0.6,373.949,M,-35.781,M,,*54
$GNGGA,094642.90,3422.46719722,N,10853.79695149,E,1,28,0.6,373.952,M,-35.781,M,,*5C
$GNGGA,094643.00,3422.46747900,N,10853.79745631,E,1,28,0.6,373.956,M,-35.781,M,,*51
$GNGGA,094643.10,3422.46775240,N,10853.79797135,E,1,28,0.6,373.952,M,-35.781,M,,*56
$GNGGA,094643.20,3422.46798330,N,10853.79847183,E,1,28,0.6,374.266,M,-35.781,M,,*54
$GNGGA,094643.30,3422.46824455,N,10853.79901791,E,1,28,0.6,374.267,M,-35.781,M,,*5E
$GNGGA,094643.40,3422.46850898,N,10853.79957835,E,1,28,0.6,374.232,M,-35.780,M,,*54
$GNGGA,094643.50,3422.46876895,N,10853.80014460,E,1,28,0.6,374.225,M,-35.780,M,,*5E
$GNGGA,094643.60,3422.46903538,N,10853.80071406,E,1,28,0.6,374.220,M,-35.780,M,,*52
$GNGGA,094643.70,3422.46929797,N,10853.80128187,E,1,28,0.6,374.212,M,-35.780,M,,*5C
$GNGGA,094643.80,3422.46956210,N,10853.80184641,E,1,28,0.6,374.212,M,-35.780,M,,*5A
$GNGGA,094643.90,3422.46982923,N,10853.80240659,E,1,28,0.6,374.227,M,-35.780,M,,*5D
$GNGGA,094644.00,3422.47009768,N,10853.80296260,E,1,28,0.6,374.210,M,-35.780,M,,*58
$GNGGA,094644.10,3422.47036892,N,10853.80351616,E,1,28,0.6,374.211,M,-35.780,M,,*51
$GNGGA,094644.20,3422.47062701,N,10853.80406021,E,1,28,0.6,374.299,M,-35.780,M,,*51
$GNGGA,094644.30,3422.47089461,N,10853.80460649,E,1,28,0.6,374.299,M,-35.780,M,,*58
$GNGGA,094644.40,3422.47116139,N,10853.80514862,E,1,28,0.6,374.322,M,-35.780,M,,*54
$GNGGA,094644.50,3422.47143467,N,10853.80568702,E,1,28,0.6,374.316,M,-35.780,M,,*5E
$GNGGA,094644.60,3422.47171182,N,10853.80621440,E,1,28,0.6,374.332,M,-35.780,M,,*5F
$GNGGA,094644.70,3422.47199617,N,10853.80673669,E,1,28,0.6,374.321,M,-35.780,M,,*5F
$GNGGA,094644.80,3422.47228324,N,10853.80726190,E,1,28,0.6,374.298,M,-35.780,M,,*5F
$GNGGA,094644.90,3422.47256466,N,10853.80778238,E,1,28,0.6,374.292,M,-35.780,M,,*56
$GNGGA,094645.00,3422.47284400,N,10853.80829397,E,1,28,0.6,374.290,M,-35.780,M,,*5C
$GNGGA,094645.10,3422.47312279,N,10853.80880755,E,1,28,0.6,374.293,M,-35.780,M,,*51
$GNGGA,094645.20,3422.47339478,N,10853.80931191,E,1,28,0.6,374.345,M,-35.780,M,,*53
$GNGGA,094645.30,3422.47366869,N,10853.80982213,E,1,28,0.6,374.347,M,-35.780,M,,*57
$GNGGA,094645.40,3422.47394194,N,10853.81032971,E,1,28,0.6,374.335,M,-35.780,M,,*5F
$GNGGA,094645.50,3422.47421210,N,10853.81083720,E,1,28,0.6,374.329,M,-35.780,M,,*55
$GNGGA,094645.60,3422.47447833,N,10853.81134452,E,1,28,0.6,374.322,M,-35.780,M,,*5D
$GNGGA,094645.70,3422.47473986,N,10853.81184877,E,1,28,0.6,374.316,M,-35.780,M,,*53
$GNGGA,094645.80,3422.47499977,N,10853.81235307,E,1,28,0.6,374.313,M,-35.780,M,,*56
$GNGGA,094645.90,3422.47525715,N,10853.81285828,E,1,28,0.6,374.307,M,-35.780,M,,*53
$GNGGA,094646.00,3422.47551199,N,10853.81335813,E,1,28,0.6,374.272,M,-35.780,M,,*59
$GNGGA,094646.10,3422.47576347,N,10853.81386063,E,1,28,0.6,374.269,M,-35.780,M,,*51
$GNGGA,094646.20,3422.47601506,N,10853.81437257,E,1,28,0.6,374.265,M,-35.780,M,,*56
$GNGGA,094646.30,3422.47626836,N,10853.81488601,E,1,28,0.6,374.269,M,-35.780,M,,*53
$GNGGA,094646.40,3422.47652221,N,10853.81540979,E,1,28,0.6,374.270,M,-35.780,M,,*56
$GNGGA,094646.50,3422.47677792,N,10853.81593956,E,1,28,0.6,374.267,M,-35.780,M,,*58
$GNGGA,094646.60,3422.47703192,N,10853.81647152,E,1,28,0.6,374.268,M,-35.780,M,,*56
$GNGGA,094646.70,3422.47728378,N,10853.81701742,E,1,28,0.6,374.284,M,-35.780,M,,*5E
$GNGGA,094646.80,3422.47754438,N,10853.81756438,E,1,28,0.6,374.271,M,-35.780,M,,*5F
$GNGGA,094646.90,3422.47779636,N,10853.81811524,E,1,28,0.6,374.284,M,-35.780,M,,*57
$GNGGA,094647.00,3422.47804813,N,10853.81867192,E,1,28,0.6,374.278,M,-35.780,M,,*58
$GNGGA,094647.10,3422.47829686,N,10853.81922072,E,1,28,0.6,374.279,M,-35.780,M,,*5A
$GNGGA,094647.20,3422.47845657,N,10853.81984856,E,1,28,0.6,374.667,M,-35.780,M,,*56
$GNGGA,094647.30,3422.47870133,N,10853.82039282,E,1,28,0.6,374.636,M,-35.780,M,,*5F
$GNGGA,094647.40,3422.47881629,N,10853.82105065,E,1,28,0.6,375.194,M,-35.780,M,,*51
$GNGGA,094647.50,3422.47904709,N,10853.82160690,E,1,28,0.6,375.235,M,-35.780,M,,*58
$GNGGA,094647.60,3422.47946992,N,10853.82197834,E,1,28,0.6,374.362,M,-35.780,M,,*5B
$GNGGA,094647.70,3422.47970242,N,10853.82252762,E,1,28,0.6,374.353,M,-35.780,M,,*5D
$GNGGA,094647.80,3422.47987839,N,10853.82312852,E,1,28,0.6,374.609,M,-35.780,M,,*5F
$GNGGA,094647.90,3422.48010489,N,10853.82368640,E,1,28,0.6,374.617,M,-35.780,M,,*5E
$GNGGA,094648.00,3422.48018035,N,10853.82437029,E,1,28,0.6,375.313,M,-35.779,M,,*51
$GNGGA,094648.10,3422.48041558,N,10853.82494245,E,1,28,0.6,375.292,M,-35.779,M,,*5B
$GNGGA,094648.20,3422.48089063,N,10853.82531183,E,1,28,0.6,374.178,M,-35.779,M,,*50
$GNGGA,094648.30,3422.48111633,N,10853.82589184,E,1,28,0.6,374.183,M,-35.779,M,,*52
$GNGGA,094648.40,3422.48133195,N,10853.82649009,E,1,28,0.6,374.232,M,-35.779,M,,*5C
$GNGGA,094648.50,3422.48155248,N,10853.82706515,E,1,28,0.6,374.255,M,-35.779,M,,*5D
$GNGGA,094648.60,3422.48180696,N,10853.82759156,E,1,28,0.6,373.984,M,-35.779,M,,*58
$GNGGA,094648.70,3422.48202218,N,10853.82816752,E,1,28,0.6,374.000,M,-35.779,M,,*56
$GNGGA,094648.80,3422.48226419,N,10853.82861080,E,1,28,0.6,373.401,M,-35.779,M,,*52
$GNGGA,094648.90,3422.48247429,N,10853.82918416,E,1,28,0.6,373.415,M,-35.779,M,,*56
$GNGGA,094649.00,3422.48266932,N,10853.82968998,E,1,28,0.6,373.134,M,-35.779,M,,*50
$GNGGA,094649.10,3422.48287045,N,10853.83026031,E,1,28,0.6,373.160,M,-35.779,M,,*5E
$GNGGA,094649.20,3422.48279624,N,10853.83118462,E,1,28,0.6,374.858,M,-35.779,M,,*56
$GNGGA,094649.30,3422.48299651,N,10853.83175209,E,1,28,0.6,374.876,M,-35.779,M,,*57
$GNGGA,094649.40,3422.48323786,N,10853.83220415,E,1,28,0.6,374.309,M,-35.779,M,,*50
$GNGGA,094649.50,3422.48343933,N,10853.83277490,E,1,28,0.6,374.312,M,-35.779,M,,*52
$GNGGA,094649.60,3422.48339447,N,10853.83369764,E,1,28,0.6,375.972,M,-35.779,M,,*59
$GNGGA,094649.70,3422.48360097,N,10853.83427670,E,1,28,0.6,375.973,M,-35.779,M,,*55
$GNGGA,094649.80,3422.48377617,N,10853.83491163,E,1,28,0.6,376.186,M,-35.779,M,,*5B
$GNGGA,094649.90,3422.48398573,N,10853.83550944,E,1,28,0.6,376.160,M,-35.779,M,,*53
$GNGGA,094650.00,3422.48421791,N,10853.83609495,E,1,28,0.6,375.985,M,-35.779,M,,*57
$GNGGA,094650.10,3422.48443352,N,10853.83670739,E,1,28,0.6,375.946,M,-35.779,M,,*5D
$GNGGA,094650.20,3422.48466012,N,10853.83731018,E,1,28,0.6,375.826,M,-35.779,M,,*59
$GNGGA,094650.30,3422.48487121,N,10853.83794348,E,1,28,0.6,375.827,M,-35.779,M,,*5E
$GNGGA,094650.40,3422.48518678,N,10853.83843114,E,1,28,0.6,375.104,M,-35.779,M,,*53
$GNGGA,094650.50,3422.48539429,N,10853.83908078,E,1,28,0.6,375.086,M,-35.779,M,,*59
$GNGGA,094650.60,3422.48562122,N,10853.83969979,E,1,28,0.6,374.974,M,-35.779,M,,*50
$GNGGA,094650.70,3422.48582757,N,10853.84036354,E,1,28,0.6,374.976,M,-35.779,M,,*58
$GNGGA,094650.80,3422.48599287,N,10853.84109693,E,1,28,0.6,375.281,M,-35.779,M,,*54
$GNGGA,094650.90,3422.48619436,N,10853.84177224,E,1,28,0.6,375.306,M,-35.779,M,,*5D
$GNGGA,094651.00,3422.48640395,N,10853.84243583,E,1,28,0.6,375.230,M,-35.778,M,,*5C
$GNGGA,094651.10,3422.48660652,N,10853.84311459,E,1,28,0.6,375.221,M,-35.778,M,,*51
$GNGGA,094651.20,3422.48683887,N,10853.84375216,E,1,28,0.6,374.992,M,-35.778,M,,*54
$GNGGA,094651.30,3422.48703425,N,10853.84444257,E,1,28,0.6,374.990,M,-35.778,M,,*5A
$GNGGA,094651.40,3422.48728636,N,10853.84509024,E,1,28,0.6,374.533,M,-35.778,M,,*5F
$GNGGA,094651.50,3422.48747595,N,10853.84579194,E,1,28,0.6,374.530,M,-35.778,M,,*53
$GNGGA,094651.60,3422.48752859,N,10853.84669395,E,1,28,0.6,375.447,M,-35.778,M,,*58
$GNGGA,094651.70,3422.48771629,N,10853.84740088,E,1,28,0.6,375.435,M,-35.778,M,,*51
$GNGGA,094651.80,3422.48785903,N,10853.84815753,E,1,28,0.6,375.778,M,-35.778,M,,*56
$GNGGA,094651.90,3422.48804121,N,10853.84887746,E,1,28,0.6,375.787,M,-35.778,M,,*56
$GNGGA,094652.00,3422.48823535,N,10853.84956887,E,1,28,0.6,375.768,M,-35.778,M,,*56
$GNGGA,094652.10,3422.48841938,N,10853.85029682,E,1,28,0.6,375.786,M,-35.778,M,,*59
$GNGGA,094652.20,3422.48857508,N,10853.85105689,E,1,28,0.6,375.959,M,-35.778,M,,*5A
$GNGGA,094652.30,3422.48875844,N,10853.85177969,E,1,28,0.6,375.955,M,-35.778,M,,*56
$GNGGA,094652.40,3422.48895141,N,10853.85248859,E,1,28,0.6,375.852,M,-35.778,M,,*58
$GNGGA,094652.50,3422.48912673,N,10853.85322628,E,1,28,0.6,375.864,M,-35.778,M,,*51
$GNGGA,094652.60,3422.48936560,N,10853.85388260,E,1,28,0.6,375.466,M,-35.778,M,,*53
$GNGGA,094652.70,3422.48954096,N,10853.85461955,E,1,28,0.6,375.450,M,-35.777,M,,*5D
$GNGGA,094652.80,3422.48965227,N,10853.85552294,E,1,28,0.6,375.814,M,-35.777,M,,*53
$GNGGA,094652.90,3422.48983355,N,10853.85626937,E,1,28,0.6,375.809,M,-35.777,M,,*50
$GNGGA,094653.00,3422.49003792,N,10853.85701380,E,1,28,0.6,375.614,M,-35.777,M,,*57
$GNGGA,094653.10,3422.49021628,N,10853.85776314,E,1,28,0.6,375.618,M,-35.777,M,,*57
$GNGGA,094653.20,3422.49057854,N,10853.85821536,E,1,28,0.6,374.465,M,-35.777,M,,*52
$GNGGA,094653.30,3422.49075445,N,10853.85897092,E,1,28,0.6,374.480,M,-35.777,M,,*52
$GNGGA,094653.40,3422.49121363,N,10853.85927452,E,1,28,0.6,372.735,M,-35.777,M,,*5F
$GNGGA,094653.50,3422.49139642,N,10853.86002142,E,1,28,0.6,372.736,M,-35.777,M,,*5B
$GNGGA,094653.60,3422.49138694,N,10853.86106776,E,1,28,0.6,373.979,M,-35.777,M,,*52
$GNGGA,094653.70,3422.49157031,N,10853.86181121,E,1,28,0.6,373.987,M,-35.777,M,,*59
$GNGGA,094653.80,3422.49169253,N,10853.86262761,E,1,28,0.6,374.434,M,-35.777,M,,*53
$GNGGA,094653.90,3422.49187963,N,10853.86337106,E,1,28,0.6,374.428,M,-35.777,M,,*51
$GNGGA,094654.00,3422.49233815,N,10853.86372492,E,1,27,0.6,372.604,M,-35.777,M,,*5F
$GNGGA,094654.10,3422.49252083,N,10853.86446364,E,1,27,0.6,372.613,M,-35.777,M,,*56
$GNGGA,094654.20,3422.49271931,N,10853.86517734,E,1,27,0.6,372.475,M,-35.777,M,,*52
$GNGGA,094654.30,3422.49289498,N,10853.86591750,E,1,27,0.6,372.473,M,-35.777,M,,*50
$GNGGA,094654.40,3422.49294086,N,10853.86683032,E,1,27,0.6,373.325,M,-35.777,M,,*56
$GNGGA,094654.50,3422.49311139,N,10853.86756847,E,1,27,0.6,373.331,M,-35.777,M,,*58
$GNGGA,094654.60,3422.49334407,N,10853.86820764,E,1,28,0.6,372.950,M,-35.777,M,,*57
$GNGGA,094654.70,3422.49350998,N,10853.86893450,E,1,28,0.6,372.948,M,-35.777,M,,*5A
$GNGGA,094654.80,3422.49373111,N,10853.86957116,E,1,28,0.6,372.564,M,-35.777,M,,*51
$GNGGA,094654.90,3422.49388183,N,10853.87028141,E,1,28,0.6,372.574,M,-35.777,M,,*5C
$GNGGA,094655.00,3422.49393181,N,10853.87113041,E,1,28,0.6,373.166,M,-35.777,M,,*52
$GNGGA,094655.10,3422.49406489,N,10853.87182424,E,1,28,0.6,373.169,M,-35.777,M,,*55
$GNGGA,094655.20,3422.49418114,N,10853.87251071,E,1,28,0.6,373.216,M,-35.777,M,,*5A
$GNGGA,094655.30,3422.49429748,N,10853.87318192,E,1,28,0.6,373.228,M,-35.776,M,,*5A
$GNGGA,094655.40,3422.49443453,N,10853.87379903,E,1,28,0.6,373.033,M,-35.776,M,,*57
$GNGGA,094655.50,3422.49452985,N,10853.87444440,E,1,28,0.6,373.043,M,-35.776,M,,*54
$GNGGA,094655.60,3422.49471487,N,10853.87494249,E,1,28,0.6,372.453,M,-35.776,M,,*5F
$GNGGA,094655.70,3422.49479548,N,10853.87555716,E,1,28,0.6,372.454,M,-35.776,M,,*50
$GNGGA,094655.80,3422.49484618,N,10853.87618092,E,1,28,0.6,372.646,M,-35.776,M,,*5B
$GNGGA,094655.90,3422.49491371,N,10853.87675977,E,1,28,0.6,372.653,M,-35.776,M,,*59
$GNGGA,094656.00,3422.49499232,N,10853.87728165,E,1,28,0.6,372.567,M,-35.776,M,,*5B
$GNGGA,094656.10,3422.49505022,N,10853.87781987,E,1,28,0.6,372.574,M,-35.776,M,,*58
$GNGGA,094656.20,3422.49506922,N,10853.87839562,E,1,28,0.6,372.800,M,-35.776,M,,*54
$GNGGA,094656.30,3422.49511759,N,10853.87889769,E,1,28,0.6,372.810,M,-35.776,M,,*52
$GNGGA,094656.40,3422.49519841,N,10853.87932902,E,1,28,0.6,372.556,M,-35.776,M,,*56
$GNGGA,094656.50,3422.49523837,N,10853.87979684,E,1,28,0.6,372.557,M,-35.776,M,,*50
$GNGGA,094656.60,3422.49526918,N,10853.88025298,E,1,28,0.6,372.628,M,-35.776,M,,*57
$GNGGA,094656.70,3422.49530505,N,10853.88070254,E,1,28,0.6,372.635,M,-35.776,M,,*5D
$GNGGA,094656.80,3422.49533789,N,10853.88114568,E,1,28,0.6,372.582,M,-35.776,M,,*53
$GNGGA,094656.90,3422.49536563,N,10853.88157814,E,1,28,0.6,372.593,M,-35.776,M,,*50
$GNGGA,094657.00,3422.49539649,N,10853.88200301,E,1,28,0.6,372.550,M,-35.776,M,,*5D
$GNGGA,094657.10,3422.49542128,N,10853.88241816,E,1,28,0.6,372.564,M,-35.776,M,,*5F
$GNGGA,094657.20,3422.49543711,N,10853.88282966,E,1,28,0.6,372.609,M,-35.776,M,,*50
$GNGGA,094657.30,3422.49545692,N,10853.88322723,E,1,28,0.6,372.622,M,-35.776,M,,*50
$GNGGA,094657.40,3422.49548031,N,10853.88361235,E,1,28,0.6,372.605,M,-35.776,M,,*55
$GNGGA,094657.50,3422.49550246,N,10853.88398760,E,1,28,0.6,372.611,M,-35.776,M,,*59
$GNGGA,094657.60,3422.49552476,N,10853.88435164,E,1,28,0.6,372.619,M,-35.776,M,,*57
$GNGGA,094657.70,3422.49555108,N,10853.88470525,E,1,28,0.6,372.618,M,-35.776,M,,*5C
$GNGGA,094657.80,3422.49547133,N,10853.88551215,E,1,28,0.6,374.630,M,-35.775,M,,*51
$GNGGA,094657.90,3422.49551009,N,10853.88584827,E,1,28,0.6,374.649,M,-35.775,M,,*52
$GNGGA,094658.00,3422.49565062,N,10853.88576354,E,1,28,0.6,372.906,M,-35.775,M,,*5E
$GNGGA,094658.10,3422.49570006,N,10853.88607313,E,1,28,0.6,372.913,M,-35.775,M,,*5B
$GNGGA,094658.20,3422.49567450,N,10853.88667500,E,1,28,0.6,374.243,M,-35.775,M,,*53
$GNGGA,094658.30,3422.49571910,N,10853.88696347,E,1,28,0.6,374.250,M,-35.775,M,,*55
$GNGGA,094658.40,3422.49576076,N,10853.88723384,E,1,28,0.6,374.211,M,-35.775,M,,*59
$GNGGA,094658.50,3422.49579665,N,10853.88749983,E,1,28,0.6,374.217,M,-35.775,M,,*54
$GNGGA,094658.60,3422.49582369,N,10853.88777123,E,1,28,0.6,374.263,M,-35.775,M,,*56
$GNGGA,094658.70,3422.49584926,N,10853.88801695,E,1,28,0.6,374.262,M,-35.775,M,,*55
$GNGGA,094658.80,3422.49587583,N,10853.88825918,E,1,28,0.6,374.291,M,-35.775,M,,*5A
$GNGGA,094658.90,3422.49590126,N,10853.88848302,E,1,28,0.6,374.295,M,-35.775,M,,*58
$GNGGA,094659.00,3422.49592283,N,10853.88870477,E,1,28,0.6,374.310,M,-35.775,M,,*5C
$GNGGA,094659.10,3422.49594428,N,10853.88891418,E,1,28,0.6,374.312,M,-35.775,M,,*58
$GNGGA,094659.20,3422.49596824,N,10853.88910873,E,1,28,0.6,374.272,M,-35.775,M,,*57
$GNGGA,094659.30,3422.49599420,N,10853.88931925,E,1,28,0.6,374.274,M,-35.775,M,,*56
$GNGGA,094659.40,3422.49602858,N,10853.88950837,E,1,28,0.6,374.193,M,-35.775,M,,*5C
$GNGGA,094659.50,3422.49606554,N,10853.88971343,E,1,28,0.6,374.196,M,-35.775,M,,*56
$GNGGA,094659.60,3422.49611021,N,10853.88990241,E,1,28,0.6,374.159,M,-35.775,M,,*5B
$GNGGA,094659.70,3422.49615563,N,10853.89008522,E,1,28,0.6,374.153,M,-35.775,M,,*5C
$GNGGA,094659.80,3422.49620612,N,10853.89025470,E,1,28,0.6,374.143,M,-35.775,M,,*58
$GNGGA,094659.90,3422.49625704,N,10853.89041623,E,1,28,0.6,374.148,M,-35.775,M,,*57
$GNGGA,094700.00,3422.49631259,N,10853.89055819,E,1,28,0.6,374.145,M,-35.775,M,,*54
$GNGGA,094700.10,3422.49637301,N,10853.89069530,E,1,28,0.6,374.161,M,-35.775,M,,*50
$GNGGA,094700.20,3422.49643934,N,10853.89082622,E,1,28,0.6,374.159,M,-35.775,M,,*52
$GNGGA,094700.30,3422.49651409,N,10853.89095968,E,1,28,0.6,374.171,M,-35.775,M,,*5E
$GNGGA,094700.40,3422.49659363,N,10853.89108327,E,1,28,0.6,374.165,M,-35.775,M,,*5B
$GNGGA,094700.50,3422.49667866,N,10853.89120058,E,1,28,0.6,374.162,M,-35.775,M,,*5F
$GNGGA,094700.60,3422.49676273,N,10853.89133313,E,1,28,0.6,374.280,M,-35.775,M,,*53
$GNGGA,094700.70,3422.49685981,N,10853.89142693,E,1,28,0.6,374.281,M,-35.775,M,,*52
$GNGGA,094700.80,3422.49696266,N,10853.89150949,E,1,28,0.6,374.284,M,-35.775,M,,*53
$GNGGA,094700.90,3422.49706428,N,10853.89158590,E,1,28,0.6,374.295,M,-35.775,M,,*56
$GNGGA,094701.00,3422.49716610,N,10853.89165657,E,1,28,0.6,374.289,M,-35.775,M,,*5D
$GNGGA,094701.10,3422.49726928,N,10853.89172278,E,1,28,0.6,374.291,M,-35.775,M,,*5D
$GNGGA,094701.20,3422.49737587,N,10853.89177881,E,1,28,0.6,374.281,M,-35.775,M,,*5F
$GNGGA,094701.30,3422.49748192,N,10853.89182804,E,1,28,0.6,374.280,M,-35.775,M,,*50
$GNGGA,094701.40,3422.49759445,N,10853.89186280,E,1,28,0.6,374.261,M,-35.775,M,,*55
$GNGGA,094701.50,3422.49770579,N,10853.89189572,E,1,28,0.6,374.256,M,-35.775,M,,*50
$GNGGA,094701.60,3422.49782036,N,10853.89192038,E,1,28,0.6,374.244,M,-35.775,M,,*52
$GNGGA,094701.70,3422.49793817,N,10853.89194275,E,1,28,0.6,374.251,M,-35.775,M,,*51
