$GNGGA,094550.40,3422.44685560,N,10854.00179227,E,1,16,0.8,374.441,M,-35.766,M,,*56
$GNGGA,094550.50,3422.44693034,N,10854.00202272,E,1,16,0.8,374.420,M,-35.766,M,,*5C
$GNGGA,094550.60,3422.44699479,N,10854.00225380,E,1,16,0.9,374.415,M,-35.766,M,,*56
$GNGGA,094550.70,3422.44707030,N,10854.00248572,E,1,16,0.9,374.439,M,-35.766,M,,*56
$GNGGA,094550.80,3422.44714359,N,10854.00271852,E,1,16,0.8,374.445,M,-35.766,M,,*58
$GNGGA,094550.90,3422.44721574,N,10854.00295781,E,1,16,0.8,374.443,M,-35.766,M,,*5B
$GNGGA,094551.00,3422.44728689,N,10854.00319946,E,1,16,0.8,374.444,M,-35.766,M,,*5C
$GNGGA,094551.10,3422.44735241,N,10854.00344700,E,1,16,0.8,374.415,M,-35.766,M,,*51
$GNGGA,094551.20,3422.44741744,N,10854.00369779,E,1,16,0.9,374.399,M,-35.766,M,,*52
$GNGGA,094551.30,3422.44748012,N,10854.00394878,E,1,16,0.9,374.372,M,-35.766,M,,*57
$GNGGA,094551.40,3422.44754114,N,10854.00420672,E,1,16,0.9,374.338,M,-35.766,M,,*58
$GNGGA,094551.50,3422.44760559,N,10854.00446850,E,1,16,0.9,374.351,M,-35.766,M,,*52
$GNGGA,094551.60,3422.44767106,N,10854.00473289,E,1,16,0.9,374.348,M,-35.766,M,,*58
$GNGGA,094551.70,3422.44773922,N,10854.00499597,E,1,16,0.9,374.374,M,-35.766,M,,*51
$GNGGA,094551.80,3422.44780656,N,10854.00526514,E,1,16,0.8,374.392,M,-35.766,M,,*59
$GNGGA,094551.90,3422.44787949,N,10854.00553445,E,1,16,0.8,374.383,M,-35.766,M,,*59
$GNGGA,094552.00,3422.44795530,N,10854.00580477,E,1,16,0.8,374.402,M,-35.766,M,,*53
$GNGGA,094552.10,3422.44803098,N,10854.00608454,E,1,16,0.8,374.403,M,-35.766,M,,*56
$GNGGA,094552.20,3422.44812160,N,10854.00636181,E,1,16,0.8,374.410,M,-35.766,M,,*51
$GNGGA,094552.30,3422.44820118,N,10854.00665266,E,1,16,0.8,374.379,M,-35.766,M,,*5A
$GNGGA,094552.40,3422.44827884,N,10854.00695326,E,1,16,0.8,374.373,M,-35.766,M,,*56
$GNGGA,094552.50,3422.44836753,N,10854.00724073,E,1,16,0.8,374.371,M,-35.766,M,,*58
$GNGGA,094552.60,3422.44845443,N,10854.00753637,E,1,16,0.8,374.368,M,-35.766,M,,*53
$GNGGA,094552.70,3422.44853694,N,10854.00783130,E,1,16,0.8,374.359,M,-35.766,M,,*52
$GNGGA,094552.80,3422.44863306,N,10854.00811777,E,1,16,0.8,374.371,M,-35.766,M,,*5B
$GNGGA,094552.90,3422.44871570,N,10854.00841480,E,1,16,0.8,374.374,M,-35.766,M,,*55
$GNGGA,094553.00,3422.44879514,N,10854.00871355,E,1,16,0.8,374.370,M,-35.766,M,,*5F
$GNGGA,094553.10,3422.44888353,N,10854.00901559,E,1,16,0.8,374.361,M,-35.766,M,,*59
$GNGGA,094553.20,3422.44897271,N,10854.00931875,E,1,15,0.9,374.356,M,-35.766,M,,*53
$GNGGA,094553.30,3422.44906217,N,10854.00962014,E,1,15,0.9,374.378,M,-35.766,M,,*5E
$GNGGA,094553.40,3422.44917514,N,10854.00991176,E,1,15,0.9,374.357,M,-35.766,M,,*59
$GNGGA,094553.50,3422.44927383,N,10854.01021101,E,1,15,0.9,374.369,M,-35.766,M,,*5D
$GNGGA,094553.60,3422.44937544,N,10854.01050482,E,1,15,0.9,374.381,M,-35.766,M,,*5C
$GNGGA,094553.70,3422.44947391,N,10854.01080213,E,1,15,0.9,374.386,M,-35.766,M,,*50
$GNGGA,094553.80,3422.44958648,N,10854.01109346,E,1,15,0.9,374.388,M,-35.766,M,,*5F
$GNGGA,094553.90,3422.44969870,N,10854.01139175,E,1,15,0.9,374.407,M,-35.766,M,,*58
$GNGGA,094554.00,3422.44982527,N,10854.01168059,E,1,15,0.9,374.371,M,-35.766,M,,*51
$GNGGA,094554.10,3422.44994261,N,10854.01198001,E,1,15,0.9,374.370,M,-35.766,M,,*51
$GNGGA,094554.20,3422.45006546,N,10854.01227565,E,1,15,0.9,374.387,M,-35.766,M,,*5B
$GNGGA,094554.30,3422.45018144,N,10854.01257811,E,1,15,0.9,374.315,M,-35.766,M,,*51
$GNGGA,094554.40,3422.45030179,N,10854.01288625,E,1,15,0.9,374.312,M,-35.766,M,,*5E
$GNGGA,094554.50,3422.45043147,N,10854.01319837,E,1,15,0.9,374.346,M,-35.766,M,,*53
$GNGGA,094554.60,3422.45055668,N,10854.01352071,E,1,15,0.9,374.304,M,-35.766,M,,*5E
$GNGGA,094554.70,3422.45068442,N,10854.01384064,E,1,15,0.9,374.298,M,-35.766,M,,*50
$GNGGA,094554.80,3422.45081249,N,10854.01417062,E,1,15,0.9,374.310,M,-35.766,M,,*5F
$GNGGA,094554.90,3422.45093720,N,10854.01448930,E,1,15,0.9,374.287,M,-35.766,M,,*5C
$GNGGA,094555.00,3422.45106087,N,10854.01481572,E,1,15,0.9,374.279,M,-35.766,M,,*5D
$GNGGA,094555.10,3422.45118911,N,10854.01513952,E,1,15,0.9,374.275,M,-35.766,M,,*5D
$GNGGA,094555.20,3422.45132999,N,10854.01547209,E,1,16,0.9,374.271,M,-35.766,M,,*55
$GNGGA,094555.30,3422.45145813,N,10854.01579661,E,1,16,0.9,374.234,M,-35.766,M,,*51
$GNGGA,094555.40,3422.45159623,N,10854.01614577,E,1,16,0.9,374.231,M,-35.766,M,,*5F
$GNGGA,094555.50,3422.45173210,N,10854.01646920,E,1,16,0.9,374.232,M,-35.766,M,,*58
$GNGGA,094555.60,3422.45186872,N,10854.01681670,E,1,15,1.1,374.228,M,-35.766,M,,*5F
$GNGGA,094555.70,3422.45200113,N,10854.01714321,E,1,15,1.1,374.222,M,-35.766,M,,*5B
$GNGGA,094555.80,3422.45213351,N,10854.01748758,E,1,15,1.0,374.210,M,-35.766,M,,*51
$GNGGA,094555.90,3422.45225891,N,10854.01781735,E,1,15,1.0,374.193,M,-35.766,M,,*54
$GNGGA,094556.00,3422.45240765,N,10854.01814557,E,1,15,1.0,374.160,M,-35.766,M,,*50
$GNGGA,094556.10,3422.45254003,N,10854.01846933,E,1,15,1.0,374.149,M,-35.766,M,,*51
$GNGGA,094556.20,3422.45268492,N,10854.01879763,E,1,15,1.0,374.091,M,-35.766,M,,*52
$GNGGA,094556.30,3422.45281164,N,10854.01912220,E,1,15,1.0,374.087,M,-35.766,M,,*51
$GNGGA,094556.40,3422.45295391,N,10854.01944464,E,1,15,1.0,374.028,M,-35.766,M,,*5B
$GNGGA,094556.50,3422.45307779,N,10854.01976942,E,1,15,1.0,374.001,M,-35.766,M,,*51
$GNGGA,094556.60,3422.45320695,N,10854.02009854,E,1,16,1.0,373.968,M,-35.766,M,,*52
$GNGGA,094556.70,3422.45333443,N,10854.02042183,E,1,16,1.0,373.969,M,-35.766,M,,*55
$GNGGA,094556.80,3422.45345643,N,10854.02075191,E,1,15,1.0,373.948,M,-35.766,M,,*5E
$GNGGA,094556.90,3422.45358152,N,10854.02106802,E,1,15,1.0,373.927,M,-35.766,M,,*5B
$GNGGA,094557.00,3422.45370197,N,10854.02139215,E,1,16,0.9,373.908,M,-35.766,M,,*56
$GNGGA,094557.10,3422.45382613,N,10854.02170881,E,1,16,0.9,373.892,M,-35.766,M,,*59
$GNGGA,094557.20,3422.45395586,N,10854.02202347,E,1,16,0.9,373.867,M,-35.766,M,,*5E
$GNGGA,094557.30,3422.45408638,N,10854.02232507,E,1,16,0.9,373.814,M,-35.766,M,,*5F
$GNGGA,094557.40,3422.45422413,N,10854.02262895,E,1,16,1.0,373.753,M,-35.766,M,,*5C
$GNGGA,094557.50,3422.45435980,N,10854.02292012,E,1,16,1.0,373.759,M,-35.766,M,,*5E
$GNGGA,094557.60,3422.45450587,N,10854.02320547,E,1,16,1.0,373.749,M,-35.766,M,,*59
$GNGGA,094557.70,3422.45464125,N,10854.02349446,E,1,16,1.0,373.719,M,-35.766,M,,*59
$GNGGA,094557.80,3422.45478533,N,10854.02377654,E,1,16,1.0,373.714,M,-35.766,M,,*59
$GNGGA,094557.90,3422.45492830,N,10854.02404860,E,1,16,1.0,373.689,M,-35.766,M,,*5D
$GNGGA,094558.00,3422.45507388,N,10854.02432640,E,1,16,1.0,373.672,M,-35.766,M,,*53
$GNGGA,094558.10,3422.45522158,N,10854.02459464,E,1,16,1.0,373.646,M,-35.766,M,,*54
$GNGGA,094558.20,3422.45537530,N,10854.02485820,E,1,16,1.0,373.616,M,-35.766,M,,*51
$GNGGA,094558.30,3422.45553774,N,10854.02510632,E,1,16,1.0,373.645,M,-35.766,M,,*56
$GNGGA,094558.40,3422.45571410,N,10854.02534209,E,1,16,1.0,373.628,M,-35.766,M,,*51
$GNGGA,094558.50,3422.45588415,N,10854.02557807,E,1,16,1.0,373.638,M,-35.766,M,,*53
$GNGGA,094558.60,3422.45606811,N,10854.02579371,E,1,16,0.9,373.641,M,-35.766,M,,*5D
$GNGGA,094558.70,3422.45624270,N,10854.02601394,E,1,16,0.9,373.655,M,-35.766,M,,*53
$GNGGA,094558.80,3422.45642286,N,10854.02621929,E,1,16,0.9,373.650,M,-35.766,M,,*5E
$GNGGA,094558.90,3422.45660824,N,10854.02641957,E,1,16,0.9,373.662,M,-35.766,M,,*53
$GNGGA,094559.00,3422.45679703,N,10854.02660592,E,1,16,1.0,373.666,M,-35.766,M,,*53
$GNGGA,094559.10,3422.45699241,N,10854.02678198,E,1,16,1.0,373.669,M,-35.766,M,,*57
$GNGGA,094559.20,3422.45718713,N,10854.02694249,E,1,16,1.0,373.674,M,-35.766,M,,*5F
$GNGGA,094559.30,3422.45738438,N,10854.02709956,E,1,16,1.0,373.689,M,-35.766,M,,*54
$GNGGA,094559.40,3422.45758460,N,10854.02723547,E,1,16,1.0,373.684,M,-35.766,M,,*51
$GNGGA,094559.50,3422.45778736,N,10854.02736961,E,1,16,1.0,373.692,M,-35.766,M,,*59
$GNGGA,094559.60,3422.45799239,N,10854.02748476,E,1,16,1.0,373.699,M,-35.766,M,,*56
$GNGGA,094559.70,3422.45820219,N,10854.02759440,E,1,16,1.0,373.718,M,-35.766,M,,*55
$GNGGA,094559.80,3422.45841806,N,10854.02767408,E,1,16,0.9,373.717,M,-35.766,M,,*5F
$GNGGA,094559.90,3422.45862578,N,10854.02776512,E,1,16,0.9,373.726,M,-35.766,M,,*53
$GNGGA,094600.00,3422.45884088,N,10854.02781734,E,1,16,0.9,373.737,M,-35.766,M,,*59
$GNGGA,094600.10,3422.45904818,N,10854.02787570,E,1,16,0.9,373.721,M,-35.766,M,,*53
$GNGGA,094600.20,3422.45926278,N,10854.02790484,E,1,16,0.9,373.704,M,-35.766,M,,*57
$GNGGA,094600.30,3422.45946761,N,10854.02793813,E,1,16,0.9,373.691,M,-35.766,M,,*51
$GNGGA,094600.40,3422.45967856,N,10854.02794157,E,1,16,0.9,373.678,M,-35.766,M,,*57
$GNGGA,094600.50,3422.45987767,N,10854.02794489,E,1,16,0.9,373.692,M,-35.766,M,,*57
$GNGGA,094600.60,3422.46008119,N,10854.02791609,E,1,16,0.9,373.686,M,-35.766,M,,*5C
$GNGGA,094600.70,3422.46027606,N,10854.02789581,E,1,16,0.9,373.682,M,-35.766,M,,*57
$GNGGA,094600.80,3422.46047372,N,10854.02783907,E,1,16,0.9,373.657,M,-35.766,M,,*58
$GNGGA,094600.90,3422.46066201,N,10854.02781099,E,1,16,0.9,373.660,M,-35.766,M,,*57
$GNGGA,094601.00,3422.46082980,N,10854.02775302,E,1,16,0.9,373.656,M,-35.766,M,,*58
$GNGGA,094601.10,3422.46100643,N,10854.02771887,E,1,16,0.9,373.650,M,-35.766,M,,*56
$GNGGA,094601.20,3422.46117982,N,10854.02767900,E,1,15,1.0,373.726,M,-35.766,M,,*53
$GNGGA,094601.30,3422.46135084,N,10854.02763014,E,1,15,1.0,373.708,M,-35.766,M,,*59
$GNGGA,094601.40,3422.46151863,N,10854.02758471,E,1,15,1.0,373.729,M,-35.766,M,,*51
$GNGGA,094601.50,3422.46168775,N,10854.02752057,E,1,15,1.0,373.738,M,-35.766,M,,*58
$GNGGA,094601.60,3422.46184937,N,10854.02746467,E,1,15,1.0,373.722,M,-35.766,M,,*58
$GNGGA,094601.70,3422.46201389,N,10854.02739731,E,1,15,1.0,373.771,M,-35.766,M,,*56
$GNGGA,094601.80,3422.46217370,N,10854.02733459,E,1,15,1.0,373.786,M,-35.766,M,,*57
$GNGGA,094601.90,3422.46233049,N,10854.02726725,E,1,15,1.0,373.775,M,-35.766,M,,*59
$GNGGA,094602.00,3422.46248847,N,10854.02720124,E,1,16,0.9,373.778,M,-35.766,M,,*5E
$GNGGA,094602.10,3422.46263678,N,10854.02712463,E,1,16,0.9,373.787,M,-35.766,M,,*53
$GNGGA,094602.20,3422.46277749,N,10854.02705243,E,1,15,1.0,373.762,M,-35.766,M,,*54
$GNGGA,094602.30,3422.46292354,N,10854.02697710,E,1,15,1.0,373.789,M,-35.766,M,,*5A
$GNGGA,094602.40,3422.46305973,N,10854.02690081,E,1,15,1.1,373.780,M,-35.766,M,,*5D
$GNGGA,094602.50,3422.46320528,N,10854.02681416,E,1,15,1.1,373.778,M,-35.766,M,,*54
$GNGGA,094602.60,3422.46333965,N,10854.02673242,E,1,15,1.1,373.790,M,-35.766,M,,*5C
$GNGGA,094602.70,3422.46346829,N,10854.02664576,E,1,15,1.1,373.750,M,-35.766,M,,*5C
$GNGGA,094602.80,3422.46359593,N,10854.02655341,E,1,16,0.9,373.750,M,-35.766,M,,*5B
$GNGGA,094602.90,3422.46372606,N,10854.02646311,E,1,16,0.9,373.750,M,-35.766,M,,*5B
$GNGGA,094603.00,3422.46384480,N,10854.02637470,E,1,16,1.1,373.750,M,-35.766,M,,*59
$GNGGA,094603.10,3422.46396959,N,10854.02627948,E,1,16,1.1,373.752,M,-35.766,M,,*57
$GNGGA,094603.20,3422.46408697,N,10854.02618986,E,1,16,1.1,373.767,M,-35.766,M,,*51
$GNGGA,094603.30,3422.46420687,N,10854.02609175,E,1,16,1.1,373.777,M,-35.766,M,,*5E
$GNGGA,094603.40,3422.46431842,N,10854.02599698,E,1,16,1.1,373.781,M,-35.766,M,,*59
$GNGGA,094603.50,3422.46443189,N,10854.02590236,E,1,16,1.1,373.795,M,-35.766,M,,*5F
$GNGGA,094603.60,3422.46454311,N,10854.02581417,E,1,16,1.1,373.782,M,-35.766,M,,*5A
$GNGGA,094603.70,3422.46465468,N,10854.02572047,E,1,16,1.1,373.794,M,-35.766,M,,*5A
$GNGGA,094603.80,3422.46476556,N,10854.02563548,E,1,15,1.1,373.791,M,-35.766,M,,*57
$GNGGA,094603.90,3422.46488016,N,10854.02554641,E,1,15,1.1,373.780,M,-35.766,M,,*58
$GNGGA,094604.00,3422.46499348,N,10854.02546711,E,1,15,1.1,373.771,M,-35.766,M,,*57
$GNGGA,094604.10,3422.46510703,N,10854.02538389,E,1,15,1.1,373.746,M,-35.766,M,,*55
$GNGGA,094604.20,3422.46522200,N,10854.02531268,E,1,15,1.1,373.735,M,-35.766,M,,*52
$GNGGA,094604.30,3422.46533634,N,10854.02523501,E,1,15,1.1,373.709,M,-35.766,M,,*54
$GNGGA,094604.40,3422.46544797,N,10854.02516434,E,1,15,1.1,373.703,M,-35.766,M,,*50
$GNGGA,094604.50,3422.46556540,N,10854.02508903,E,1,15,1.1,373.706,M,-35.766,M,,*59
$GNGGA,094604.60,3422.46567922,N,10854.02501948,E,1,15,1.1,373.705,M,-35.766,M,,*55
$GNGGA,094604.70,3422.46579990,N,10854.02494816,E,1,15,1.1,373.697,M,-35.766,M,,*5F
$GNGGA,094604.80,3422.46592115,N,10854.02488193,E,1,15,1.1,373.709,M,-35.766,M,,*5F
$GNGGA,094604.90,3422.46604487,N,10854.02481016,E,1,15,1.1,373.712,M,-35.766,M,,*53
$GNGGA,094605.00,3422.46617085,N,10854.02474580,E,1,15,1.1,373.712,M,-35.766,M,,*5F
$GNGGA,094605.10,3422.46629557,N,10854.02467674,E,1,15,1.1,373.703,M,-35.766,M,,*53
$GNGGA,094605.20,3422.46642300,N,10854.02461389,E,1,16,0.9,373.710,M,-35.766,M,,*50
$GNGGA,094605.30,3422.46655131,N,10854.02454149,E,1,16,0.9,373.708,M,-35.766,M,,*56
$GNGGA,094605.40,3422.46667898,N,10854.02447686,E,1,16,1.1,373.710,M,-35.766,M,,*5C
$GNGGA,094605.50,3422.46681784,N,10854.02440758,E,1,16,1.1,373.738,M,-35.766,M,,*58
$GNGGA,094605.60,3422.46695678,N,10854.02433900,E,1,16,0.9,373.739,M,-35.766,M,,*53
$GNGGA,094605.70,3422.46710921,N,10854.02426340,E,1,16,0.9,373.738,M,-35.766,M,,*56
$GNGGA,094605.80,3422.46726771,N,10854.02418077,E,1,16,0.9,373.752,M,-35.766,M,,*51
$GNGGA,094605.90,3422.46744146,N,10854.02409580,E,1,16,0.9,373.777,M,-35.766,M,,*5C
$GNGGA,094606.00,3422.46762613,N,10854.02400393,E,1,16,0.9,373.800,M,-35.766,M,,*57
$GNGGA,094606.10,3422.46781472,N,10854.02390851,E,1,16,0.9,373.794,M,-35.766,M,,*57
$GNGGA,094606.20,3422.46801238,N,10854.02380772,E,1,16,0.9,373.819,M,-35.766,M,,*5E
$GNGGA,094606.30,3422.46821799,N,10854.02371525,E,1,16,0.9,373.831,M,-35.766,M,,*57
$GNGGA,094606.40,3422.46843368,N,10854.02361553,E,1,16,0.9,373.851,M,-35.766,M,,*58
$GNGGA,094606.50,3422.46865721,N,10854.02351452,E,1,16,0.9,373.846,M,-35.766,M,,*51
$GNGGA,094606.60,3422.46888941,N,10854.02340788,E,1,16,0.9,373.863,M,-35.766,M,,*5A
$GNGGA,094606.70,3422.46912499,N,10854.02329563,E,1,16,0.9,373.855,M,-35.766,M,,*5C
$GNGGA,094606.80,3422.46937675,N,10854.02317988,E,1,16,0.9,373.845,M,-35.766,M,,*51
$GNGGA,094606.90,3422.46962717,N,10854.02306892,E,1,16,0.9,373.876,M,-35.766,M,,*5F
$GNGGA,094607.00,3422.46989313,N,10854.02294593,E,1,16,0.9,373.875,M,-35.766,M,,*57
$GNGGA,094607.10,3422.47014797,N,10854.02283313,E,1,16,0.9,373.880,M,-35.766,M,,*50
$GNGGA,094607.20,3422.47042005,N,10854.02271203,E,1,16,0.9,373.900,M,-35.766,M,,*58
$GNGGA,094607.30,3422.47067777,N,10854.02259301,E,1,16,0.9,373.895,M,-35.766,M,,*58
$GNGGA,094607.40,3422.47094163,N,10854.02247766,E,1,16,0.9,373.894,M,-35.766,M,,*5B
$GNGGA,094607.50,3422.47120836,N,10854.02236315,E,1,16,0.9,373.902,M,-35.766,M,,*55
$GNGGA,094607.60,3422.47147959,N,10854.02224747,E,1,16,0.9,373.904,M,-35.766,M,,*59
$GNGGA,094607.70,3422.47174710,N,10854.02212616,E,1,16,0.9,373.901,M,-35.766,M,,*5E
$GNGGA,094607.80,3422.47202269,N,10854.02201020,E,1,16,0.9,373.905,M,-35.766,M,,*5D
$GNGGA,094607.90,3422.47229460,N,10854.02189063,E,1,16,0.9,373.920,M,-35.766,M,,*59
$GNGGA,094608.00,3422.47257123,N,10854.02177003,E,1,16,0.9,373.924,M,-35.766,M,,*57
$GNGGA,094608.10,3422.47284709,N,10854.02165224,E,1,16,0.9,373.922,M,-35.766,M,,*54
$GNGGA,094608.20,3422.47312840,N,10854.02153393,E,1,16,0.9,373.921,M,-35.766,M,,*50
$GNGGA,094608.30,3422.47340433,N,10854.02141013,E,1,16,0.9,373.939,M,-35.766,M,,*5F
$GNGGA,094608.40,3422.47368027,N,10854.02128693,E,1,16,1.1,373.949,M,-35.766,M,,*5C
$GNGGA,094608.50,3422.47395941,N,10854.02116103,E,1,16,1.1,373.936,M,-35.766,M,,*5D
$GNGGA,094608.60,3422.47423210,N,10854.02103532,E,1,16,1.1,373.953,M,-35.766,M,,*5A
$GNGGA,094608.70,3422.47451292,N,10854.02090854,E,1,16,1.1,373.976,M,-35.766,M,,*55
$GNGGA,094608.80,3422.47479513,N,10854.02078648,E,1,16,1.1,373.981,M,-35.766,M,,*53
$GNGGA,094608.90,3422.47507904,N,10854.02066051,E,1,16,1.1,373.991,M,-35.766,M,,*50
$GNGGA,094609.00,3422.47536392,N,10854.02053590,E,1,16,1.1,373.990,M,-35.766,M,,*50
$GNGGA,094609.10,3422.47565223,N,10854.02040654,E,1,16,1.1,374.001,M,-35.766,M,,*53
$GNGGA,094609.20,3422.47594408,N,10854.02027986,E,1,16,1.1,373.991,M,-35.766,M,,*57
$GNGGA,094609.30,3422.47623188,N,10854.02014806,E,1,16,1.1,373.976,M,-35.766,M,,*54
$GNGGA,094609.40,3422.47652944,N,10854.02001975,E,1,16,0.9,373.971,M,-35.766,M,,*52
$GNGGA,094609.50,3422.47681908,N,10854.01988241,E,1,16,0.9,373.958,M,-35.766,M,,*59
$GNGGA,094609.60,3422.47711509,N,10854.01974773,E,1,16,0.9,373.952,M,-35.766,M,,*52
$GNGGA,094609.70,3422.47740855,N,10854.01960990,E,1,16,0.9,373.970,M,-35.766,M,,*55
$GNGGA,094609.80,3422.47770340,N,10854.01947064,E,1,16,0.9,373.971,M,-35.766,M,,*50
$GNGGA,094609.90,3422.47799662,N,10854.01933335,E,1,16,0.9,373.957,M,-35.766,M,,*53
$GNGGA,094610.00,3422.47829160,N,10854.01919175,E,1,16,0.9,373.985,M,-35.766,M,,*52
$GNGGA,094610.10,3422.47858899,N,10854.01905192,E,1,16,0.9,373.980,M,-35.766,M,,*5B
$GNGGA,094610.20,3422.47888914,N,10854.01890982,E,1,16,0.9,373.992,M,-35.766,M,,*56
$GNGGA,094610.30,3422.47918353,N,10854.01877000,E,1,16,0.9,374.014,M,-35.766,M,,*5C
$GNGGA,094610.40,3422.47947688,N,10854.01862437,E,1,16,0.9,374.007,M,-35.766,M,,*54
$GNGGA,094610.50,3422.47977076,N,10854.01848361,E,1,16,0.9,374.040,M,-35.766,M,,*5E
$GNGGA,094610.60,3422.48005442,N,10854.01833542,E,1,16,0.9,374.083,M,-35.766,M,,*59
$GNGGA,094610.70,3422.48034630,N,10854.01819340,E,1,16,0.9,374.106,M,-35.766,M,,*5D
$GNGGA,094610.80,3422.48063339,N,10854.01804877,E,1,16,1.1,374.138,M,-35.766,M,,*5B
$GNGGA,094610.90,3422.48092402,N,10854.01791464,E,1,16,1.1,374.139,M,-35.766,M,,*57
$GNGGA,094611.00,3422.48121095,N,10854.01777320,E,1,16,1.1,374.138,M,-35.766,M,,*52
$GNGGA,094611.10,3422.48149831,N,10854.01763496,E,1,16,1.1,374.134,M,-35.766,M,,*58
$GNGGA,094611.20,3422.48178057,N,10854.01749489,E,1,16,1.1,374.121,M,-35.766,M,,*53
$GNGGA,094611.30,3422.48206785,N,10854.01734573,E,1,16,1.1,374.139,M,-35.766,M,,*57
$GNGGA,094611.40,3422.48235037,N,10854.01719659,E,1,16,0.9,374.137,M,-35.766,M,,*5D
$GNGGA,094611.50,3422.48264921,N,10854.01706402,E,1,16,0.9,374.139,M,-35.766,M,,*5A
$GNGGA,094611.60,3422.48294633,N,10854.01692764,E,1,16,0.9,374.168,M,-35.766,M,,*51
$GNGGA,094611.70,3422.48323686,N,10854.01677595,E,1,16,0.9,374.168,M,-35.766,M,,*54
$GNGGA,094611.80,3422.48354080,N,10854.01663150,E,1,16,0.9,374.209,M,-35.766,M,,*57
$GNGGA,094611.90,3422.48383718,N,10854.01647832,E,1,16,0.9,374.212,M,-35.766,M,,*5B
$GNGGA,094612.00,3422.48413259,N,10854.01632143,E,1,16,0.9,374.221,M,-35.766,M,,*52
$GNGGA,094612.10,3422.48443506,N,10854.01616869,E,1,16,0.9,374.211,M,-35.766,M,,*5F
$GNGGA,094612.20,3422.48473079,N,10854.01599634,E,1,16,0.9,374.234,M,-35.766,M,,*57
$GNGGA,094612.30,3422.48503523,N,10854.01583949,E,1,16,0.9,374.231,M,-35.766,M,,*51
$GNGGA,094612.40,3422.48533492,N,10854.01567913,E,1,16,1.1,374.241,M,-35.766,M,,*55
$GNGGA,094612.50,3422.48563595,N,10854.01552688,E,1,16,1.1,374.255,M,-35.766,M,,*59
$GNGGA,094612.60,3422.48592985,N,10854.01536460,E,1,16,1.1,374.259,M,-35.766,M,,*53
$GNGGA,094612.70,3422.48622743,N,10854.01521071,E,1,16,1.1,374.253,M,-35.766,M,,*56
$GNGGA,094612.80,3422.48652016,N,10854.01505793,E,1,16,0.9,374.251,M,-35.766,M,,*5F
$GNGGA,094612.90,3422.48681824,N,10854.01490436,E,1,16,0.9,374.253,M,-35.766,M,,*5A
$GNGGA,094613.00,3422.48710847,N,10854.01475105,E,1,16,0.9,374.260,M,-35.766,M,,*50
$GNGGA,094613.10,3422.48740321,N,10854.01460046,E,1,16,0.9,374.269,M,-35.766,M,,*54
$GNGGA,094613.20,3422.48769715,N,10854.01445188,E,1,16,0.9,374.270,M,-35.766,M,,*53
$GNGGA,094613.30,3422.48798881,N,10854.01430330,E,1,16,0.9,374.284,M,-35.766,M,,*56
$GNGGA,094613.40,3422.48827721,N,10854.01415857,E,1,16,0.9,374.284,M,-35.766,M,,*52
$GNGGA,094613.50,3422.48856393,N,10854.01400879,E,1,16,0.9,374.286,M,-35.766,M,,*52
$GNGGA,094613.60,3422.48884884,N,10854.01386336,E,1,16,0.9,374.288,M,-35.766,M,,*54
$GNGGA,094613.70,3422.48913414,N,10854.01371729,E,1,16,0.9,374.282,M,-35.766,M,,*57
$GNGGA,094613.80,3422.48941967,N,10854.01357339,E,1,16,0.9,374.275,M,-35.766,M,,*5F
$GNGGA,094613.90,3422.48970398,N,10854.01342604,E,1,16,0.9,374.288,M,-35.766,M,,*5B
$GNGGA,094614.00,3422.48998794,N,10854.01328293,E,1,16,0.9,374.284,M,-35.766,M,,*51
$GNGGA,094614.10,3422.49026904,N,10854.01313713,E,1,16,0.9,374.288,M,-35.766,M,,*53
$GNGGA,094614.20,3422.49054797,N,10854.01299162,E,1,16,0.9,374.291,M,-35.766,M,,*5A
$GNGGA,094614.30,3422.49082694,N,10854.01284742,E,1,16,0.9,374.289,M,-35.766,M,,*53
$GNGGA,094614.40,3422.49109607,N,10854.01269872,E,1,16,0.9,374.300,M,-35.766,M,,*53
$GNGGA,094614.50,3422.49137476,N,10854.01255387,E,1,16,0.9,374.308,M,-35.766,M,,*5D
$GNGGA,094614.60,3422.49164613,N,10854.01240687,E,1,16,0.9,374.320,M,-35.766,M,,*52
$GNGGA,094614.70,3422.49192172,N,10854.01226166,E,1,16,0.9,374.331,M,-35.766,M,,*52
$GNGGA,094614.80,3422.49219484,N,10854.01211554,E,1,16,0.9,374.346,M,-35.766,M,,*50
$GNGGA,094614.90,3422.49247018,N,10854.01197307,E,1,16,0.9,374.342,M,-35.766,M,,*52
$GNGGA,094615.00,3422.49274179,N,10854.01182977,E,1,16,0.9,374.351,M,-35.766,M,,*57
$GNGGA,094615.10,3422.49301614,N,10854.01168381,E,1,16,0.9,374.348,M,-35.766,M,,*56
$GNGGA,094615.20,3422.49328800,N,10854.01153959,E,1,16,1.1,374.349,M,-35.766,M,,*5A
$GNGGA,094615.30,3422.49356186,N,10854.01139910,E,1,16,1.1,374.339,M,-35.766,M,,*53
$GNGGA,094615.40,3422.49383340,N,10854.01125649,E,1,16,1.1,374.340,M,-35.766,M,,*54
$GNGGA,094615.50,3422.49410868,N,10854.01112155,E,1,16,1.1,374.336,M,-35.766,M,,*56
$GNGGA,094615.60,3422.49438290,N,10854.01099126,E,1,16,1.1,374.343,M,-35.766,M,,*56
$GNGGA,094615.70,3422.49465572,N,10854.01086201,E,1,16,1.1,374.336,M,-35.766,M,,*5E
$GNGGA,094615.80,3422.49493061,N,10854.01073890,E,1,16,1.1,374.337,M,-35.766,M,,*56
$GNGGA,094615.90,3422.49520803,N,10854.01061635,E,1,16,1.1,374.349,M,-35.766,M,,*59
$GNGGA,094616.00,3422.49548859,N,10854.01050212,E,1,16,1.1,374.340,M,-35.766,M,,*58
$GNGGA,094616.10,3422.49576785,N,10854.01039231,E,1,16,1.1,374.332,M,-35.766,M,,*51
$GNGGA,094616.20,3422.49605171,N,10854.01029206,E,1,16,1.1,374.331,M,-35.766,M,,*5E
$GNGGA,094616.30,3422.49633017,N,10854.01019075,E,1,16,1.1,374.338,M,-35.766,M,,*57
$GNGGA,094616.40,3422.49661651,N,10854.01010338,E,1,16,1.1,374.321,M,-35.766,M,,*58
$GNGGA,094616.50,3422.49690712,N,10854.01002094,E,1,16,1.1,374.336,M,-35.766,M,,*51
$GNGGA,094616.60,3422.49720224,N,10854.00994930,E,1,16,1.1,374.337,M,-35.766,M,,*59
$GNGGA,094616.70,3422.49749358,N,10854.00987734,E,1,16,1.1,374.323,M,-35.766,M,,*50
$GNGGA,094616.80,3422.49779860,N,10854.00982546,E,1,16,1.1,374.321,M,-35.766,M,,*5C
$GNGGA,094616.90,3422.49809691,N,10854.00976843,E,1,16,1.1,374.332,M,-35.766,M,,*54
$GNGGA,094617.00,3422.49840508,N,10854.00972892,E,1,16,1.1,374.324,M,-35.766,M,,*5D
$GNGGA,094617.10,3422.49871143,N,10854.00968853,E,1,16,1.1,374.336,M,-35.766,M,,*50
$GNGGA,094617.20,3422.49902631,N,10854.00966239,E,1,16,1.1,374.327,M,-35.766,M,,*5C
$GNGGA,094617.30,3422.49934155,N,10854.00963435,E,1,16,1.1,374.322,M,-35.766,M,,*57
$GNGGA,094617.40,3422.49966635,N,10854.00962464,E,1,16,1.1,374.310,M,-35.766,M,,*52
$GNGGA,094617.50,3422.49998775,N,10854.00961886,E,1,16,1.1,374.312,M,-35.766,M,,*56
$GNGGA,094617.60,3422.50031846,N,10854.00963224,E,1,16,1.1,374.294,M,-35.766,M,,*57
$GNGGA,094617.70,3422.50064235,N,10854.00964151,E,1,16,1.1,374.294,M,-35.766,M,,*5E
$GNGGA,094617.80,3422.50097195,N,10854.00967054,E,1,16,1.1,374.291,M,-35.766,M,,*56
$GNGGA,094617.90,3422.50129964,N,10854.00969639,E,1,16,1.1,374.276,M,-35.766,M,,*5F
$GNGGA,094618.00,3422.50162984,N,10854.00973976,E,1,16,1.1,374.271,M,-35.766,M,,*50
$GNGGA,094618.10,3422.50196000,N,10854.00978649,E,1,16,1.1,374.273,M,-35.766,M,,*55
$GNGGA,094618.20,3422.50228940,N,10854.00985174,E,1,16,1.1,374.269,M,-35.766,M,,*5D
$GNGGA,094618.30,3422.50261836,N,10854.00991453,E,1,16,1.1,374.261,M,-35.766,M,,*5C
$GNGGA,094618.40,3422.50294652,N,10854.00999880,E,1,16,1.1,374.258,M,-35.766,M,,*5D
$GNGGA,094618.50,3422.50327718,N,10854.01007577,E,1,16,1.1,374.266,M,-35.766,M,,*5D
$GNGGA,094618.60,3422.50360531,N,10854.01016801,E,1,16,1.1,374.267,M,-35.766,M,,*59
$GNGGA,094618.70,3422.50393499,N,10854.01025422,E,1,16,1.1,374.249,M,-35.766,M,,*56
$GNGGA,094618.80,3422.50426455,N,10854.01035279,E,1,16,1.1,374.246,M,-35.766,M,,*56
$GNGGA,094618.90,3422.50459379,N,10854.01044602,E,1,16,1.1,374.245,M,-35.766,M,,*5B
$GNGGA,094619.00,3422.50492468,N,10854.01054913,E,1,16,1.1,374.239,M,-35.766,M,,*56
$GNGGA,094619.10,3422.50525509,N,10854.01064684,E,1,16,1.1,374.236,M,-35.766,M,,*51
$GNGGA,094619.20,3422.50558494,N,10854.01075140,E,1,16,1.1,374.232,M,-35.766,M,,*56
$GNGGA,094619.30,3422.50591705,N,10854.01084921,E,1,16,1.1,374.225,M,-35.766,M,,*5E
$GNGGA,094619.40,3422.50624735,N,10854.01095147,E,1,16,1.1,374.222,M,-35.766,M,,*58
$GNGGA,094619.50,3422.50658331,N,10854.01104081,E,1,16,1.1,374.226,M,-35.766,M,,*54
$GNGGA,094619.60,3422.50691903,N,10854.01112988,E,1,16,1.1,374.224,M,-35.766,M,,*5C
$GNGGA,094619.70,3422.50725424,N,10854.01121055,E,1,16,1.1,374.228,M,-35.766,M,,*5E
$GNGGA,094619.80,3422.50759277,N,10854.01128409,E,1,16,1.1,374.232,M,-35.766,M,,*55
$GNGGA,094619.90,3422.50792934,N,10854.01135076,E,1,16,1.1,374.228,M,-35.766,M,,*54
$GNGGA,094620.00,3422.50826553,N,10854.01141110,E,1,16,1.1,374.226,M,-35.766,M,,*56
$GNGGA,094620.10,3422.50859963,N,10854.01146806,E,1,16,1.1,374.234,M,-35.766,M,,*5A
$GNGGA,094620.20,3422.50893364,N,10854.01151757,E,1,16,1.1,374.232,M,-35.766,M,,*59
$GNGGA,094620.30,3422.50926255,N,10854.01156224,E,1,16,1.1,374.229,M,-35.766,M,,*58
$GNGGA,094620.40,3422.50959109,N,10854.01160216,E,1,16,1.1,374.233,M,-35.766,M,,*52
$GNGGA,094620.50,3422.50991963,N,10854.01163099,E,1,16,1.1,374.240,M,-35.766,M,,*51
$GNGGA,094620.60,3422.51024393,N,10854.01165227,E,1,16,1.1,374.236,M,-35.766,M,,*51
$GNGGA,094620.70,3422.51056771,N,10854.01165825,E,1,16,1.1,374.237,M,-35.766,M,,*54
$GNGGA,094620.80,3422.51088769,N,10854.01165158,E,1,16,1.1,374.235,M,-35.766,M,,*50
$GNGGA,094620.90,3422.51120316,N,10854.01163992,E,1,16,1.1,374.239,M,-35.766,M,,*5A
$GNGGA,094621.00,3422.51151302,N,10854.01161075,E,1,16,1.1,374.242,M,-35.766,M,,*5F
$GNGGA,094621.10,3422.51182039,N,10854.01157411,E,1,16,1.1,374.248,M,-35.766,M,,*52
$GNGGA,094621.20,3422.51212012,N,10854.01152093,E,1,16,1.1,374.252,M,-35.766,M,,*52
$GNGGA,094621.30,3422.51242022,N,10854.01146144,E,1,16,1.1,374.251,M,-35.766,M,,*58
$GNGGA,094621.40,3422.51271502,N,10854.01137961,E,1,16,1.1,374.255,M,-35.766,M,,*55
$GNGGA,094621.50,3422.51300689,N,10854.01129521,E,1,16,1.1,374.257,M,-35.766,M,,*56
$GNGGA,094621.60,3422.51329394,N,10854.01119025,E,1,16,1.1,374.260,M,-35.766,M,,*51
$GNGGA,094621.70,3422.51357714,N,10854.01108053,E,1,16,1.1,374.269,M,-35.766,M,,*5D
$GNGGA,094621.80,3422.51385247,N,10854.01095306,E,1,16,1.1,374.268,M,-35.766,M,,*59
$GNGGA,094621.90,3422.51413003,N,10854.01082023,E,1,16,1.1,374.271,M,-35.766,M,,*58
$GNGGA,094622.00,3422.51439927,N,10854.01066885,E,1,16,1.1,374.268,M,-35.766,M,,*53
$GNGGA,094622.10,3422.51466925,N,10854.01051139,E,1,16,1.1,374.268,M,-35.766,M,,*50
$GNGGA,094622.20,3422.51493572,N,10854.01033618,E,1,16,1.1,374.272,M,-35.766,M,,*5C
$GNGGA,094622.30,3422.51520041,N,10854.01015474,E,1,16,1.1,374.275,M,-35.766,M,,*5A
$GNGGA,094622.40,3422.51546111,N,10854.00995240,E,1,16,1.1,374.277,M,-35.766,M,,*5A
$GNGGA,094622.50,3422.51572218,N,10854.00974737,E,1,16,1.1,374.277,M,-35.766,M,,*5C
$GNGGA,094622.60,3422.51597763,N,10854.00951970,E,1,16,1.1,374.275,M,-35.766,M,,*55
$GNGGA,094622.70,3422.51622772,N,10854.00928840,E,1,16,1.1,374.279,M,-35.766,M,,*59
$GNGGA,094622.80,3422.51647256,N,10854.00903685,E,1,16,0.9,374.276,M,-35.766,M,,*5E
$GNGGA,094622.90,3422.51671382,N,10854.00878622,E,1,16,0.9,374.283,M,-35.766,M,,*58
$GNGGA,094623.00,3422.51694406,N,10854.00851390,E,1,16,0.9,374.281,M,-35.766,M,,*55
$GNGGA,094623.10,3422.51717113,N,10854.00824368,E,1,16,0.9,374.279,M,-35.766,M,,*5D
$GNGGA,094623.20,3422.51738708,N,10854.00795583,E,1,16,0.9,374.279,M,-35.766,M,,*59
$GNGGA,094623.30,3422.51760178,N,10854.00766717,E,1,16,0.9,374.280,M,-35.766,M,,*51
$GNGGA,094623.40,3422.51780517,N,10854.00736280,E,1,16,1.1,374.273,M,-35.766,M,,*5E
$GNGGA,094623.50,3422.51801219,N,10854.00706162,E,1,16,1.1,374.282,M,-35.766,M,,*52
$GNGGA,094623.60,3422.51820894,N,10854.00674472,E,1,16,1.1,374.281,M,-35.766,M,,*5E
$GNGGA,094623.70,3422.51840498,N,10854.00643315,E,1,16,1.1,374.281,M,-35.766,M,,*5B
$GNGGA,094623.80,3422.51859560,N,10854.00611046,E,1,16,1.1,374.288,M,-35.766,M,,*51
$GNGGA,094623.90,3422.51878653,N,10854.00578898,E,1,16,1.1,374.290,M,-35.766,M,,*5E
$GNGGA,094624.00,3422.51896959,N,10854.00546023,E,1,16,1.1,374.287,M,-35.766,M,,*56
$GNGGA,094624.10,3422.51915410,N,10854.00513377,E,1,16,1.1,374.291,M,-35.766,M,,*58
$GNGGA,094624.20,3422.51933294,N,10854.00479790,E,1,16,1.1,374.287,M,-35.766,M,,*52
$GNGGA,094624.30,3422.51951297,N,10854.00446169,E,1,16,1.1,374.290,M,-35.766,M,,*5E
$GNGGA,094624.40,3422.51968818,N,10854.00411851,E,1,16,1.1,374.292,M,-35.766,M,,*5C
$GNGGA,094624.50,3422.51986261,N,10854.00377840,E,1,16,1.1,374.298,M,-35.766,M,,*54
$GNGGA,094624.60,3422.52003205,N,10854.00343267,E,1,16,1.1,374.298,M,-35.766,M,,*5A
$GNGGA,094624.70,3422.52020361,N,10854.00309240,E,1,16,1.1,374.301,M,-35.766,M,,*53
$GNGGA,094624.80,3422.52037059,N,10854.00275068,E,1,16,1.1,374.301,M,-35.766,M,,*50
$GNGGA,094624.90,3422.52054451,N,10854.00241307,E,1,16,1.1,374.311,M,-35.766,M,,*54
$GNGGA,094625.00,3422.52071816,N,10854.00207597,E,1,16,1.1,374.316,M,-35.766,M,,*5E
$GNGGA,094625.10,3422.52089472,N,10854.00173805,E,1,16,1.1,374.316,M,-35.766,M,,*50
$GNGGA,094625.20,3422.52107646,N,10854.00140278,E,1,16,1.1,374.317,M,-35.766,M,,*50
$GNGGA,094625.30,3422.52125833,N,10854.00107324,E,1,16,1.1,374.330,M,-35.766,M,,*53
$GNGGA,094625.40,3422.52144342,N,10854.00074376,E,1,16,1.1,374.331,M,-35.766,M,,*5D
$GNGGA,094625.50,3422.52162741,N,10854.00041302,E,1,16,1.1,374.342,M,-35.766,M,,*5E
$GNGGA,094625.60,3422.52181407,N,10854.00008630,E,1,16,1.1,374.347,M,-35.766,M,,*5D
$GNGGA,094625.70,3422.52200628,N,10853.99975716,E,1,16,1.1,374.360,M,-35.766,M,,*5D
$GNGGA,094625.80,3422.52220022,N,10853.99942902,E,1,16,1.1,374.364,M,-35.766,M,,*57
$GNGGA,094625.90,3422.52239501,N,10853.99909749,E,1,16,1.1,374.369,M,-35.766,M,,*59
$GNGGA,094626.00,3422.52259481,N,10853.99876549,E,1,16,1.1,374.370,M,-35.766,M,,*5F
$GNGGA,094626.10,3422.52278872,N,10853.99843113,E,1,16,1.1,374.382,M,-35.766,M,,*5D
$GNGGA,094626.20,3422.52298715,N,10853.99809476,E,1,16,1.1,374.386,M,-35.766,M,,*52
$GNGGA,094626.30,3422.52318687,N,10853.99776044,E,1,16,1.1,374.389,M,-35.766,M,,*5D
$GNGGA,094626.40,3422.52338671,N,10853.99742578,E,1,16,1.1,374.395,M,-35.766,M,,*51
$GNGGA,094626.50,3422.52358290,N,10853.99709095,E,1,16,1.1,374.409,M,-35.766,M,,*56
$GNGGA,094626.60,3422.52378146,N,10853.99675805,E,1,16,1.1,374.415,M,-35.766,M,,*59
$GNGGA,094626.70,3422.52397484,N,10853.99642183,E,1,16,1.1,374.428,M,-35.766,M,,*5F
$GNGGA,094626.80,3422.52416411,N,10853.99608355,E,1,16,1.1,374.435,M,-35.766,M,,*59
$GNGGA,094626.90,3422.52435065,N,10853.99574211,E,1,16,1.1,374.435,M,-35.766,M,,*57
$GNGGA,094627.00,3422.52453263,N,10853.99539749,E,1,16,1.1,374.438,M,-35.766,M,,*57
$GNGGA,094627.10,3422.52471212,N,10853.99505302,E,1,16,1.1,374.443,M,-35.766,M,,*58
$GNGGA,094627.20,3422.52488710,N,10853.99470329,E,1,16,1.1,374.438,M,-35.766,M,,*5C
$GNGGA,094627.30,3422.52505839,N,10853.99435047,E,1,16,1.1,374.437,M,-35.766,M,,*58
$GNGGA,094627.40,3422.52522291,N,10853.99399121,E,1,16,1.1,374.429,M,-35.766,M,,*5D
$GNGGA,094627.50,3422.52538941,N,10853.99362862,E,1,16,1.1,374.425,M,-35.766,M,,*57
$GNGGA,094627.60,3422.52554859,N,10853.99325765,E,1,16,1.1,374.420,M,-35.766,M,,*58
$GNGGA,094627.70,3422.52570662,N,10853.99288161,E,1,16,1.1,374.428,M,-35.766,M,,*55
$GNGGA,094627.80,3422.52586020,N,10853.99249836,E,1,16,1.1,374.427,M,-35.766,M,,*5A
$GNGGA,094627.90,3422.52600991,N,10853.99211173,E,1,16,1.1,374.424,M,-35.766,M,,*53
$GNGGA,094628.00,3422.52615480,N,10853.99171504,E,1,16,1.1,374.425,M,-35.766,M,,*5C
$GNGGA,094628.10,3422.52629406,N,10853.99131548,E,1,16,1.1,374.435,M,-35.766,M,,*51
$GNGGA,094628.20,3422.52642652,N,10853.99090298,E,1,16,1.1,374.442,M,-35.766,M,,*5C
$GNGGA,094628.30,3422.52655251,N,10853.99048635,E,1,16,1.1,374.452,M,-35.766,M,,*5B
$GNGGA,094628.40,3422.52667092,N,10853.99005755,E,1,16,1.1,374.460,M,-35.766,M,,*5F
$GNGGA,094628.50,3422.52678327,N,10853.98962646,E,1,16,1.1,374.452,M,-35.766,M,,*56
$GNGGA,094628.60,3422.52688555,N,10853.98918325,E,1,16,1.1,374.441,M,-35.766,M,,*56
$GNGGA,094628.70,3422.52697945,N,10853.98874676,E,1,16,1.1,374.442,M,-35.766,M,,*5F
$GNGGA,094628.80,3422.52706116,N,10853.98829765,E,1,16,1.1,374.420,M,-35.766,M,,*58
$GNGGA,094628.90,3422.52713577,N,10853.98785502,E,1,16,1.1,374.409,M,-35.766,M,,*5F
$GNGGA,094629.00,3422.52719379,N,10853.98740760,E,1,16,1.1,374.391,M,-35.766,M,,*5C
$GNGGA,094629.10,3422.52724589,N,10853.98696246,E,1,16,1.1,374.387,M,-35.766,M,,*56
$GNGGA,094629.20,3422.52728162,N,10853.98651470,E,1,16,1.1,374.375,M,-35.766,M,,*5D
$GNGGA,094629.30,3422.52731952,N,10853.98606670,E,1,16,1.1,374.374,M,-35.766,M,,*5E
$GNGGA,094629.40,3422.52733907,N,10853.98561684,E,1,16,1.1,374.368,M,-35.766,M,,*5F
$GNGGA,094629.50,3422.52734916,N,10853.98516478,E,1,16,1.1,374.360,M,-35.766,M,,*50
$GNGGA,094629.60,3422.52734685,N,10853.98471192,E,1,16,1.1,374.352,M,-35.766,M,,*56
$GNGGA,094629.70,3422.52734076,N,10853.98425562,E,1,16,1.1,374.350,M,-35.766,M,,*55
$GNGGA,094629.80,3422.52731443,N,10853.98379762,E,1,16,1.1,374.334,M,-35.766,M,,*53
$GNGGA,094629.90,3422.52728803,N,10853.98333801,E,1,16,1.1,374.342,M,-35.766,M,,*57
$GNGGA,094630.00,3422.52724385,N,10853.98287587,E,1,16,1.1,374.329,M,-35.766,M,,*5F
$GNGGA,094630.10,3422.52719298,N,10853.98241477,E,1,16,1.1,374.322,M,-35.766,M,,*52
$GNGGA,094630.20,3422.52712458,N,10853.98195236,E,1,16,1.1,374.310,M,-35.766,M,,*58
$GNGGA,094630.30,3422.52705131,N,10853.98148770,E,1,16,1.1,374.304,M,-35.766,M,,*57
$GNGGA,094630.40,3422.52695524,N,10853.98101810,E,1,16,1.1,374.295,M,-35.766,M,,*55
$GNGGA,094630.50,3422.52686218,N,10853.98055110,E,1,16,1.1,374.287,M,-35.766,M,,*54
$GNGGA,094630.60,3422.52674587,N,10853.98007751,E,1,16,1.1,374.283,M,-35.766,M,,*5B
$GNGGA,094630.70,3422.52663339,N,10853.97961739,E,1,16,1.1,374.289,M,-35.766,M,,*5D
$GNGGA,094630.80,3422.52649908,N,10853.97915022,E,1,16,1.1,374.285,M,-35.766,M,,*50
$GNGGA,094630.90,3422.52636774,N,10853.97869026,E,1,16,1.1,374.280,M,-35.766,M,,*57
$GNGGA,094631.00,3422.52621461,N,10853.97822707,E,1,16,1.1,374.281,M,-35.766,M,,*54
$GNGGA,094631.10,3422.52606842,N,10853.97776793,E,1,16,1.1,374.301,M,-35.766,M,,*57
$GNGGA,094631.20,3422.52590134,N,10853.97730595,E,1,16,1.1,374.301,M,-35.766,M,,*56
$GNGGA,094631.30,3422.52573953,N,10853.97685432,E,1,16,1.1,374.300,M,-35.766,M,,*51
$GNGGA,094631.40,3422.52556047,N,10853.97639424,E,1,16,1.1,374.304,M,-35.766,M,,*59
$GNGGA,094631.50,3422.52539030,N,10853.97594083,E,1,16,1.1,374.303,M,-35.766,M,,*5B
$GNGGA,094631.60,3422.52520341,N,10853.97548426,E,1,16,1.1,374.308,M,-35.766,M,,*54
$GNGGA,094631.70,3422.52502453,N,10853.97503285,E,1,16,1.1,374.304,M,-35.766,M,,*5D
$GNGGA,094631.80,3422.52483328,N,10853.97457769,E,1,16,1.1,374.307,M,-35.766,M,,*55
$GNGGA,094631.90,3422.52464723,N,10853.97412950,E,1,16,1.1,374.302,M,-35.766,M,,*52
$GNGGA,094632.00,3422.52444970,N,10853.97367666,E,1,16,1.1,374.310,M,-35.766,M,,*5E
$GNGGA,094632.10,3422.52425642,N,10853.97322886,E,1,16,1.1,374.306,M,-35.766,M,,*50
$GNGGA,094632.20,3422.52405256,N,10853.97277773,E,1,16,1.1,374.309,M,-35.766,M,,*5B
$GNGGA,094632.30,3422.52385701,N,10853.97232830,E,1,16,1.1,374.323,M,-35.766,M,,*53
$GNGGA,094632.40,3422.52365062,N,10853.97187500,E,1,16,1.1,374.325,M,-35.766,M,,*5D
$GNGGA,094632.50,3422.52345089,N,10853.97142651,E,1,16,1.1,374.318,M,-35.766,M,,*5B
$GNGGA,094632.60,3422.52324656,N,10853.97097128,E,1,16,1.1,374.321,M,-35.766,M,,*51
$GNGGA,094632.70,3422.52304807,N,10853.97051953,E,1,16,1.1,374.330,M,-35.766,M,,*56
$GNGGA,094632.80,3422.52284696,N,10853.97006287,E,1,16,1.1,374.333,M,-35.766,M,,*55
$GNGGA,094632.90,3422.52265265,N,10853.96960758,E,1,16,1.1,374.334,M,-35.766,M,,*5B
$GNGGA,094633.00,3422.52245707,N,10853.96914544,E,1,16,1.1,374.342,M,-35.766,M,,*5D
$GNGGA,094633.10,3422.52226562,N,10853.96868528,E,1,16,1.1,374.336,M,-35.766,M,,*5B
$GNGGA,094633.20,3422.52207574,N,10853.96821662,E,1,16,1.1,374.340,M,-35.766,M,,*5D
$GNGGA,094633.30,3422.52188891,N,10853.96774900,E,1,16,1.1,374.343,M,-35.766,M,,*59
$GNGGA,094633.40,3422.52170146,N,10853.96727528,E,1,16,1.1,374.346,M,-35.766,M,,*5F
$GNGGA,094633.50,3422.52151554,N,10853.96680537,E,1,16,1.1,374.323,M,-35.766,M,,*5B
$GNGGA,094633.60,3422.52132934,N,10853.96632656,E,1,16,1.1,374.315,M,-35.766,M,,*5F
$GNGGA,094633.70,3422.52114551,N,10853.96584847,E,1,16,1.1,374.309,M,-35.766,M,,*58
$GNGGA,094633.80,3422.52096160,N,10853.96536225,E,1,16,1.1,374.309,M,-35.766,M,,*5D
$GNGGA,094633.90,3422.52078006,N,10853.96487896,E,1,16,1.1,374.301,M,-35.766,M,,*5C
$GNGGA,094634.00,3422.52059998,N,10853.96438674,E,1,16,1.1,374.310,M,-35.766,M,,*59
$GNGGA,094634.10,3422.52041998,N,10853.96389542,E,1,16,1.1,374.299,M,-35.766,M,,*5A
$GNGGA,094634.20,3422.52024220,N,10853.96339621,E,1,16,1.1,374.301,M,-35.766,M,,*5F
$GNGGA,094634.30,3422.52006467,N,10853.96289745,E,1,16,1.1,374.292,M,-35.766,M,,*59
$GNGGA,094634.40,3422.51988847,N,10853.96239083,E,1,16,1.1,374.288,M,-35.766,M,,*51
$GNGGA,094634.50,3422.51971458,N,10853.96188650,E,1,16,1.1,374.287,M,-35.766,M,,*5A
$GNGGA,094634.60,3422.51954036,N,10853.96137479,E,1,16,1.1,374.291,M,-35.766,M,,*58
$GNGGA,094634.70,3422.51936594,N,10853.96086513,E,1,16,1.1,374.295,M,-35.766,M,,*52
$GNGGA,094634.80,3422.51919275,N,10853.96034926,E,1,16,1.1,374.297,M,-35.766,M,,*59
$GNGGA,094634.90,3422.51902093,N,10853.95983781,E,1,16,1.1,374.301,M,-35.766,M,,*53
$GNGGA,094635.00,3422.51884754,N,10853.95931780,E,1,16,1.1,374.304,M,-35.766,M,,*55
$GNGGA,094635.10,3422.51867210,N,10853.95880008,E,1,16,1.1,374.310,M,-35.766,M,,*55
$GNGGA,094635.20,3422.51849462,N,10853.95827841,E,1,16,1.1,374.311,M,-35.766,M,,*50
$GNGGA,094635.30,3422.51831525,N,10853.95776030,E,1,16,1.1,374.322,M,-35.766,M,,*59
$GNGGA,094635.40,3422.51813259,N,10853.95723841,E,1,16,1.1,374.326,M,-35.766,M,,*58
$GNGGA,094635.50,3422.51795161,N,10853.95671814,E,1,16,1.1,374.329,M,-35.766,M,,*59
$GNGGA,094635.60,3422.51776781,N,10853.95619547,E,1,16,1.1,374.341,M,-35.766,M,,*54
$GNGGA,094635.70,3422.51758570,N,10853.95567302,E,1,16,1.1,374.339,M,-35.766,M,,*57
$GNGGA,094635.80,3422.51740250,N,10853.95514930,E,1,16,1.1,374.345,M,-35.766,M,,*50
$GNGGA,094635.90,3422.51721949,N,10853.95462765,E,1,16,1.1,374.360,M,-35.766,M,,*5C
$GNGGA,094636.00,3422.51703590,N,10853.95410364,E,1,16,1.1,374.364,M,-35.766,M,,*5A
$GNGGA,094636.10,3422.51685285,N,10853.95358164,E,1,16,1.1,374.366,M,-35.766,M,,*5C
$GNGGA,094636.20,3422.51666668,N,10853.95305479,E,1,16,1.1,374.375,M,-35.766,M,,*56
$GNGGA,094636.30,3422.51648294,N,10853.95253200,E,1,16,1.1,374.364,M,-35.766,M,,*56
$GNGGA,094636.40,3422.51629751,N,10853.95200527,E,1,16,1.1,374.379,M,-35.766,M,,*52
$GNGGA,094636.50,3422.51610982,N,10853.95148085,E,1,16,1.1,374.373,M,-35.766,M,,*51
$GNGGA,094636.60,3422.51592385,N,10853.95095611,E,1,16,1.1,374.378,M,-35.766,M,,*57
$GNGGA,094636.70,3422.51573468,N,10853.95042143,E,1,16,1.1,374.386,M,-35.766,M,,*56
$GNGGA,094636.80,3422.51554112,N,10853.94988766,E,1,16,1.1,374.406,M,-35.766,M,,*54
$GNGGA,094636.90,3422.51535755,N,10853.94935459,E,1,16,1.1,374.420,M,-35.766,M,,*5A
$GNGGA,094637.00,3422.51517437,N,10853.94881760,E,1,16,1.0,374.416,M,-35.766,M,,*56
$GNGGA,094637.10,3422.51499154,N,10853.94828328,E,1,16,1.0,374.416,M,-35.766,M,,*5B
$GNGGA,094637.20,3422.51480844,N,10853.94773365,E,1,16,1.1,374.406,M,-35.766,M,,*50
$GNGGA,094637.30,3422.51462121,N,10853.94719956,E,1,16,1.1,374.397,M,-35.766,M,,*5E
$GNGGA,094637.40,3422.51443783,N,10853.94667275,E,1,16,1.1,374.409,M,-35.766,M,,*56
$GNGGA,094637.50,3422.51425320,N,10853.94613857,E,1,16,1.1,374.415,M,-35.766,M,,*5E
$GNGGA,094637.60,3422.51408328,N,10853.94565329,E,1,16,1.0,374.262,M,-35.766,M,,*5D
$GNGGA,094637.70,3422.51389502,N,10853.94511103,E,1,16,1.0,374.275,M,-35.766,M,,*53
$GNGGA,094637.80,3422.51371823,N,10853.94462847,E,1,16,1.0,374.219,M,-35.766,M,,*53
$GNGGA,094637.90,3422.51353652,N,10853.94408723,E,1,16,1.0,374.223,M,-35.766,M,,*52
$GNGGA,094638.00,3422.51336045,N,10853.94360022,E,1,16,1.0,374.180,M,-35.766,M,,*52
$GNGGA,094638.10,3422.51317438,N,10853.94305899,E,1,16,1.0,374.173,M,-35.766,M,,*59
$GNGGA,094638.20,3422.51299244,N,10853.94255106,E,1,16,1.0,374.057,M,-35.766,M,,*5C
$GNGGA,094638.30,3422.51280800,N,10853.94200466,E,1,16,1.0,374.086,M,-35.766,M,,*50
$GNGGA,094638.40,3422.51262416,N,10853.94148916,E,1,16,1.0,373.991,M,-35.766,M,,*5D
$GNGGA,094638.50,3422.51244098,N,10853.94094428,E,1,16,1.0,373.978,M,-35.766,M,,*5D
$GNGGA,094638.60,3422.51226387,N,10853.94044356,E,1,16,1.0,373.958,M,-35.766,M,,*56
$GNGGA,094638.70,3422.51208138,N,10853.93989895,E,1,16,1.0,373.962,M,-35.766,M,,*5F
$GNGGA,094638.80,3422.51189869,N,10853.93938573,E,1,16,1.0,373.932,M,-35.766,M,,*5D
$GNGGA,094638.90,3422.51171754,N,10853.93883875,E,1,16,1.0,373.936,M,-35.766,M,,*54
$GNGGA,094639.00,3422.51153471,N,10853.93831493,E,1,16,1.0,373.872,M,-35.766,M,,*54
$GNGGA,094639.10,3422.51135136,N,10853.93776547,E,1,16,1.0,373.875,M,-35.766,M,,*50
$GNGGA,094639.20,3422.51117353,N,10853.93725607,E,1,16,1.0,373.880,M,-35.766,M,,*59
$GNGGA,094639.30,3422.51099065,N,10853.93670477,E,1,16,1.0,373.878,M,-35.766,M,,*5A
$GNGGA,094639.40,3422.51081041,N,10853.93619027,E,1,16,1.0,373.891,M,-35.766,M,,*5B
$GNGGA,094639.50,3422.51062639,N,10853.93563965,E,1,16,1.0,373.906,M,-35.766,M,,*50
$GNGGA,094639.60,3422.51044478,N,10853.93512162,E,1,16,1.0,373.917,M,-35.766,M,,*59
$GNGGA,094639.70,3422.51026180,N,10853.93457145,E,1,16,1.0,373.908,M,-35.766,M,,*55
$GNGGA,094639.80,3422.51007866,N,10853.93404081,E,1,16,1.0,373.885,M,-35.766,M,,*53
$GNGGA,094639.90,3422.50989477,N,10853.93348959,E,1,16,1.0,373.898,M,-35.766,M,,*5F
$GNGGA,094640.00,3422.50971536,N,10853.93296654,E,1,16,1.0,373.912,M,-35.766,M,,*58
$GNGGA,094640.10,3422.50953174,N,10853.93241358,E,1,16,1.0,373.924,M,-35.766,M,,*5D
$GNGGA,094640.20,3422.50935126,N,10853.93188545,E,1,16,1.0,373.936,M,-35.766,M,,*56
$GNGGA,094640.30,3422.50916828,N,10853.93133098,E,1,16,1.0,373.936,M,-35.766,M,,*54
$GNGGA,094640.40,3422.50898882,N,10853.93080123,E,1,16,1.0,373.953,M,-35.766,M,,*5F
$GNGGA,094640.50,3422.50880567,N,10853.93024549,E,1,16,1.0,373.948,M,-35.766,M,,*5D
$GNGGA,094640.60,3422.50862728,N,10853.92971399,E,1,16,1.0,373.965,M,-35.766,M,,*57
$GNGGA,094640.70,3422.50844505,N,10853.92915942,E,1,16,1.0,373.965,M,-35.766,M,,*51
$GNGGA,094640.80,3422.50826719,N,10853.92862789,E,1,16,1.0,373.981,M,-35.766,M,,*57
$GNGGA,094640.90,3422.50808671,N,10853.92807560,E,1,16,1.0,373.977,M,-35.766,M,,*5A
$GNGGA,094641.00,3422.50791058,N,10853.92754360,E,1,16,1.0,373.993,M,-35.766,M,,*55
$GNGGA,094641.10,3422.50773143,N,10853.92699046,E,1,16,1.0,373.993,M,-35.766,M,,*54
$GNGGA,094641.20,3422.50755686,N,10853.92645717,E,1,16,1.0,374.010,M,-35.766,M,,*5A
$GNGGA,094641.30,3422.50738123,N,10853.92590472,E,1,16,1.0,374.019,M,-35.766,M,,*5A
$GNGGA,094641.40,3422.50720874,N,10853.92537259,E,1,16,1.0,374.038,M,-35.766,M,,*5E
$GNGGA,094641.50,3422.50703314,N,10853.92482292,E,1,16,1.0,374.041,M,-35.766,M,,*55
$GNGGA,094641.60,3422.50686164,N,10853.92429259,E,1,16,1.0,374.062,M,-35.766,M,,*58
$GNGGA,094641.70,3422.50668926,N,10853.92374652,E,1,16,1.0,374.059,M,-35.766,M,,*5F
$GNGGA,094641.80,3422.50651871,N,10853.92321938,E,1,16,1.1,374.081,M,-35.766,M,,*5E
$GNGGA,094641.90,3422.50634855,N,10853.92267902,E,1,16,1.1,374.088,M,-35.766,M,,*59
$GNGGA,094642.00,3422.50618125,N,10853.92215568,E,1,16,1.1,374.106,M,-35.766,M,,*51
$GNGGA,094642.10,3422.50601061,N,10853.92161603,E,1,16,1.1,374.094,M,-35.766,M,,*5D
$GNGGA,094642.20,3422.50584566,N,10853.92109476,E,1,16,1.1,374.112,M,-35.766,M,,*53
$GNGGA,094642.30,3422.50568076,N,10853.92055906,E,1,16,1.1,374.099,M,-35.766,M,,*54
$GNGGA,094642.40,3422.50551826,N,10853.92004022,E,1,16,1.1,374.118,M,-35.766,M,,*57
$GNGGA,094642.50,3422.50535358,N,10853.91951075,E,1,16,1.1,374.110,M,-35.766,M,,*56
$GNGGA,094642.60,3422.50519226,N,10853.91899572,E,1,16,1.1,374.130,M,-35.766,M,,*56
$GNGGA,094642.70,3422.50503127,N,10853.91846952,E,1,16,1.1,374.114,M,-35.766,M,,*54
$GNGGA,094642.80,3422.50487167,N,10853.91795735,E,1,16,1.1,374.134,M,-35.766,M,,*5E
$GNGGA,094642.90,3422.50471212,N,10853.91743631,E,1,16,1.1,374.135,M,-35.766,M,,*58
$GNGGA,094643.00,3422.50455542,N,10853.91692880,E,1,16,1.1,374.154,M,-35.766,M,,*5A
$GNGGA,094643.10,3422.50439740,N,10853.91641130,E,1,16,1.1,374.157,M,-35.766,M,,*5E
$GNGGA,094643.20,3422.50424261,N,10853.91590554,E,1,16,1.1,374.177,M,-35.766,M,,*5C
$GNGGA,094643.30,3422.50408691,N,10853.91539152,E,1,16,1.1,374.179,M,-35.766,M,,*57
$GNGGA,094643.40,3422.50393437,N,10853.91488752,E,1,16,1.1,374.196,M,-35.766,M,,*57
$GNGGA,094643.50,3422.50378100,N,10853.91437739,E,1,16,1.1,374.201,M,-35.766,M,,*56
$GNGGA,094643.60,3422.50363116,N,10853.91387700,E,1,15,1.1,374.221,M,-35.766,M,,*5F
$GNGGA,094643.70,3422.50348267,N,10853.91337122,E,1,15,1.1,374.213,M,-35.766,M,,*5E
$GNGGA,094643.80,3422.50333714,N,10853.91287416,E,1,16,1.1,374.232,M,-35.766,M,,*54
$GNGGA,094643.90,3422.50318931,N,10853.91236953,E,1,16,1.1,374.222,M,-35.766,M,,*52
$GNGGA,094644.00,3422.50304512,N,10853.91187297,E,1,16,1.1,374.240,M,-35.766,M,,*52
$GNGGA,094644.10,3422.50289953,N,10853.91137152,E,1,16,1.1,374.227,M,-35.766,M,,*5E
$GNGGA,094644.20,3422.50275594,N,10853.91087686,E,1,16,1.1,374.247,M,-35.766,M,,*5B
$GNGGA,094644.30,3422.50261234,N,10853.91037831,E,1,16,1.1,374.246,M,-35.766,M,,*5A
$GNGGA,094644.40,3422.50247148,N,10853.90988751,E,1,16,1.1,374.263,M,-35.766,M,,*53
$GNGGA,094644.50,3422.50232863,N,10853.90939046,E,1,16,1.1,374.261,M,-35.766,M,,*59
$GNGGA,094644.60,3422.50218807,N,10853.90890067,E,1,15,1.1,374.277,M,-35.766,M,,*55
$GNGGA,094644.70,3422.50204437,N,10853.90840823,E,1,15,1.1,374.275,M,-35.766,M,,*51
$GNGGA,094644.80,3422.50190247,N,10853.90792314,E,1,16,1.1,374.291,M,-35.766,M,,*57
$GNGGA,094644.90,3422.50175697,N,10853.90743568,E,1,16,1.1,374.287,M,-35.766,M,,*52
$GNGGA,094645.00,3422.50161141,N,10853.90695696,E,1,16,1.1,374.306,M,-35.766,M,,*53
$GNGGA,094645.10,3422.50146319,N,10853.90647553,E,1,16,1.1,374.303,M,-35.766,M,,*58
$GNGGA,094645.20,3422.50131308,N,10853.90600464,E,1,16,1.1,374.322,M,-35.766,M,,*5E
$GNGGA,094645.30,3422.50115983,N,10853.90553023,E,1,16,1.1,374.330,M,-35.766,M,,*51
$GNGGA,094645.40,3422.50100462,N,10853.90506866,E,1,16,1.1,374.349,M,-35.766,M,,*57
$GNGGA,094645.50,3422.50084662,N,10853.90460744,E,1,16,1.1,374.352,M,-35.766,M,,*5D
$GNGGA,094645.60,3422.50068734,N,10853.90415956,E,1,16,1.1,374.365,M,-35.766,M,,*55
$GNGGA,094645.70,3422.50052727,N,10853.90371115,E,1,16,1.1,374.368,M,-35.766,M,,*58
$GNGGA,094645.80,3422.50036597,N,10853.90327899,E,1,16,1.1,374.385,M,-35.766,M,,*51
$GNGGA,094645.90,3422.50020306,N,10853.90284332,E,1,16,1.1,374.394,M,-35.766,M,,*5B
$GNGGA,094646.00,3422.50003951,N,10853.90242544,E,1,16,1.1,374.410,M,-35.766,M,,*5E
$GNGGA,094646.10,3422.49987471,N,10853.90200566,E,1,16,1.1,374.397,M,-35.766,M,,*53
$GNGGA,094646.20,3422.49970961,N,10853.90160166,E,1,16,1.1,374.409,M,-35.766,M,,*55
$GNGGA,094646.30,3422.49954251,N,10853.90119388,E,1,16,1.1,374.409,M,-35.766,M,,*56
$GNGGA,094646.40,3422.49937589,N,10853.90080269,E,1,16,1.1,374.426,M,-35.766,M,,*54
$GNGGA,094646.50,3422.49920471,N,10853.90040679,E,1,16,1.1,374.432,M,-35.766,M,,*59
$GNGGA,094646.60,3422.49903332,N,10853.90002524,E,1,16,1.1,374.451,M,-35.766,M,,*53
$GNGGA,094646.70,3422.49886077,N,10853.89963582,E,1,16,1.1,374.473,M,-35.766,M,,*56
$GNGGA,094646.80,3422.49868658,N,10853.89925931,E,1,16,1.1,374.500,M,-35.766,M,,*51
$GNGGA,094646.90,3422.49850930,N,10853.89888339,E,1,16,1.1,374.480,M,-35.766,M,,*57
$GNGGA,094647.00,3422.49833390,N,10853.89851596,E,1,16,1.1,374.496,M,-35.766,M,,*5A
$GNGGA,094647.10,3422.49815803,N,10853.89814238,E,1,16,1.1,374.489,M,-35.766,M,,*52
$GNGGA,094647.20,3422.49798248,N,10853.89778030,E,1,16,1.1,374.496,M,-35.766,M,,*5F
$GNGGA,094647.30,3422.49780821,N,10853.89741208,E,1,16,1.1,374.499,M,-35.766,M,,*5E
$GNGGA,094647.40,3422.49763409,N,10853.89704929,E,1,16,1.1,374.521,M,-35.766,M,,*59
$GNGGA,094647.50,3422.49745881,N,10853.89668514,E,1,16,1.1,374.521,M,-35.766,M,,*59
$GNGGA,094647.60,3422.49728506,N,10853.89632666,E,1,16,1.1,374.539,M,-35.766,M,,*53
$GNGGA,094647.70,3422.49711632,N,10853.89596178,E,1,16,1.1,374.540,M,-35.766,M,,*57
$GNGGA,094647.80,3422.49694762,N,10853.89560221,E,1,16,1.1,374.555,M,-35.766,M,,*52
$GNGGA,094647.90,3422.49678201,N,10853.89523771,E,1,16,1.1,374.548,M,-35.766,M,,*5A
$GNGGA,094648.00,3422.49662122,N,10853.89487462,E,1,16,1.1,374.564,M,-35.766,M,,*55
$GNGGA,094648.10,3422.49646174,N,10853.89451118,E,1,16,1.1,374.541,M,-35.766,M,,*55
$GNGGA,094648.20,3422.49630755,N,10853.89414899,E,1,16,1.1,374.546,M,-35.766,M,,*54
$GNGGA,094648.30,3422.49615299,N,10853.89378505,E,1,16,1.1,374.538,M,-35.766,M,,*5B
$GNGGA,094648.40,3422.49600405,N,10853.89342295,E,1,16,1.1,374.542,M,-35.766,M,,*51
$GNGGA,094648.50,3422.49585459,N,10853.89305752,E,1,16,1.1,374.541,M,-35.766,M,,*59
$GNGGA,094648.60,3422.49571024,N,10853.89269450,E,1,16,1.1,374.556,M,-35.766,M,,*53
$GNGGA,094648.70,3422.49556756,N,10853.89232668,E,1,16,1.1,374.556,M,-35.766,M,,*52
$GNGGA,094648.80,3422.49542935,N,10853.89196062,E,1,16,1.1,374.571,M,-35.766,M,,*57
$GNGGA,094648.90,3422.49528928,N,10853.89159299,E,1,16,1.1,374.575,M,-35.766,M,,*57
$GNGGA,094649.00,3422.49515709,N,10853.89122432,E,1,16,1.1,374.585,M,-35.766,M,,*58
$GNGGA,094649.10,3422.49502540,N,10853.89085012,E,1,16,1.1,374.589,M,-35.766,M,,*56
$GNGGA,094649.20,3422.49489629,N,10853.89047597,E,1,16,1.1,374.603,M,-35.766,M,,*5C
$GNGGA,094649.30,3422.49476770,N,10853.89010179,E,1,16,1.1,374.604,M,-35.766,M,,*51
$GNGGA,094649.40,3422.49464302,N,10853.88972317,E,1,16,1.1,374.615,M,-35.766,M,,*52
$GNGGA,094649.50,3422.49452038,N,10853.88934322,E,1,16,1.1,374.625,M,-35.766,M,,*5B
$GNGGA,094649.60,3422.49440069,N,10853.88896081,E,1,16,1.1,374.637,M,-35.766,M,,*5F
$GNGGA,094649.70,3422.49428125,N,10853.88857712,E,1,16,1.1,374.635,M,-35.766,M,,*5B
$GNGGA,094649.80,3422.49416488,N,10853.88819018,E,1,16,1.1,374.650,M,-35.766,M,,*5F
$GNGGA,094649.90,3422.49404735,N,10853.88780122,E,1,16,1.1,374.650,M,-35.766,M,,*5F
$GNGGA,094650.00,3422.49393264,N,10853.88740905,E,1,15,1.1,374.665,M,-35.766,M,,*52
$GNGGA,094650.10,3422.49381957,N,10853.88701540,E,1,15,1.1,374.664,M,-35.766,M,,*52
$GNGGA,094650.20,3422.49370865,N,10853.88661734,E,1,15,1.1,374.679,M,-35.766,M,,*55
$GNGGA,094650.30,3422.49359918,N,10853.88622001,E,1,15,1.1,374.677,M,-35.766,M,,*5C
$GNGGA,094650.40,3422.49349235,N,10853.88581576,E,1,15,1.1,374.696,M,-35.766,M,,*5E
$GNGGA,094650.50,3422.49338641,N,10853.88541394,E,1,15,1.1,374.706,M,-35.766,M,,*50
$GNGGA,094650.60,3422.49328282,N,10853.88500706,E,1,15,1.1,374.725,M,-35.766,M,,*52
$GNGGA,094650.70,3422.49317831,N,10853.88460119,E,1,15,1.1,374.724,M,-35.766,M,,*53
$GNGGA,094650.80,3422.49307583,N,10853.88419094,E,1,15,1.1,374.740,M,-35.766,M,,*51
$GNGGA,094650.90,3422.49297365,N,10853.88378308,E,1,15,1.1,374.729,M,-35.766,M,,*5F
$GNGGA,094651.00,3422.49287226,N,10853.88337012,E,1,15,1.1,374.741,M,-35.766,M,,*5D
$GNGGA,094651.10,3422.49276878,N,10853.88296233,E,1,15,1.1,374.744,M,-35.766,M,,*5D
$GNGGA,094651.20,3422.49266584,N,10853.88255021,E,1,15,1.1,374.762,M,-35.766,M,,*5B
$GNGGA,094651.30,3422.49256137,N,10853.88214372,E,1,15,1.1,374.761,M,-35.766,M,,*56
$GNGGA,094651.40,3422.49245444,N,10853.88173535,E,1,15,1.1,374.777,M,-35.766,M,,*52
$GNGGA,094651.50,3422.49234734,N,10853.88133086,E,1,15,1.1,374.777,M,-35.766,M,,*58
$GNGGA,094651.60,3422.49223835,N,10853.88092635,E,1,15,1.1,374.793,M,-35.766,M,,*5D
$GNGGA,094651.70,3422.49213190,N,10853.88052609,E,1,15,1.1,374.798,M,-35.766,M,,*51
$GNGGA,094651.80,3422.49202254,N,10853.88012546,E,1,15,1.1,374.821,M,-35.766,M,,*54
$GNGGA,094651.90,3422.49191519,N,10853.87972846,E,1,15,1.1,374.823,M,-35.766,M,,*5D
$GNGGA,094652.00,3422.49180671,N,10853.87933355,E,1,15,1.1,374.843,M,-35.766,M,,*50
$GNGGA,094652.10,3422.49170419,N,10853.87894332,E,1,15,1.1,374.851,M,-35.766,M,,*5C
$GNGGA,094652.20,3422.49160026,N,10853.87855687,E,1,15,1.1,374.871,M,-35.766,M,,*52
$GNGGA,094652.30,3422.49150351,N,10853.87818459,E,1,15,1.1,374.886,M,-35.766,M,,*53
$GNGGA,094652.40,3422.49141064,N,10853.87781830,E,1,15,1.1,374.911,M,-35.766,M,,*52
$GNGGA,094652.50,3422.49132420,N,10853.87746298,E,1,15,1.1,374.920,M,-35.766,M,,*52
$GNGGA,094652.60,3422.49124450,N,10853.87712524,E,1,15,1.1,374.951,M,-35.766,M,,*56
$GNGGA,094652.70,3422.49116666,N,10853.87679313,E,1,15,1.1,374.943,M,-35.766,M,,*5C
$GNGGA,094652.80,3422.49109857,N,10853.87648191,E,1,15,1.1,374.966,M,-35.766,M,,*5C
$GNGGA,094652.90,3422.49103181,N,10853.87617022,E,1,15,1.1,374.966,M,-35.766,M,,*56
$GNGGA,094653.00,3422.49097078,N,10853.87587583,E,1,15,1.1,374.983,M,-35.766,M,,*5A
$GNGGA,094653.10,3422.49090826,N,10853.87558044,E,1,15,1.1,374.980,M,-35.766,M,,*50
$GNGGA,094653.20,3422.49085160,N,10853.87529847,E,1,15,1.1,374.995,M,-35.766,M,,*55
$GNGGA,094653.30,3422.49079426,N,10853.87501265,E,1,15,1.1,374.997,M,-35.766,M,,*52
$GNGGA,094653.40,3422.49074041,N,10853.87473941,E,1,15,1.1,375.015,M,-35.766,M,,*56
$GNGGA,094653.50,3422.49068539,N,10853.87446049,E,1,15,1.1,375.011,M,-35.766,M,,*53
$GNGGA,094653.60,3422.49063190,N,10853.87418883,E,1,15,1.1,375.030,M,-35.766,M,,*5A
$GNGGA,094653.70,3422.49057991,N,10853.87391181,E,1,15,1.1,375.020,M,-35.766,M,,*59
$GNGGA,094653.80,3422.49052812,N,10853.87363868,E,1,15,1.1,375.037,M,-35.766,M,,*5C
$GNGGA,094653.90,3422.49047490,N,10853.87337071,E,1,15,1.1,375.034,M,-35.766,M,,*5D
$GNGGA,094654.00,3422.49042298,N,10853.87310371,E,1,15,1.1,375.047,M,-35.766,M,,*5A
$GNGGA,094654.10,3422.49037023,N,10853.87284623,E,1,15,1.1,375.039,M,-35.766,M,,*5C
$GNGGA,094654.20,3422.49031529,N,10853.87259398,E,1,15,1.1,375.056,M,-35.766,M,,*5A
$GNGGA,094654.30,3422.49025967,N,10853.87235457,E,1,15,1.1,375.057,M,-35.766,M,,*57
$GNGGA,094654.40,3422.49020246,N,10853.87212597,E,1,15,1.1,375.070,M,-35.766,M,,*50
$GNGGA,094654.50,3422.49014753,N,10853.87190519,E,1,15,1.1,375.068,M,-35.766,M,,*51
$GNGGA,094654.60,3422.49009083,N,10853.87170132,E,1,15,1.1,375.084,M,-35.766,M,,*55
$GNGGA,094654.70,3422.49003709,N,10853.87150243,E,1,15,1.1,375.075,M,-35.766,M,,*52
$GNGGA,094654.80,3422.48998387,N,10853.87131877,E,1,15,1.1,375.094,M,-35.766,M,,*50
$GNGGA,094654.90,3422.48992993,N,10853.87113470,E,1,15,1.1,375.089,M,-35.766,M,,*53
$GNGGA,094655.00,3422.48987866,N,10853.87096838,E,1,15,1.1,375.106,M,-35.766,M,,*5E
$GNGGA,094655.10,3422.48982999,N,10853.87080533,E,1,15,1.1,375.109,M,-35.766,M,,*55
$GNGGA,094655.20,3422.48978307,N,10853.87065780,E,1,15,1.1,375.120,M,-35.766,M,,*54
$GNGGA,094655.30,3422.48973951,N,10853.87051415,E,1,15,1.1,375.121,M,-35.766,M,,*5E
$GNGGA,094655.40,3422.48970077,N,10853.87038525,E,1,15,1.1,375.136,M,-35.766,M,,*5C
$GNGGA,094655.50,3422.48966581,N,10853.87026082,E,1,15,1.1,375.137,M,-35.766,M,,*50
$GNGGA,094655.60,3422.48962434,N,10853.87015490,E,1,16,0.9,375.150,M,-35.766,M,,*54
$GNGGA,094655.70,3422.48959376,N,10853.87004617,E,1,16,0.9,375.130,M,-35.766,M,,*57
$GNGGA,094655.80,3422.48955836,N,10853.86995749,E,1,16,0.9,375.132,M,-35.766,M,,*53
$GNGGA,094655.90,3422.48953362,N,10853.86986577,E,1,16,0.9,375.135,M,-35.766,M,,*54
$GNGGA,094656.00,3422.48950391,N,10853.86979139,E,1,16,0.9,375.134,M,-35.766,M,,*5E
$GNGGA,094656.10,3422.48948206,N,10853.86971418,E,1,16,0.9,375.139,M,-35.766,M,,*5A
$GNGGA,094656.20,3422.48945654,N,10853.86965212,E,1,16,0.9,375.141,M,-35.766,M,,*51
$GNGGA,094656.30,3422.48943930,N,10853.86958638,E,1,16,0.9,375.132,M,-35.766,M,,*5D
$GNGGA,094656.40,3422.48941817,N,10853.86953554,E,1,16,0.9,375.136,M,-35.766,M,,*5A
$GNGGA,094656.50,3422.48940462,N,10853.86948488,E,1,16,0.9,375.139,M,-35.766,M,,*51
$GNGGA,094656.60,3422.48938841,N,10853.86944705,E,1,16,0.9,375.139,M,-35.766,M,,*5A
$GNGGA,094656.70,3422.48938027,N,10853.86941400,E,1,16,0.9,375.141,M,-35.766,M,,*5F
$GNGGA,095038.20,3422.44952851,N,10853.70471968,E,1,17,0.9,375.216,M,-35.766,M,,*58
$GNGGA,095038.30,3422.44944938,N,10853.70441484,E,1,17,0.9,375.219,M,-35.766,M,,*53
$GNGGA,095038.40,3422.44936942,N,10853.70410741,E,1,17,0.9,375.225,M,-35.766,M,,*5D
$GNGGA,095038.50,3422.44929388,N,10853.70380107,E,1,17,0.9,375.233,M,-35.766,M,,*53
$GNGGA,095038.60,3422.44921583,N,10853.70349128,E,1,17,0.9,375.237,M,-35.766,M,,*59
$GNGGA,095038.70,3422.44913756,N,10853.70318114,E,1,17,0.9,375.231,M,-35.766,M,,*5E
$GNGGA,095038.80,3422.44906063,N,10853.70287051,E,1,17,0.9,375.239,M,-35.766,M,,*5B
$GNGGA,095038.90,3422.44898325,N,10853.70256284,E,1,17,0.9,375.238,M,-35.766,M,,*5A
$GNGGA,095039.00,3422.44890492,N,10853.70225279,E,1,17,0.9,375.250,M,-35.766,M,,*59
$GNGGA,095039.10,3422.44882623,N,10853.70194036,E,1,17,0.9,375.246,M,-35.766,M,,*54
$GNGGA,095039.20,3422.44874680,N,10853.70162927,E,1,17,0.9,375.248,M,-35.766,M,,*59
$GNGGA,095039.30,3422.44866953,N,10853.70131913,E,1,17,0.9,375.252,M,-35.766,M,,*50
$GNGGA,095039.40,3422.44859114,N,10853.70100745,E,1,17,0.9,375.257,M,-35.766,M,,*5A
$GNGGA,095039.50,3422.44851347,N,10853.70069686,E,1,17,0.9,375.264,M,-35.766,M,,*57
$GNGGA,095039.60,3422.44843558,N,10853.70038623,E,1,17,0.9,375.278,M,-35.766,M,,*59
$GNGGA,095039.70,3422.44836038,N,10853.70007563,E,1,17,0.9,375.284,M,-35.766,M,,*51
$GNGGA,095039.80,3422.44828329,N,10853.69976550,E,1,17,0.9,375.296,M,-35.766,M,,*56
$GNGGA,095039.90,3422.44820457,N,10853.69945202,E,1,17,0.9,375.299,M,-35.766,M,,*5E
$GNGGA,095040.00,3422.44812797,N,10853.69914192,E,1,17,0.9,375.302,M,-35.766,M,,*5A
$GNGGA,095040.10,3422.44805003,N,10853.69883277,E,1,17,0.9,375.306,M,-35.766,M,,*54
$GNGGA,095040.20,3422.44797216,N,10853.69852358,E,1,17,0.9,375.309,M,-35.766,M,,*5A
$GNGGA,095040.30,3422.44789689,N,10853.69821715,E,1,17,0.9,375.309,M,-35.766,M,,*5F
$GNGGA,095040.40,3422.44781933,N,10853.69790947,E,1,17,0.9,375.318,M,-35.766,M,,*52
$GNGGA,095040.50,3422.44774394,N,10853.69760119,E,1,17,0.9,375.314,M,-35.766,M,,*5E
$GNGGA,095040.60,3422.44766797,N,10853.69729712,E,1,17,0.9,375.321,M,-35.766,M,,*5F
$GNGGA,095040.70,3422.44759113,N,10853.69699153,E,1,17,0.9,375.338,M,-35.766,M,,*59
$GNGGA,095040.80,3422.44751608,N,10853.69669216,E,1,17,0.9,375.335,M,-35.766,M,,*53
$GNGGA,095040.90,3422.44744158,N,10853.69639389,E,1,17,0.9,375.314,M,-35.766,M,,*55
$GNGGA,095041.00,3422.44736776,N,10853.69609959,E,1,17,0.9,375.323,M,-35.766,M,,*52
$GNGGA,095041.10,3422.44729741,N,10853.69580978,E,1,17,0.9,375.333,M,-35.766,M,,*59
$GNGGA,095041.20,3422.44722722,N,10853.69552746,E,1,17,0.9,375.348,M,-35.766,M,,*54
$GNGGA,095041.30,3422.44715750,N,10853.69524501,E,1,17,0.9,375.350,M,-35.766,M,,*5D
$GNGGA,095041.40,3422.44708948,N,10853.69497158,E,1,17,0.9,375.355,M,-35.766,M,,*55
$GNGGA,095041.50,3422.44702311,N,10853.69469367,E,1,17,0.9,375.327,M,-35.766,M,,*52
$GNGGA,095041.60,3422.44695325,N,10853.69442367,E,1,17,0.9,375.335,M,-35.766,M,,*53
$GNGGA,095041.70,3422.44688604,N,10853.69416128,E,1,17,0.9,375.349,M,-35.766,M,,*5B
$GNGGA,095041.80,3422.44681490,N,10853.69390086,E,1,17,0.9,375.371,M,-35.766,M,,*55
$GNGGA,095041.90,3422.44675737,N,10853.69363652,E,1,17,0.9,375.351,M,-35.766,M,,*50
$GNGGA,095042.00,3422.44669568,N,10853.69338498,E,1,17,0.9,375.354,M,-35.766,M,,*50
$GNGGA,095042.10,3422.44662774,N,10853.69313931,E,1,17,0.9,375.385,M,-35.766,M,,*5E
$GNGGA,095042.20,3422.44656430,N,10853.69289313,E,1,17,0.9,375.392,M,-35.766,M,,*57
$GNGGA,095042.30,3422.44650310,N,10853.69264909,E,1,17,0.9,375.409,M,-35.766,M,,*52
$GNGGA,095042.40,3422.44643170,N,10853.69240675,E,1,17,0.9,375.420,M,-35.766,M,,*5A
$GNGGA,095042.50,3422.44637167,N,10853.69216531,E,1,17,0.9,375.418,M,-35.766,M,,*55
$GNGGA,095042.60,3422.44631356,N,10853.69193568,E,1,17,0.9,375.416,M,-35.766,M,,*5C
$GNGGA,095042.70,3422.44625647,N,10853.69169486,E,1,17,0.9,375.405,M,-35.766,M,,*5B
$GNGGA,095042.80,3422.44620495,N,10853.69148240,E,1,17,0.9,375.406,M,-35.766,M,,*50
$GNGGA,095042.90,3422.44614636,N,10853.69124194,E,1,17,0.9,375.407,M,-35.766,M,,*5C
$GNGGA,095043.00,3422.44609698,N,10853.69101667,E,1,17,0.9,375.391,M,-35.766,M,,*58
$GNGGA,095043.10,3422.44603838,N,10853.69077434,E,1,17,0.9,375.392,M,-35.766,M,,*50
