$GNGGA,094550.40,3422.51707622,N,10853.95136607,E,1,30,0.6,374.725,M,-35.771,M,,*57
$GNGGA,094550.50,3422.51691160,N,10853.95083403,E,1,30,0.6,374.684,M,-35.771,M,,*5A
$GNGGA,094550.60,3422.51674280,N,10853.95028770,E,1,29,0.6,374.633,M,-35.772,M,,*5E
$GNGGA,094550.70,3422.51657553,N,10853.94973470,E,1,29,0.6,374.638,M,-35.772,M,,*59
$GNGGA,094550.80,3422.51627558,N,10853.94943285,E,1,29,0.6,375.360,M,-35.772,M,,*5C
$GNGGA,094550.90,3422.51610113,N,10853.94887525,E,1,29,0.6,375.367,M,-35.772,M,,*51
$GNGGA,094551.00,3422.51603226,N,10853.94844214,E,1,29,0.6,375.672,M,-35.772,M,,*55
$GNGGA,094551.10,3422.51585892,N,10853.94788795,E,1,29,0.6,375.681,M,-35.772,M,,*53
$GNGGA,094551.20,3422.51560021,N,10853.94698942,E,1,29,0.6,376.606,M,-35.772,M,,*53
$GNGGA,094551.30,3422.51542260,N,10853.94642952,E,1,29,0.6,376.625,M,-35.772,M,,*52
$GNGGA,094551.40,3422.51541933,N,10853.94583691,E,1,27,0.6,375.912,M,-35.772,M,,*53
$GNGGA,094551.50,3422.51524279,N,10853.94526645,E,1,27,0.6,375.915,M,-35.772,M,,*55
$GNGGA,094551.60,3422.51482816,N,10853.94482620,E,1,27,0.6,376.117,M,-35.772,M,,*5D
$GNGGA,094551.70,3422.51465000,N,10853.94425765,E,1,27,0.6,376.122,M,-35.772,M,,*51
$GNGGA,094551.80,3422.51428348,N,10853.94358107,E,1,26,0.6,376.513,M,-35.772,M,,*50
$GNGGA,094551.90,3422.51410679,N,10853.94300741,E,1,26,0.6,376.525,M,-35.772,M,,*51
$GNGGA,094552.00,3422.51410093,N,10853.94250362,E,1,26,0.6,375.772,M,-35.772,M,,*5B
$GNGGA,094552.10,3422.51391678,N,10853.94192761,E,1,26,0.6,375.765,M,-35.772,M,,*5B
$GNGGA,094552.20,3422.51386593,N,10853.94128228,E,1,26,0.6,375.358,M,-35.772,M,,*5B
$GNGGA,094552.30,3422.51368215,N,10853.94069713,E,1,26,0.6,375.368,M,-35.772,M,,*59
$GNGGA,094552.40,3422.51348033,N,10853.94014343,E,1,28,0.6,375.419,M,-35.772,M,,*5E
$GNGGA,094552.50,3422.51329432,N,10853.93956104,E,1,28,0.6,375.415,M,-35.772,M,,*58
$GNGGA,094552.60,3422.51315867,N,10853.93905620,E,1,28,0.6,375.004,M,-35.772,M,,*5B
$GNGGA,094552.70,3422.51297065,N,10853.93846985,E,1,28,0.6,374.997,M,-35.772,M,,*5F
$GNGGA,094552.80,3422.51267962,N,10853.93783259,E,1,28,0.6,375.525,M,-35.772,M,,*59
$GNGGA,094552.90,3422.51248867,N,10853.93724432,E,1,28,0.6,375.528,M,-35.772,M,,*5A
$GNGGA,094553.00,3422.51236032,N,10853.93662412,E,1,29,0.6,375.400,M,-35.772,M,,*58
$GNGGA,094553.10,3422.51216494,N,10853.93603315,E,1,29,0.6,375.404,M,-35.772,M,,*50
$GNGGA,094553.20,3422.51205266,N,10853.93543470,E,1,29,0.6,374.820,M,-35.772,M,,*52
$GNGGA,094553.30,3422.51185758,N,10853.93484208,E,1,29,0.6,374.818,M,-35.772,M,,*58
$GNGGA,094553.40,3422.51137206,N,10853.93446752,E,1,29,0.6,375.825,M,-35.772,M,,*53
$GNGGA,094553.50,3422.51117574,N,10853.93387469,E,1,29,0.6,375.830,M,-35.772,M,,*57
$GNGGA,094553.60,3422.51099710,N,10853.93331905,E,1,30,0.6,375.729,M,-35.772,M,,*56
$GNGGA,094553.70,3422.51080033,N,10853.93271858,E,1,30,0.6,375.726,M,-35.773,M,,*5B
$GNGGA,094553.80,3422.51068540,N,10853.93208399,E,1,30,0.6,375.486,M,-35.773,M,,*52
$GNGGA,094553.90,3422.51048719,N,10853.93148214,E,1,30,0.6,375.489,M,-35.773,M,,*53
$GNGGA,094554.00,3422.51034498,N,10853.93081611,E,1,30,0.6,375.142,M,-35.773,M,,*5B
$GNGGA,094554.10,3422.51014788,N,10853.93021223,E,1,30,0.6,375.152,M,-35.773,M,,*54
$GNGGA,094554.20,3422.50985612,N,10853.92970424,E,1,30,0.6,375.449,M,-35.773,M,,*57
$GNGGA,094554.30,3422.50965591,N,10853.92909660,E,1,30,0.6,375.463,M,-35.773,M,,*54
$GNGGA,094554.40,3422.50971164,N,10853.92824452,E,1,30,0.6,374.506,M,-35.773,M,,*56
$GNGGA,094554.50,3422.50951563,N,10853.92762931,E,1,30,0.6,374.500,M,-35.773,M,,*55
$GNGGA,094554.60,3422.50931839,N,10853.92701602,E,1,30,0.6,374.479,M,-35.773,M,,*57
$GNGGA,094554.70,3422.50911668,N,10853.92640057,E,1,30,0.6,374.480,M,-35.773,M,,*5A
$GNGGA,094554.80,3422.50893521,N,10853.92577375,E,1,30,0.6,374.526,M,-35.773,M,,*59
$GNGGA,094554.90,3422.50873155,N,10853.92515854,E,1,30,0.6,374.526,M,-35.773,M,,*5D
$GNGGA,094555.00,3422.50851407,N,10853.92454987,E,1,30,0.6,374.496,M,-35.773,M,,*56
$GNGGA,094555.10,3422.50830671,N,10853.92393193,E,1,30,0.6,374.498,M,-35.773,M,,*5C
$GNGGA,094555.20,3422.50809885,N,10853.92333655,E,1,30,0.6,374.425,M,-35.773,M,,*51
$GNGGA,094555.30,3422.50788618,N,10853.92271939,E,1,30,0.6,374.433,M,-35.773,M,,*59
$GNGGA,094555.40,3422.50767112,N,10853.92208217,E,1,30,0.6,374.505,M,-35.773,M,,*5F
$GNGGA,094555.50,3422.50745340,N,10853.92146863,E,1,30,0.6,374.493,M,-35.773,M,,*55
$GNGGA,094555.60,3422.50722720,N,10853.92088163,E,1,30,0.6,374.406,M,-35.773,M,,*53
$GNGGA,094555.70,3422.50700381,N,10853.92026790,E,1,30,0.6,374.415,M,-35.773,M,,*51
$GNGGA,094555.80,3422.50676972,N,10853.91965700,E,1,30,0.6,374.413,M,-35.773,M,,*5A
$GNGGA,094555.90,3422.50654173,N,10853.91904595,E,1,30,0.6,374.413,M,-35.773,M,,*5B
$GNGGA,094556.00,3422.50630665,N,10853.91841436,E,1,30,0.6,374.490,M,-35.773,M,,*50
$GNGGA,094556.10,3422.50607407,N,10853.91780595,E,1,30,0.6,374.483,M,-35.773,M,,*5B
$GNGGA,094556.20,3422.50584267,N,10853.91719922,E,1,30,0.6,374.480,M,-35.773,M,,*53
$GNGGA,094556.30,3422.50560377,N,10853.91659084,E,1,30,0.6,374.479,M,-35.773,M,,*5E
$GNGGA,094556.40,3422.50535874,N,10853.91597663,E,1,30,0.6,374.486,M,-35.773,M,,*5F
$GNGGA,094556.50,3422.50511955,N,10853.91537201,E,1,30,0.6,374.489,M,-35.773,M,,*5F
$GNGGA,094556.60,3422.50489095,N,10853.91478837,E,1,30,0.6,374.425,M,-35.773,M,,*5A
$GNGGA,094556.70,3422.50464962,N,10853.91417633,E,1,30,0.6,374.421,M,-35.774,M,,*59
$GNGGA,094556.80,3422.50440171,N,10853.91356897,E,1,30,0.6,374.415,M,-35.774,M,,*5F
$GNGGA,094556.90,3422.50416469,N,10853.91296634,E,1,30,0.6,374.460,M,-35.774,M,,*59
$GNGGA,094557.00,3422.50390321,N,10853.91236226,E,1,30,0.6,374.404,M,-35.774,M,,*5C
$GNGGA,094557.10,3422.50365585,N,10853.91175804,E,1,30,0.6,374.407,M,-35.774,M,,*52
$GNGGA,094557.20,3422.50341279,N,10853.91115692,E,1,30,0.6,374.416,M,-35.774,M,,*54
$GNGGA,094557.30,3422.50316976,N,10853.91054724,E,1,30,0.6,374.409,M,-35.774,M,,*55
$GNGGA,094557.40,3422.50292587,N,10853.90993627,E,1,30,0.6,374.423,M,-35.774,M,,*54
$GNGGA,094557.50,3422.50268145,N,10853.90932465,E,1,30,0.6,374.421,M,-35.774,M,,*57
$GNGGA,094557.60,3422.50245873,N,10853.90871771,E,1,28,0.6,374.342,M,-35.774,M,,*5C
$GNGGA,094557.70,3422.50221404,N,10853.90810352,E,1,28,0.6,374.336,M,-35.774,M,,*52
$GNGGA,094557.80,3422.50196878,N,10853.90749296,E,1,28,0.6,374.333,M,-35.774,M,,*5A
$GNGGA,094557.90,3422.50172205,N,10853.90687949,E,1,28,0.6,374.339,M,-35.774,M,,*51
$GNGGA,094558.00,3422.50148075,N,10853.90626578,E,1,28,0.6,374.337,M,-35.774,M,,*50
$GNGGA,094558.10,3422.50124215,N,10853.90564610,E,1,28,0.6,374.333,M,-35.774,M,,*53
$GNGGA,094558.20,3422.50100261,N,10853.90502556,E,1,28,0.6,374.344,M,-35.774,M,,*54
$GNGGA,094558.30,3422.50076597,N,10853.90440527,E,1,28,0.6,374.344,M,-35.774,M,,*5A
$GNGGA,094558.40,3422.50052976,N,10853.90378519,E,1,28,0.6,374.347,M,-35.774,M,,*5A
$GNGGA,094558.50,3422.50029847,N,10853.90316038,E,1,28,0.6,374.345,M,-35.774,M,,*58
$GNGGA,094558.60,3422.50006635,N,10853.90253810,E,1,28,0.6,374.343,M,-35.774,M,,*59
$GNGGA,094558.70,3422.49983851,N,10853.90190247,E,1,28,0.6,374.349,M,-35.775,M,,*57
$GNGGA,094558.80,3422.49961194,N,10853.90127157,E,1,28,0.6,374.345,M,-35.775,M,,*56
$GNGGA,094558.90,3422.49938815,N,10853.90063873,E,1,28,0.6,374.332,M,-35.775,M,,*55
$GNGGA,094559.00,3422.49916379,N,10853.90000883,E,1,28,0.6,374.323,M,-35.775,M,,*5A
$GNGGA,094559.10,3422.49894760,N,10853.89937164,E,1,28,0.6,374.312,M,-35.775,M,,*5B
$GNGGA,094559.20,3422.49872948,N,10853.89873232,E,1,28,0.6,374.302,M,-35.775,M,,*54
$GNGGA,094559.30,3422.49851537,N,10853.89808969,E,1,28,0.6,374.302,M,-35.775,M,,*59
$GNGGA,094559.40,3422.49830708,N,10853.89744558,E,1,28,0.6,374.302,M,-35.775,M,,*5E
$GNGGA,094559.50,3422.49810377,N,10853.89679740,E,1,28,0.6,374.303,M,-35.775,M,,*54
$GNGGA,094559.60,3422.49790001,N,10853.89614741,E,1,28,0.6,374.296,M,-35.775,M,,*55
$GNGGA,094559.70,3422.49769961,N,10853.89549629,E,1,28,0.6,374.287,M,-35.775,M,,*59
$GNGGA,094559.80,3422.49750079,N,10853.89484228,E,1,28,0.6,374.285,M,-35.775,M,,*5B
$GNGGA,094559.90,3422.49730683,N,10853.89418740,E,1,28,0.6,374.279,M,-35.775,M,,*52
$GNGGA,094600.00,3422.49711391,N,10853.89353235,E,1,28,0.6,374.262,M,-35.775,M,,*54
$GNGGA,094600.10,3422.49692484,N,10853.89287042,E,1,28,0.6,374.252,M,-35.775,M,,*55
$GNGGA,094600.20,3422.49673848,N,10853.89221151,E,1,28,0.6,374.247,M,-35.775,M,,*5E
$GNGGA,094600.30,3422.49655567,N,10853.89154841,E,1,28,0.6,374.243,M,-35.775,M,,*56
$GNGGA,094600.40,3422.49637405,N,10853.89088827,E,1,28,0.6,374.231,M,-35.775,M,,*55
$GNGGA,094600.50,3422.49619537,N,10853.89022670,E,1,28,0.6,374.232,M,-35.775,M,,*57
$GNGGA,094600.60,3422.49602173,N,10853.88956318,E,1,28,0.6,374.229,M,-35.775,M,,*50
$GNGGA,094600.70,3422.49585200,N,10853.88889902,E,1,28,0.6,374.223,M,-35.775,M,,*52
$GNGGA,094600.80,3422.49568716,N,10853.88823575,E,1,28,0.6,374.218,M,-35.775,M,,*58
$GNGGA,094600.90,3422.49552207,N,10853.88756954,E,1,28,0.6,374.217,M,-35.775,M,,*58
$GNGGA,094601.00,3422.49536055,N,10853.88690984,E,1,28,0.6,374.200,M,-35.775,M,,*57
$GNGGA,094601.10,3422.49519866,N,10853.88625421,E,1,28,0.6,374.199,M,-35.775,M,,*5C
$GNGGA,094601.20,3422.49503720,N,10853.88560004,E,1,28,0.6,374.190,M,-35.775,M,,*51
$GNGGA,094601.30,3422.49487399,N,10853.88494535,E,1,28,0.6,374.188,M,-35.775,M,,*5F
$GNGGA,094601.40,3422.49471283,N,10853.88429595,E,1,28,0.6,374.169,M,-35.776,M,,*5B
$GNGGA,094601.50,3422.49455439,N,10853.88364643,E,1,28,0.6,374.167,M,-35.776,M,,*53
$GNGGA,094601.60,3422.49439688,N,10853.88301150,E,1,28,0.6,374.165,M,-35.776,M,,*56
$GNGGA,094601.70,3422.49423896,N,10853.88238189,E,1,28,0.6,374.160,M,-35.776,M,,*57
$GNGGA,094601.80,3422.49408236,N,10853.88176080,E,1,28,0.6,374.144,M,-35.776,M,,*56
$GNGGA,094601.90,3422.49392757,N,10853.88114668,E,1,28,0.6,374.145,M,-35.776,M,,*54
$GNGGA,094602.00,3422.49377321,N,10853.88054103,E,1,28,0.6,374.132,M,-35.776,M,,*5F
$GNGGA,094602.10,3422.49362044,N,10853.87994149,E,1,28,0.6,374.124,M,-35.776,M,,*59
$GNGGA,094602.20,3422.49346987,N,10853.87935142,E,1,28,0.6,374.121,M,-35.776,M,,*5F
$GNGGA,094602.30,3422.49332124,N,10853.87877047,E,1,28,0.6,374.118,M,-35.776,M,,*55
$GNGGA,094602.40,3422.49317563,N,10853.87819748,E,1,28,0.6,374.113,M,-35.776,M,,*59
$GNGGA,094602.50,3422.49303068,N,10853.87763150,E,1,28,0.6,374.109,M,-35.776,M,,*55
$GNGGA,094602.60,3422.49288658,N,10853.87707264,E,1,28,0.6,374.106,M,-35.776,M,,*58
$GNGGA,094602.70,3422.49274323,N,10853.87651822,E,1,28,0.6,374.098,M,-35.776,M,,*5F
$GNGGA,094602.80,3422.49260393,N,10853.87597498,E,1,28,0.6,374.095,M,-35.776,M,,*57
$GNGGA,094602.90,3422.49246586,N,10853.87544130,E,1,28,0.6,374.113,M,-35.776,M,,*56
$GNGGA,094603.00,3422.49233006,N,10853.87491274,E,1,28,0.6,374.098,M,-35.776,M,,*59
$GNGGA,094603.10,3422.49219338,N,10853.87439379,E,1,28,0.6,374.100,M,-35.776,M,,*50
$GNGGA,094603.20,3422.49206114,N,10853.87386884,E,1,28,0.6,374.047,M,-35.776,M,,*59
$GNGGA,094603.30,3422.49192874,N,10853.87336370,E,1,28,0.6,374.041,M,-35.776,M,,*54
$GNGGA,094603.40,3422.49187789,N,10853.87265811,E,1,28,0.6,373.162,M,-35.776,M,,*56
$GNGGA,094603.50,3422.49174932,N,10853.87216783,E,1,28,0.6,373.160,M,-35.776,M,,*57
$GNGGA,094603.60,3422.49161788,N,10853.87169391,E,1,28,0.6,373.187,M,-35.776,M,,*5A
$GNGGA,094603.70,3422.49149237,N,10853.87122062,E,1,28,0.6,373.175,M,-35.776,M,,*5D
$GNGGA,094603.80,3422.49140144,N,10853.87067270,E,1,28,0.6,372.819,M,-35.776,M,,*5F
$GNGGA,094603.90,3422.49128136,N,10853.87021709,E,1,28,0.6,372.818,M,-35.776,M,,*5D
$GNGGA,094604.00,3422.49116217,N,10853.86977056,E,1,28,0.6,372.831,M,-35.776,M,,*53
$GNGGA,094604.10,3422.49104761,N,10853.86932938,E,1,28,0.6,372.822,M,-35.776,M,,*57
$GNGGA,094604.20,3422.49093671,N,10853.86889855,E,1,28,0.6,372.817,M,-35.776,M,,*56
$GNGGA,094604.30,3422.49082677,N,10853.86847879,E,1,28,0.6,372.815,M,-35.776,M,,*5F
$GNGGA,094604.40,3422.49070754,N,10853.86806887,E,1,30,0.6,372.873,M,-35.776,M,,*58
$GNGGA,094604.50,3422.49060542,N,10853.86766704,E,1,30,0.6,372.881,M,-35.776,M,,*5D
$GNGGA,094604.60,3422.49051096,N,10853.86727885,E,1,30,0.6,372.906,M,-35.776,M,,*5D
$GNGGA,094604.70,3422.49041522,N,10853.86688858,E,1,30,0.6,372.894,M,-35.776,M,,*59
$GNGGA,094604.80,3422.49032060,N,10853.86650799,E,1,30,0.6,372.914,M,-35.776,M,,*5F
$GNGGA,094604.90,3422.49022903,N,10853.86613160,E,1,30,0.6,372.924,M,-35.777,M,,*56
$GNGGA,094605.00,3422.49013784,N,10853.86576748,E,1,30,0.6,372.953,M,-35.777,M,,*51
$GNGGA,094605.10,3422.49005396,N,10853.86540888,E,1,30,0.6,372.952,M,-35.777,M,,*57
$GNGGA,094605.20,3422.48990475,N,10853.86523396,E,1,30,0.6,373.671,M,-35.777,M,,*54
$GNGGA,094605.30,3422.48982438,N,10853.86488991,E,1,30,0.6,373.654,M,-35.777,M,,*55
$GNGGA,094605.40,3422.48976766,N,10853.86449664,E,1,30,0.6,373.415,M,-35.777,M,,*5E
$GNGGA,094605.50,3422.48968705,N,10853.86417767,E,1,30,0.6,373.413,M,-35.777,M,,*5A
$GNGGA,094605.60,3422.48963055,N,10853.86381312,E,1,30,0.6,373.206,M,-35.777,M,,*5C
$GNGGA,094605.70,3422.48955349,N,10853.86351493,E,1,30,0.6,373.198,M,-35.777,M,,*51
$GNGGA,094605.80,3422.48946948,N,10853.86324189,E,1,30,0.6,373.274,M,-35.777,M,,*5A
$GNGGA,094605.90,3422.48939416,N,10853.86296411,E,1,30,0.6,373.276,M,-35.777,M,,*5B
$GNGGA,094606.00,3422.48933995,N,10853.86263868,E,1,30,0.6,373.074,M,-35.777,M,,*55
$GNGGA,094606.10,3422.48926884,N,10853.86238302,E,1,30,0.6,373.080,M,-35.777,M,,*53
$GNGGA,094606.20,3422.48919883,N,10853.86213437,E,1,30,0.6,373.056,M,-35.777,M,,*58
$GNGGA,094606.30,3422.48913391,N,10853.86189796,E,1,30,0.6,373.054,M,-35.777,M,,*51
$GNGGA,094606.40,3422.48906220,N,10853.86169907,E,1,30,0.6,373.167,M,-35.777,M,,*50
$GNGGA,094606.50,3422.48900556,N,10853.86148346,E,1,30,0.6,373.172,M,-35.777,M,,*59
$GNGGA,094606.60,3422.48893133,N,10853.86134103,E,1,30,0.6,373.404,M,-35.777,M,,*5A
$GNGGA,094606.70,3422.48888387,N,10853.86114678,E,1,30,0.6,373.411,M,-35.777,M,,*51
$GNGGA,094606.80,3422.48884014,N,10853.86094917,E,1,30,0.6,373.392,M,-35.777,M,,*58
$GNGGA,094606.90,3422.48879792,N,10853.86077421,E,1,30,0.6,373.387,M,-35.777,M,,*53
$GNGGA,094607.00,3422.48874029,N,10853.86066703,E,1,30,0.6,373.609,M,-35.777,M,,*51
$GNGGA,094607.10,3422.48870605,N,10853.86051408,E,1,30,0.6,373.600,M,-35.777,M,,*59
$GNGGA,094607.20,3422.48870735,N,10853.86028653,E,1,30,0.6,373.235,M,-35.777,M,,*58
$GNGGA,094607.30,3422.48867845,N,10853.86016022,E,1,30,0.6,373.235,M,-35.777,M,,*5A
$GNGGA,094607.40,3422.48866339,N,10853.86002541,E,1,30,0.6,373.131,M,-35.777,M,,*5E
$GNGGA,094607.50,3422.48863588,N,10853.85992522,E,1,30,0.6,373.131,M,-35.777,M,,*50
$GNGGA,094607.60,3422.48860767,N,10853.85987292,E,1,30,0.6,373.245,M,-35.777,M,,*5B
$GNGGA,094607.70,3422.48858778,N,10853.85980254,E,1,30,0.6,373.245,M,-35.777,M,,*52
$GNGGA,094607.80,3422.48852555,N,10853.85984778,E,1,30,0.6,373.719,M,-35.777,M,,*59
$GNGGA,094607.90,3422.48851606,N,10853.85980482,E,1,30,0.6,373.719,M,-35.777,M,,*5C
$GNGGA,094608.00,3422.48850102,N,10853.85977715,E,1,30,0.6,373.760,M,-35.777,M,,*53
$GNGGA,094608.10,3422.48849867,N,10853.85976467,E,1,30,0.6,373.754,M,-35.777,M,,*50
$GNGGA,094608.20,3422.48847301,N,10853.85984007,E,1,30,0.6,374.078,M,-35.777,M,,*57
$GNGGA,094608.30,3422.48847585,N,10853.85984802,E,1,30,0.6,374.075,M,-35.777,M,,*5C
$GNGGA,094608.40,3422.48847776,N,10853.85985172,E,1,30,0.6,374.049,M,-35.777,M,,*55
$GNGGA,094608.50,3422.48847535,N,10853.85984821,E,1,30,0.6,374.058,M,-35.777,M,,*5F
$GNGGA,094608.60,3422.48847236,N,10853.85983994,E,1,30,0.6,374.055,M,-35.777,M,,*5D
$GNGGA,094608.70,3422.48846971,N,10853.85983987,E,1,30,0.6,374.070,M,-35.777,M,,*50
$GNGGA,094608.80,3422.48846356,N,10853.85983795,E,1,30,0.6,374.093,M,-35.777,M,,*50
$GNGGA,094608.90,3422.48846217,N,10853.85983689,E,1,30,0.6,374.100,M,-35.777,M,,*52
$GNGGA,094609.00,3422.48846812,N,10853.85984054,E,1,30,0.6,374.117,M,-35.777,M,,*52
$GNGGA,094609.10,3422.48846689,N,10853.85983946,E,1,30,0.6,374.126,M,-35.777,M,,*50
$GNGGA,094609.20,3422.48846585,N,10853.85983842,E,1,30,0.6,374.125,M,-35.777,M,,*5A
$GNGGA,094609.30,3422.48846666,N,10853.85983967,E,1,30,0.6,374.120,M,-35.777,M,,*56
$GNGGA,094609.40,3422.48846512,N,10853.85983792,E,1,30,0.6,374.128,M,-35.777,M,,*5D
$GNGGA,094609.50,3422.48846610,N,10853.85983736,E,1,30,0.6,374.123,M,-35.777,M,,*58
$GNGGA,094609.60,3422.48846411,N,10853.85983872,E,1,30,0.6,374.138,M,-35.777,M,,*5D
$GNGGA,094609.70,3422.48846337,N,10853.85983693,E,1,30,0.6,374.136,M,-35.777,M,,*50
$GNGGA,094609.80,3422.48846426,N,10853.85983762,E,1,30,0.6,374.144,M,-35.777,M,,*52
$GNGGA,094609.90,3422.48846383,N,10853.85983809,E,1,30,0.6,374.142,M,-35.777,M,,*5F
$GNGGA,094610.00,3422.48846282,N,10853.85983835,E,1,30,0.6,374.153,M,-35.777,M,,*51
$GNGGA,094610.10,3422.48846278,N,10853.85983818,E,1,30,0.6,374.157,M,-35.777,M,,*5E
$GNGGA,094610.20,3422.48846124,N,10853.85983752,E,1,30,0.6,374.164,M,-35.777,M,,*56
$GNGGA,094610.30,3422.48846065,N,10853.85983798,E,1,30,0.6,374.164,M,-35.777,M,,*55
$GNGGA,094610.40,3422.48846023,N,10853.85983737,E,1,30,0.6,374.171,M,-35.777,M,,*51
$GNGGA,094610.50,3422.48846041,N,10853.85983671,E,1,30,0.6,374.173,M,-35.777,M,,*55
$GNGGA,094610.60,3422.48845892,N,10853.85983591,E,1,30,0.6,374.175,M,-35.777,M,,*58
$GNGGA,094610.70,3422.48845838,N,10853.85983450,E,1,30,0.6,374.176,M,-35.777,M,,*56
$GNGGA,094610.80,3422.48845858,N,10853.85983466,E,1,30,0.6,374.178,M,-35.777,M,,*54
$GNGGA,094610.90,3422.48845894,N,10853.85983320,E,1,30,0.6,374.179,M,-35.777,M,,*51
$GNGGA,094611.00,3422.48845927,N,10853.85983241,E,1,30,0.6,374.175,M,-35.777,M,,*5A
$GNGGA,094611.10,3422.48845905,N,10853.85983161,E,1,30,0.6,374.175,M,-35.777,M,,*5A
$GNGGA,094611.20,3422.48845768,N,10853.85982975,E,1,30,0.6,374.177,M,-35.777,M,,*52
$GNGGA,094611.30,3422.48845874,N,10853.85983001,E,1,30,0.6,374.176,M,-35.777,M,,*5B
$GNGGA,094611.40,3422.48845871,N,10853.85982913,E,1,30,0.6,374.176,M,-35.777,M,,*52
$GNGGA,094611.50,3422.48845847,N,10853.85982852,E,1,30,0.6,374.175,M,-35.777,M,,*51
$GNGGA,094611.60,3422.48845665,N,10853.85982966,E,1,30,0.6,374.185,M,-35.777,M,,*55
$GNGGA,094611.70,3422.48845767,N,10853.85982980,E,1,30,0.6,374.184,M,-35.777,M,,*5E
$GNGGA,094611.80,3422.48845594,N,10853.85982862,E,1,30,0.6,374.196,M,-35.777,M,,*51
$GNGGA,094611.90,3422.48845609,N,10853.85982885,E,1,30,0.6,374.193,M,-35.777,M,,*5B
$GNGGA,094612.00,3422.48845633,N,10853.85982940,E,1,30,0.6,374.199,M,-35.777,M,,*5A
$GNGGA,094612.10,3422.48845609,N,10853.85982822,E,1,30,0.6,374.200,M,-35.777,M,,*54
$GNGGA,094612.20,3422.48845539,N,10853.85982886,E,1,30,0.6,374.203,M,-35.777,M,,*5A
$GNGGA,094612.30,3422.48845698,N,10853.85982856,E,1,30,0.6,374.205,M,-35.777,M,,*58
$GNGGA,094612.40,3422.48845605,N,10853.85982818,E,1,30,0.6,374.218,M,-35.777,M,,*5D
$GNGGA,094612.50,3422.48845661,N,10853.85982735,E,1,30,0.6,374.213,M,-35.777,M,,*55
$GNGGA,094612.60,3422.48845508,N,10853.85982704,E,1,30,0.6,374.224,M,-35.777,M,,*5C
$GNGGA,094612.70,3422.48845531,N,10853.85982645,E,1,30,0.6,374.227,M,-35.777,M,,*50
$GNGGA,094612.80,3422.48845519,N,10853.85982534,E,1,30,0.6,374.234,M,-35.777,M,,*52
$GNGGA,094612.90,3422.48845482,N,10853.85982518,E,1,30,0.6,374.237,M,-35.777,M,,*5D
$GNGGA,094613.00,3422.48845474,N,10853.85982362,E,1,30,0.6,374.245,M,-35.777,M,,*52
$GNGGA,094613.10,3422.48845372,N,10853.85982371,E,1,30,0.6,374.246,M,-35.777,M,,*53
$GNGGA,094613.20,3422.48845341,N,10853.85982412,E,1,30,0.6,374.252,M,-35.777,M,,*57
$GNGGA,094613.30,3422.48845364,N,10853.85982413,E,1,30,0.6,374.248,M,-35.777,M,,*5B
$GNGGA,094613.40,3422.48845314,N,10853.85982353,E,1,30,0.6,374.259,M,-35.777,M,,*58
$GNGGA,094613.50,3422.48845265,N,10853.85982327,E,1,30,0.6,374.260,M,-35.777,M,,*57
$GNGGA,094613.60,3422.48845244,N,10853.85982331,E,1,30,0.6,374.262,M,-35.777,M,,*52
$GNGGA,094613.70,3422.48845373,N,10853.85982288,E,1,30,0.6,374.260,M,-35.777,M,,*57
$GNGGA,094613.80,3422.48845222,N,10853.85982316,E,1,30,0.6,374.264,M,-35.777,M,,*5F
$GNGGA,094613.90,3422.48845301,N,10853.85982263,E,1,30,0.6,374.271,M,-35.777,M,,*59
$GNGGA,094614.00,3422.48845189,N,10853.85982288,E,1,30,0.6,374.268,M,-35.777,M,,*58
$GNGGA,094614.10,3422.48845387,N,10853.85982195,E,1,30,0.6,374.268,M,-35.777,M,,*5A
$GNGGA,094614.20,3422.48845271,N,10853.85982053,E,1,30,0.6,374.272,M,-35.777,M,,*51
$GNGGA,094614.30,3422.48845342,N,10853.85982020,E,1,30,0.6,374.268,M,-35.777,M,,*5E
$GNGGA,094614.40,3422.48845398,N,10853.85982033,E,1,30,0.6,374.273,M,-35.777,M,,*56
$GNGGA,094614.50,3422.48845394,N,10853.85982052,E,1,30,0.6,374.273,M,-35.777,M,,*5C
$GNGGA,094614.60,3422.48845367,N,10853.85981950,E,1,30,0.6,374.272,M,-35.777,M,,*5A
$GNGGA,094614.70,3422.48845325,N,10853.85981986,E,1,30,0.6,374.279,M,-35.777,M,,*5D
$GNGGA,094614.80,3422.48845302,N,10853.85981991,E,1,30,0.6,374.284,M,-35.777,M,,*53
$GNGGA,094614.90,3422.48845382,N,10853.85981908,E,1,30,0.6,374.283,M,-35.777,M,,*5D
$GNGGA,094615.00,3422.48845385,N,10853.85981934,E,1,30,0.6,374.278,M,-35.777,M,,*59
$GNGGA,094615.10,3422.48845336,N,10853.85981843,E,1,30,0.6,374.281,M,-35.777,M,,*57
$GNGGA,094615.20,3422.48845349,N,10853.85981924,E,1,30,0.6,374.284,M,-35.777,M,,*59
$GNGGA,094615.30,3422.48845391,N,10853.85981662,E,1,30,0.6,374.281,M,-35.777,M,,*55
$GNGGA,094615.40,3422.48845244,N,10853.85981726,E,1,30,0.6,374.291,M,-35.777,M,,*5B
$GNGGA,094615.50,3422.48845250,N,10853.85981598,E,1,30,0.6,374.297,M,-35.777,M,,*5E
$GNGGA,094615.60,3422.48845423,N,10853.85981500,E,1,30,0.6,374.285,M,-35.777,M,,*5D
$GNGGA,094615.70,3422.48845364,N,10853.85981469,E,1,30,0.6,374.287,M,-35.777,M,,*54
$GNGGA,094615.80,3422.48845476,N,10853.85981463,E,1,30,0.6,374.280,M,-35.777,M,,*52
$GNGGA,094615.90,3422.48845598,N,10853.85981368,E,1,30,0.6,374.280,M,-35.777,M,,*5E
$GNGGA,094616.00,3422.48845661,N,10853.85981090,E,1,30,0.6,374.279,M,-35.777,M,,*53
$GNGGA,094616.10,3422.48845615,N,10853.85981094,E,1,30,0.6,374.277,M,-35.777,M,,*5B
$GNGGA,094616.20,3422.48845654,N,10853.85980999,E,1,30,0.6,374.271,M,-35.777,M,,*5E
$GNGGA,094616.30,3422.48845691,N,10853.85981104,E,1,30,0.6,374.272,M,-35.777,M,,*58
$GNGGA,094616.40,3422.48845970,N,10853.85981066,E,1,30,0.6,374.261,M,-35.777,M,,*58
$GNGGA,094616.50,3422.48845898,N,10853.85980978,E,1,30,0.6,374.257,M,-35.777,M,,*5C
$GNGGA,094616.60,3422.48845900,N,10853.85980945,E,1,30,0.6,374.262,M,-35.777,M,,*57
$GNGGA,094616.70,3422.48845881,N,10853.85980967,E,1,30,0.6,374.260,M,-35.777,M,,*5C
$GNGGA,094616.80,3422.48846131,N,10853.85980923,E,1,30,0.6,374.252,M,-35.777,M,,*53
$GNGGA,094616.90,3422.48846150,N,10853.85980914,E,1,30,0.6,374.252,M,-35.777,M,,*51
$GNGGA,094617.00,3422.48846135,N,10853.85980960,E,1,30,0.6,374.247,M,-35.777,M,,*5D
$GNGGA,094617.10,3422.48846162,N,10853.85981065,E,1,30,0.6,374.248,M,-35.777,M,,*5C
$GNGGA,094617.20,3422.48846255,N,10853.85980891,E,1,30,0.6,374.242,M,-35.777,M,,*50
$GNGGA,094617.30,3422.48846284,N,10853.85980725,E,1,30,0.6,374.242,M,-35.777,M,,*5D
$GNGGA,094617.40,3422.48846331,N,10853.85980768,E,1,30,0.6,374.242,M,-35.777,M,,*5C
$GNGGA,094617.50,3422.48846358,N,10853.85980771,E,1,30,0.6,374.239,M,-35.777,M,,*56
$GNGGA,094617.60,3422.48846355,N,10853.85980871,E,1,30,0.6,374.240,M,-35.777,M,,*59
$GNGGA,094617.70,3422.48846407,N,10853.85980859,E,1,30,0.6,374.239,M,-35.777,M,,*5C
$GNGGA,094617.80,3422.48846390,N,10853.85980776,E,1,30,0.6,374.234,M,-35.777,M,,*55
$GNGGA,094617.90,3422.48846362,N,10853.85980810,E,1,30,0.6,374.243,M,-35.777,M,,*56
$GNGGA,094618.00,3422.48846409,N,10853.85980661,E,1,30,0.6,374.234,M,-35.777,M,,*52
$GNGGA,094618.10,3422.48846486,N,10853.85980718,E,1,30,0.6,374.235,M,-35.777,M,,*5A
$GNGGA,094618.20,3422.48846479,N,10853.85980702,E,1,30,0.6,374.233,M,-35.777,M,,*54
$GNGGA,094618.30,3422.48846519,N,10853.85980664,E,1,30,0.6,374.234,M,-35.777,M,,*54
$GNGGA,094618.40,3422.48846521,N,10853.85980700,E,1,30,0.6,374.232,M,-35.777,M,,*5D
$GNGGA,094618.50,3422.48846540,N,10853.85980580,E,1,30,0.6,374.228,M,-35.777,M,,*5A
$GNGGA,094618.60,3422.48846567,N,10853.85980605,E,1,30,0.6,374.222,M,-35.777,M,,*58
$GNGGA,094618.70,3422.48846558,N,10853.85980600,E,1,30,0.6,374.225,M,-35.777,M,,*57
$GNGGA,094618.80,3422.48846688,N,10853.85980568,E,1,30,0.6,374.225,M,-35.777,M,,*5B
$GNGGA,094618.90,3422.48846706,N,10853.85980600,E,1,30,0.6,374.223,M,-35.777,M,,*56
$GNGGA,094619.00,3422.48846695,N,10853.85980503,E,1,30,0.6,374.222,M,-35.777,M,,*54
$GNGGA,094619.10,3422.48846673,N,10853.85980512,E,1,30,0.6,374.222,M,-35.777,M,,*5D
$GNGGA,094619.20,3422.48846692,N,10853.85980419,E,1,30,0.6,374.222,M,-35.777,M,,*5B
$GNGGA,094619.30,3422.48846769,N,10853.85980551,E,1,30,0.6,374.221,M,-35.777,M,,*51
$GNGGA,094619.40,3422.48846747,N,10853.85980422,E,1,30,0.6,374.220,M,-35.777,M,,*5E
$GNGGA,094619.50,3422.48846769,N,10853.85980472,E,1,30,0.6,374.221,M,-35.777,M,,*57
$GNGGA,094619.60,3422.48846802,N,10853.85980326,E,1,30,0.6,374.216,M,-35.777,M,,*54
$GNGGA,094619.70,3422.48846798,N,10853.85980491,E,1,30,0.6,374.221,M,-35.777,M,,*56
$GNGGA,094619.80,3422.48846842,N,10853.85980370,E,1,30,0.6,374.216,M,-35.777,M,,*5D
$GNGGA,094619.90,3422.48846845,N,10853.85980274,E,1,30,0.6,374.217,M,-35.777,M,,*5F
$GNGGA,094620.00,3422.48846848,N,10853.85980296,E,1,30,0.6,374.215,M,-35.777,M,,*5F
$GNGGA,094620.10,3422.48846829,N,10853.85980112,E,1,30,0.6,374.217,M,-35.777,M,,*54
$GNGGA,094620.20,3422.48846928,N,10853.85980182,E,1,30,0.6,374.216,M,-35.777,M,,*5F
$GNGGA,094620.30,3422.48846941,N,10853.85980126,E,1,30,0.6,374.213,M,-35.777,M,,*5A
$GNGGA,094620.40,3422.48846894,N,10853.85980141,E,1,30,0.6,374.211,M,-35.777,M,,*57
$GNGGA,094620.50,3422.48846975,N,10853.85980201,E,1,30,0.6,374.215,M,-35.777,M,,*5B
$GNGGA,094620.60,3422.48846940,N,10853.85980127,E,1,30,0.6,374.212,M,-35.777,M,,*5E
$GNGGA,094620.70,3422.48847098,N,10853.85980027,E,1,30,0.6,374.206,M,-35.777,M,,*56
$GNGGA,094620.80,3422.48847136,N,10853.85980132,E,1,30,0.6,374.213,M,-35.777,M,,*5D
$GNGGA,094620.90,3422.48847130,N,10853.85980090,E,1,30,0.6,374.212,M,-35.777,M,,*52
$GNGGA,094621.00,3422.48847186,N,10853.85979951,E,1,30,0.6,374.209,M,-35.777,M,,*5F
$GNGGA,094621.10,3422.48847146,N,10853.85980007,E,1,30,0.6,374.203,M,-35.777,M,,*54
$GNGGA,094621.20,3422.48847240,N,10853.85980142,E,1,30,0.6,374.202,M,-35.777,M,,*53
$GNGGA,094621.30,3422.48847166,N,10853.85979974,E,1,30,0.6,374.205,M,-35.777,M,,*59
$GNGGA,094621.40,3422.48847305,N,10853.85979889,E,1,30,0.6,374.199,M,-35.777,M,,*5C
$GNGGA,094621.50,3422.48847268,N,10853.85980027,E,1,30,0.6,374.200,M,-35.777,M,,*5E
$GNGGA,094621.60,3422.48847321,N,10853.85979865,E,1,30,0.6,374.196,M,-35.777,M,,*55
$GNGGA,094621.70,3422.48847266,N,10853.85979858,E,1,30,0.6,374.195,M,-35.777,M,,*5B
$GNGGA,094621.80,3422.48847383,N,10853.85979786,E,1,30,0.6,374.189,M,-35.777,M,,*5F
$GNGGA,094621.90,3422.48847329,N,10853.85979801,E,1,30,0.6,374.192,M,-35.777,M,,*54
$GNGGA,094622.00,3422.48847318,N,10853.85979589,E,1,30,0.6,374.189,M,-35.777,M,,*5B
$GNGGA,094622.10,3422.48847446,N,10853.85979781,E,1,30,0.6,374.189,M,-35.777,M,,*5C
$GNGGA,094622.20,3422.48847469,N,10853.85979543,E,1,30,0.6,374.186,M,-35.777,M,,*51
$GNGGA,094622.30,3422.48847442,N,10853.85979637,E,1,30,0.6,374.187,M,-35.777,M,,*58
$GNGGA,094622.40,3422.48847379,N,10853.85979403,E,1,30,0.6,374.181,M,-35.777,M,,*53
$GNGGA,094622.50,3422.48847505,N,10853.85979370,E,1,30,0.6,374.182,M,-35.777,M,,*5F
$GNGGA,094622.60,3422.48851859,N,10853.85967322,E,1,30,0.6,373.697,M,-35.777,M,,*53
$GNGGA,094622.70,3422.48851882,N,10853.85967236,E,1,30,0.6,373.699,M,-35.777,M,,*5E
$GNGGA,094622.80,3422.48847556,N,10853.85979098,E,1,30,0.6,374.182,M,-35.777,M,,*51
$GNGGA,094622.90,3422.48847567,N,10853.85979135,E,1,30,0.6,374.183,M,-35.777,M,,*55
$GNGGA,094623.00,3422.48852142,N,10853.85966641,E,1,30,0.6,373.677,M,-35.777,M,,*5B
$GNGGA,094623.10,3422.48852097,N,10853.85966548,E,1,30,0.6,373.678,M,-35.777,M,,*56
$GNGGA,094623.20,3422.48851748,N,10853.85967746,E,1,30,0.6,373.729,M,-35.777,M,,*5B
$GNGGA,094623.30,3422.48851696,N,10853.85967680,E,1,30,0.6,373.723,M,-35.777,M,,*59
$GNGGA,094623.40,3422.48851863,N,10853.85967089,E,1,30,0.6,373.701,M,-35.777,M,,*55
$GNGGA,094623.50,3422.48851958,N,10853.85966914,E,1,30,0.6,373.702,M,-35.777,M,,*52
$GNGGA,094623.60,3422.48851966,N,10853.85966928,E,1,30,0.6,373.700,M,-35.777,M,,*51
$GNGGA,094623.70,3422.48851937,N,10853.85967086,E,1,30,0.6,373.701,M,-35.777,M,,*59
$GNGGA,094623.80,3422.48852908,N,10853.85964277,E,1,30,0.6,373.597,M,-35.777,M,,*5B
$GNGGA,094623.90,3422.48852915,N,10853.85964422,E,1,30,0.6,373.599,M,-35.777,M,,*5E
$GNGGA,094624.00,3422.48852925,N,10853.85964337,E,1,30,0.6,373.592,M,-35.777,M,,*5B
$GNGGA,094624.10,3422.48852871,N,10853.85964237,E,1,30,0.6,373.596,M,-35.777,M,,*5F
$GNGGA,094624.20,3422.48852437,N,10853.85965691,E,1,30,0.6,373.652,M,-35.777,M,,*50
$GNGGA,094624.30,3422.48852289,N,10853.85965615,E,1,30,0.6,373.656,M,-35.777,M,,*5A
$GNGGA,094624.40,3422.48852604,N,10853.85965073,E,1,30,0.6,373.632,M,-35.777,M,,*58
$GNGGA,094624.50,3422.48852553,N,10853.85965129,E,1,30,0.6,373.633,M,-35.777,M,,*57
$GNGGA,094624.60,3422.48852477,N,10853.85965515,E,1,30,0.6,373.652,M,-35.777,M,,*5F
$GNGGA,094624.70,3422.48852447,N,10853.85965493,E,1,30,0.6,373.654,M,-35.777,M,,*54
$GNGGA,094624.80,3422.48852609,N,10853.85964863,E,1,30,0.6,373.638,M,-35.777,M,,*5B
$GNGGA,094624.90,3422.48852698,N,10853.85964917,E,1,30,0.6,373.631,M,-35.777,M,,*59
$GNGGA,094625.00,3422.48847722,N,10853.85978220,E,1,30,0.6,374.167,M,-35.777,M,,*54
$GNGGA,094625.10,3422.48847744,N,10853.85978124,E,1,30,0.6,374.164,M,-35.777,M,,*51
$GNGGA,094625.20,3422.48847736,N,10853.85978038,E,1,30,0.6,374.172,M,-35.777,M,,*5C
$GNGGA,094625.30,3422.48847777,N,10853.85978209,E,1,30,0.6,374.172,M,-35.777,M,,*58
$GNGGA,094625.40,3422.48852413,N,10853.85965234,E,1,30,0.6,373.662,M,-35.777,M,,*59
$GNGGA,094625.50,3422.48852459,N,10853.85965319,E,1,30,0.6,373.662,M,-35.777,M,,*58
$GNGGA,094625.60,3422.48852197,N,10853.85965857,E,1,30,0.6,373.686,M,-35.777,M,,*57
$GNGGA,094625.70,3422.48852238,N,10853.85965834,E,1,30,0.6,373.690,M,-35.777,M,,*52
$GNGGA,094625.80,3422.48852472,N,10853.85965399,E,1,30,0.6,373.665,M,-35.777,M,,*53
$GNGGA,094625.90,3422.48852462,N,10853.85965382,E,1,30,0.6,373.668,M,-35.777,M,,*54
$GNGGA,094626.00,3422.48852276,N,10853.85965779,E,1,30,0.6,373.689,M,-35.777,M,,*52
$GNGGA,094626.10,3422.48852276,N,10853.85965788,E,1,30,0.6,373.687,M,-35.777,M,,*53
$GNGGA,094626.20,3422.48847725,N,10853.85977993,E,1,30,0.6,374.182,M,-35.777,M,,*55
$GNGGA,094626.30,3422.48847829,N,10853.85978029,E,1,30,0.6,374.180,M,-35.777,M,,*52
$GNGGA,094626.40,3422.48852193,N,10853.85965781,E,1,30,0.6,373.696,M,-35.777,M,,*57
$GNGGA,094626.50,3422.48852260,N,10853.85965690,E,1,30,0.6,373.692,M,-35.777,M,,*5C
$GNGGA,094626.60,3422.48851748,N,10853.85966908,E,1,30,0.6,373.750,M,-35.777,M,,*51
$GNGGA,094626.70,3422.48851726,N,10853.85967038,E,1,30,0.6,373.747,M,-35.777,M,,*55
$GNGGA,094626.80,3422.48852026,N,10853.85966297,E,1,30,0.6,373.732,M,-35.777,M,,*5A
$GNGGA,094626.90,3422.48852037,N,10853.85966256,E,1,30,0.6,373.727,M,-35.777,M,,*52
$GNGGA,094627.00,3422.48851735,N,10853.85966940,E,1,30,0.6,373.751,M,-35.777,M,,*51
$GNGGA,094627.10,3422.48851688,N,10853.85966885,E,1,30,0.6,373.755,M,-35.777,M,,*5B
$GNGGA,094627.20,3422.48852145,N,10853.85965614,E,1,30,0.6,373.712,M,-35.777,M,,*5B
$GNGGA,094627.30,3422.48852184,N,10853.85965677,E,1,30,0.6,373.708,M,-35.777,M,,*59
$GNGGA,094627.40,3422.48852390,N,10853.85965000,E,1,30,0.6,373.690,M,-35.777,M,,*5F
$GNGGA,094627.50,3422.48852367,N,10853.85965041,E,1,30,0.6,373.690,M,-35.777,M,,*53
$GNGGA,094627.60,3422.48852509,N,10853.85964889,E,1,30,0.6,373.693,M,-35.777,M,,*50
$GNGGA,094627.70,3422.48852369,N,10853.85964957,E,1,30,0.6,373.694,M,-35.777,M,,*54
$GNGGA,094627.80,3422.48851736,N,10853.85966635,E,1,30,0.6,373.766,M,-35.777,M,,*53
$GNGGA,094627.90,3422.48851773,N,10853.85966605,E,1,30,0.6,373.761,M,-35.777,M,,*57
$GNGGA,094628.00,3422.48848152,N,10853.85977681,E,1,30,0.6,374.197,M,-35.777,M,,*58
$GNGGA,094628.10,3422.48848066,N,10853.85977719,E,1,30,0.6,374.196,M,-35.777,M,,*5E
$GNGGA,094628.20,3422.48848002,N,10853.85977752,E,1,30,0.6,374.200,M,-35.777,M,,*5C
$GNGGA,094628.30,3422.48848097,N,10853.85977626,E,1,30,0.6,374.199,M,-35.777,M,,*50
$GNGGA,094628.40,3422.48848029,N,10853.85977708,E,1,30,0.6,374.205,M,-35.777,M,,*59
$GNGGA,094628.50,3422.48847996,N,10853.85977705,E,1,30,0.6,374.203,M,-35.777,M,,*51
$GNGGA,094628.60,3422.48847976,N,10853.85977609,E,1,30,0.6,374.207,M,-35.777,M,,*55
$GNGGA,094628.70,3422.48847940,N,10853.85977765,E,1,30,0.6,374.210,M,-35.777,M,,*5C
$GNGGA,094628.80,3422.48847977,N,10853.85977717,E,1,30,0.6,374.216,M,-35.777,M,,*54
$GNGGA,094628.90,3422.48847984,N,10853.85977636,E,1,30,0.6,374.216,M,-35.777,M,,*5B
$GNGGA,094629.00,3422.48847970,N,10853.85977699,E,1,30,0.6,374.220,M,-35.777,M,,*58
$GNGGA,094629.10,3422.48847907,N,10853.85977551,E,1,30,0.6,374.222,M,-35.777,M,,*5C
$GNGGA,094629.20,3422.48847809,N,10853.85977586,E,1,30,0.6,374.223,M,-35.777,M,,*5B
$GNGGA,094629.30,3422.48847977,N,10853.85977540,E,1,30,0.6,374.219,M,-35.777,M,,*51
$GNGGA,094629.40,3422.48847887,N,10853.85977538,E,1,30,0.6,374.230,M,-35.777,M,,*5C
$GNGGA,094629.50,3422.48847828,N,10853.85977443,E,1,30,0.6,374.227,M,-35.777,M,,*53
$GNGGA,094629.60,3422.48847862,N,10853.85977447,E,1,30,0.6,374.225,M,-35.777,M,,*58
$GNGGA,094629.70,3422.48847899,N,10853.85977402,E,1,30,0.6,374.230,M,-35.777,M,,*58
$GNGGA,094629.80,3422.48847932,N,10853.85977294,E,1,30,0.6,374.226,M,-35.777,M,,*59
$GNGGA,094629.90,3422.48847913,N,10853.85977338,E,1,30,0.6,374.227,M,-35.777,M,,*5D
$GNGGA,094630.00,3422.48847934,N,10853.85977186,E,1,30,0.6,374.227,M,-35.777,M,,*5E
$GNGGA,094630.10,3422.48847849,N,10853.85977180,E,1,30,0.6,374.233,M,-35.777,M,,*57
$GNGGA,094630.20,3422.48847754,N,10853.85977072,E,1,30,0.6,374.233,M,-35.777,M,,*5B
$GNGGA,094630.30,3422.48847940,N,10853.85977157,E,1,30,0.6,374.228,M,-35.777,M,,*5D
$GNGGA,094630.40,3422.48847793,N,10853.85976928,E,1,30,0.6,374.239,M,-35.777,M,,*5B
$GNGGA,094630.50,3422.48847689,N,10853.85976945,E,1,30,0.6,374.236,M,-35.777,M,,*54
$GNGGA,094630.60,3422.48847732,N,10853.85976972,E,1,30,0.6,374.239,M,-35.777,M,,*5D
$GNGGA,094630.70,3422.48847687,N,10853.85976840,E,1,30,0.6,374.242,M,-35.777,M,,*5F
$GNGGA,094630.80,3422.48847718,N,10853.85976773,E,1,30,0.6,374.242,M,-35.777,M,,*58
$GNGGA,094630.90,3422.48847672,N,10853.85976962,E,1,30,0.6,374.243,M,-35.777,M,,*5B
$GNGGA,094631.00,3422.48847806,N,10853.85976782,E,1,30,0.6,374.249,M,-35.777,M,,*54
$GNGGA,094631.10,3422.48847672,N,10853.85976926,E,1,30,0.6,374.250,M,-35.777,M,,*50
$GNGGA,094631.20,3422.48847663,N,10853.85976745,E,1,30,0.6,374.250,M,-35.777,M,,*58
$GNGGA,094631.30,3422.48847613,N,10853.85976795,E,1,30,0.6,374.257,M,-35.777,M,,*54
$GNGGA,094631.40,3422.48847592,N,10853.85976903,E,1,30,0.6,374.263,M,-35.777,M,,*5F
$GNGGA,094631.50,3422.48847589,N,10853.85976780,E,1,30,0.6,374.260,M,-35.777,M,,*52
$GNGGA,094631.60,3422.48847504,N,10853.85976800,E,1,30,0.6,374.268,M,-35.777,M,,*5B
$GNGGA,094631.70,3422.48847564,N,10853.85976920,E,1,30,0.6,374.263,M,-35.777,M,,*54
$GNGGA,094631.80,3422.48847472,N,10853.85976857,E,1,30,0.6,374.266,M,-35.777,M,,*59
$GNGGA,094631.90,3422.48847532,N,10853.85976847,E,1,30,0.6,374.267,M,-35.777,M,,*5D
$GNGGA,094632.00,3422.48847528,N,10853.85976844,E,1,30,0.6,374.269,M,-35.777,M,,*51
$GNGGA,094632.10,3422.48847444,N,10853.85976810,E,1,30,0.6,374.269,M,-35.777,M,,*5A
$GNGGA,094632.20,3422.48847486,N,10853.85976824,E,1,30,0.6,374.270,M,-35.777,M,,*58
$GNGGA,094632.30,3422.48847510,N,10853.85976751,E,1,30,0.6,374.274,M,-35.777,M,,*5E
$GNGGA,094632.40,3422.48847441,N,10853.85976788,E,1,30,0.6,374.280,M,-35.777,M,,*53
$GNGGA,094632.50,3422.48847455,N,10853.85976752,E,1,30,0.6,374.274,M,-35.777,M,,*5B
$GNGGA,094632.60,3422.48847558,N,10853.85976792,E,1,30,0.6,374.272,M,-35.777,M,,*5E
$GNGGA,094632.70,3422.48847270,N,10853.85976819,E,1,30,0.6,374.283,M,-35.777,M,,*50
$GNGGA,094632.80,3422.48847393,N,10853.85976702,E,1,30,0.6,374.281,M,-35.777,M,,*54
$GNGGA,094632.90,3422.48847396,N,10853.85976812,E,1,30,0.6,374.279,M,-35.777,M,,*59
$GNGGA,094633.00,3422.48847370,N,10853.85976771,E,1,30,0.6,374.284,M,-35.777,M,,*51
$GNGGA,094633.10,3422.48847319,N,10853.85976726,E,1,30,0.6,374.281,M,-35.777,M,,*58
$GNGGA,094633.20,3422.48847334,N,10853.85976670,E,1,30,0.6,374.280,M,-35.777,M,,*57
$GNGGA,094633.30,3422.48847346,N,10853.85976604,E,1,30,0.6,374.286,M,-35.777,M,,*56
$GNGGA,094633.40,3422.48847142,N,10853.85976394,E,1,30,0.6,374.289,M,-35.777,M,,*54
$GNGGA,094633.50,3422.48847199,N,10853.85976338,E,1,30,0.6,374.288,M,-35.777,M,,*54
$GNGGA,094633.60,3422.48847249,N,10853.85976343,E,1,30,0.6,374.291,M,-35.777,M,,*5D
$GNGGA,094633.70,3422.48847090,N,10853.85976290,E,1,30,0.6,374.288,M,-35.777,M,,*5D
$GNGGA,094633.80,3422.48847153,N,10853.85976325,E,1,30,0.6,374.293,M,-35.777,M,,*59
$GNGGA,094633.90,3422.48847105,N,10853.85976298,E,1,30,0.6,374.292,M,-35.777,M,,*5D
$GNGGA,094634.00,3422.48847104,N,10853.85976284,E,1,30,0.6,374.295,M,-35.777,M,,*58
$GNGGA,094634.10,3422.48847161,N,10853.85976264,E,1,30,0.6,374.293,M,-35.777,M,,*52
$GNGGA,094634.20,3422.48847077,N,10853.85976183,E,1,30,0.6,374.293,M,-35.777,M,,*5D
$GNGGA,094634.30,3422.48847047,N,10853.85976312,E,1,30,0.6,374.298,M,-35.777,M,,*5E
$GNGGA,094634.40,3422.48847021,N,10853.85976308,E,1,30,0.6,374.296,M,-35.777,M,,*5C
$GNGGA,094634.50,3422.48847038,N,10853.85976166,E,1,30,0.6,374.294,M,-35.777,M,,*5D
$GNGGA,094634.60,3422.48847075,N,10853.85976220,E,1,30,0.6,374.300,M,-35.777,M,,*5A
$GNGGA,094634.70,3422.48847060,N,10853.85976265,E,1,30,0.6,374.300,M,-35.777,M,,*5E
$GNGGA,094634.80,3422.48846949,N,10853.85976196,E,1,30,0.6,374.301,M,-35.777,M,,*5C
$GNGGA,094634.90,3422.48847048,N,10853.85976229,E,1,30,0.6,374.298,M,-35.777,M,,*52
$GNGGA,094635.00,3422.48846909,N,10853.85976233,E,1,30,0.6,374.311,M,-35.777,M,,*5C
$GNGGA,094635.10,3422.48846978,N,10853.85976174,E,1,30,0.6,374.307,M,-35.777,M,,*5C
$GNGGA,094635.20,3422.48847009,N,10853.85976173,E,1,30,0.6,374.311,M,-35.777,M,,*51
$GNGGA,094635.30,3422.48846955,N,10853.85976189,E,1,30,0.6,374.309,M,-35.777,M,,*5D
$GNGGA,094635.40,3422.48846877,N,10853.85976382,E,1,30,0.6,374.313,M,-35.777,M,,*59
$GNGGA,094635.50,3422.48846896,N,10853.85976109,E,1,30,0.6,374.310,M,-35.777,M,,*55
$GNGGA,094635.60,3422.48846949,N,10853.85976241,E,1,30,0.6,374.318,M,-35.777,M,,*52
$GNGGA,094635.70,3422.48846885,N,10853.85976223,E,1,30,0.6,374.315,M,-35.777,M,,*5B
$GNGGA,094635.80,3422.48846808,N,10853.85976285,E,1,30,0.6,374.319,M,-35.777,M,,*51
$GNGGA,094635.90,3422.48846829,N,10853.85976258,E,1,30,0.6,374.319,M,-35.777,M,,*53
$GNGGA,094636.00,3422.48846757,N,10853.85976204,E,1,30,0.6,374.319,M,-35.777,M,,*56
$GNGGA,094636.10,3422.48846791,N,10853.85976215,E,1,30,0.6,374.319,M,-35.777,M,,*5D
$GNGGA,094636.20,3422.48846736,N,10853.85976234,E,1,30,0.6,374.322,M,-35.777,M,,*58
$GNGGA,094636.30,3422.48846744,N,10853.85976078,E,1,30,0.6,374.322,M,-35.777,M,,*56
$GNGGA,094636.40,3422.48846710,N,10853.85976118,E,1,30,0.6,374.321,M,-35.777,M,,*54
$GNGGA,094636.50,3422.48846802,N,10853.85976171,E,1,30,0.6,374.321,M,-35.777,M,,*56
$GNGGA,094636.60,3422.48846746,N,10853.85976187,E,1,30,0.6,374.322,M,-35.777,M,,*50
$GNGGA,094636.70,3422.48846642,N,10853.85976073,E,1,30,0.6,374.322,M,-35.777,M,,*5E
$GNGGA,094636.80,3422.48846919,N,10853.85976329,E,1,30,0.6,374.313,M,-35.777,M,,*5E
$GNGGA,094636.90,3422.48846914,N,10853.85976203,E,1,30,0.6,374.307,M,-35.777,M,,*5E
$GNGGA,094637.00,3422.48847073,N,10853.85976276,E,1,30,0.6,374.304,M,-35.777,M,,*5E
$GNGGA,094637.10,3422.48846983,N,10853.85976290,E,1,30,0.6,374.306,M,-35.777,M,,*52
$GNGGA,094637.20,3422.48846986,N,10853.85976315,E,1,30,0.6,374.305,M,-35.777,M,,*5B
$GNGGA,094637.30,3422.48847120,N,10853.85976273,E,1,30,0.6,374.302,M,-35.777,M,,*59
$GNGGA,094637.40,3422.48847141,N,10853.85976320,E,1,30,0.6,374.291,M,-35.777,M,,*55
$GNGGA,094637.50,3422.48847188,N,10853.85976376,E,1,30,0.6,374.293,M,-35.777,M,,*50
$GNGGA,094637.60,3422.48847415,N,10853.85976422,E,1,30,0.6,374.281,M,-35.777,M,,*57
$GNGGA,094637.70,3422.48847419,N,10853.85976505,E,1,30,0.6,374.281,M,-35.777,M,,*5E
$GNGGA,094637.80,3422.48847247,N,10853.85976300,E,1,30,0.6,374.292,M,-35.777,M,,*5D
$GNGGA,094637.90,3422.48847283,N,10853.85976393,E,1,30,0.6,374.287,M,-35.777,M,,*5A
$GNGGA,094638.00,3422.48847121,N,10853.85976273,E,1,30,0.6,374.303,M,-35.777,M,,*55
$GNGGA,094638.10,3422.48847205,N,10853.85976407,E,1,30,0.6,374.302,M,-35.777,M,,*55
$GNGGA,094638.20,3422.48847182,N,10853.85976516,E,1,30,0.6,374.295,M,-35.777,M,,*54
$GNGGA,094638.30,3422.48847175,N,10853.85976567,E,1,30,0.6,374.305,M,-35.777,M,,*53
$GNGGA,094638.40,3422.48847231,N,10853.85976763,E,1,30,0.6,374.298,M,-35.777,M,,*54
$GNGGA,094638.50,3422.48847286,N,10853.85976534,E,1,30,0.6,374.292,M,-35.777,M,,*53
$GNGGA,094638.60,3422.48847113,N,10853.85976652,E,1,30,0.6,374.307,M,-35.777,M,,*51
$GNGGA,094638.70,3422.48847109,N,10853.85976538,E,1,30,0.6,374.307,M,-35.777,M,,*54
$GNGGA,094638.80,3422.48847102,N,10853.85976611,E,1,30,0.6,374.307,M,-35.777,M,,*58
$GNGGA,094638.90,3422.48847047,N,10853.85976550,E,1,30,0.6,374.307,M,-35.777,M,,*5F
$GNGGA,094639.00,3422.48846971,N,10853.85976573,E,1,30,0.6,374.315,M,-35.777,M,,*58
$GNGGA,094639.10,3422.48846978,N,10853.85976505,E,1,30,0.6,374.315,M,-35.777,M,,*51
$GNGGA,094639.20,3422.48846985,N,10853.85976643,E,1,30,0.6,374.317,M,-35.777,M,,*53
$GNGGA,094639.30,3422.48846998,N,10853.85976584,E,1,30,0.6,374.315,M,-35.777,M,,*54
$GNGGA,094639.40,3422.48847139,N,10853.85976862,E,1,30,0.6,374.309,M,-35.777,M,,*59
$GNGGA,094639.50,3422.48847121,N,10853.85976810,E,1,30,0.6,374.305,M,-35.777,M,,*58
$GNGGA,094639.60,3422.48847323,N,10853.85977053,E,1,30,0.6,374.293,M,-35.777,M,,*5B
$GNGGA,094639.70,3422.48847318,N,10853.85977020,E,1,30,0.6,374.294,M,-35.777,M,,*51
$GNGGA,094639.80,3422.48847048,N,10853.85976895,E,1,30,0.6,374.312,M,-35.777,M,,*50
$GNGGA,094639.90,3422.48847034,N,10853.85976832,E,1,30,0.6,374.312,M,-35.777,M,,*57
$GNGGA,094640.00,3422.48846937,N,10853.85977006,E,1,30,0.6,374.321,M,-35.777,M,,*55
$GNGGA,094640.10,3422.48846940,N,10853.85976960,E,1,30,0.6,374.319,M,-35.777,M,,*57
$GNGGA,094640.20,3422.48846966,N,10853.85976974,E,1,30,0.6,374.320,M,-35.777,M,,*5F
$GNGGA,094640.30,3422.48846912,N,10853.85977061,E,1,30,0.6,374.318,M,-35.777,M,,*5A
$GNGGA,094640.40,3422.48846811,N,10853.85977103,E,1,30,0.6,374.329,M,-35.777,M,,*58
$GNGGA,094640.50,3422.48846705,N,10853.85976923,E,1,30,0.6,374.329,M,-35.777,M,,*58
$GNGGA,094640.60,3422.48846827,N,10853.85977172,E,1,30,0.6,374.330,M,-35.777,M,,*51
$GNGGA,094640.70,3422.48846879,N,10853.85977079,E,1,30,0.6,374.321,M,-35.777,M,,*51
$GNGGA,094640.80,3422.48846755,N,10853.85977181,E,1,30,0.6,374.333,M,-35.777,M,,*5A
$GNGGA,094640.90,3422.48846723,N,10853.85977175,E,1,30,0.6,374.332,M,-35.777,M,,*50
$GNGGA,094641.00,3422.48846708,N,10853.85977250,E,1,30,0.6,374.333,M,-35.777,M,,*54
$GNGGA,094641.10,3422.48846805,N,10853.85977137,E,1,30,0.6,374.333,M,-35.777,M,,*55
$GNGGA,094641.20,3422.48846742,N,10853.85977265,E,1,30,0.6,374.334,M,-35.777,M,,*59
$GNGGA,094641.30,3422.48846723,N,10853.85977265,E,1,30,0.6,374.338,M,-35.777,M,,*53
$GNGGA,094641.40,3422.48846654,N,10853.85977314,E,1,30,0.6,374.344,M,-35.777,M,,*59
$GNGGA,094641.50,3422.48846686,N,10853.85977263,E,1,30,0.6,374.346,M,-35.777,M,,*54
$GNGGA,094641.60,3422.48846581,N,10853.85977361,E,1,30,0.6,374.347,M,-35.777,M,,*51
$GNGGA,094641.70,3422.48846645,N,10853.85977333,E,1,30,0.6,374.347,M,-35.777,M,,*5C
$GNGGA,094641.80,3422.48846530,N,10853.85977375,E,1,30,0.6,374.352,M,-35.777,M,,*54
$GNGGA,094641.90,3422.48846579,N,10853.85977339,E,1,30,0.6,374.353,M,-35.777,M,,*51
$GNGGA,094642.00,3422.48846588,N,10853.85977511,E,1,30,0.6,374.359,M,-35.777,M,,*53
$GNGGA,094642.10,3422.48846571,N,10853.85977421,E,1,30,0.6,374.357,M,-35.777,M,,*58
$GNGGA,094642.20,3422.48846480,N,10853.85977506,E,1,30,0.6,374.360,M,-35.777,M,,*54
$GNGGA,094642.30,3422.48846571,N,10853.85977609,E,1,30,0.6,374.359,M,-35.777,M,,*5C
$GNGGA,094642.40,3422.48846544,N,10853.85977576,E,1,30,0.6,374.357,M,-35.777,M,,*58
$GNGGA,094642.50,3422.48846653,N,10853.85977590,E,1,30,0.6,374.362,M,-35.777,M,,*52
$GNGGA,094642.60,3422.48846504,N,10853.85977567,E,1,30,0.6,374.361,M,-35.777,M,,*5B
$GNGGA,094642.70,3422.48846568,N,10853.85977571,E,1,30,0.6,374.360,M,-35.777,M,,*56
$GNGGA,094642.80,3422.48846620,N,10853.85977597,E,1,30,0.6,374.360,M,-35.777,M,,*5E
$GNGGA,094642.90,3422.48846578,N,10853.85977549,E,1,30,0.6,374.363,M,-35.777,M,,*51
$GNGGA,094643.00,3422.48846507,N,10853.85977642,E,1,30,0.6,374.368,M,-35.777,M,,*52
$GNGGA,094643.10,3422.48846594,N,10853.85977604,E,1,30,0.6,374.368,M,-35.777,M,,*5B
$GNGGA,094643.20,3422.48846443,N,10853.85977566,E,1,30,0.6,374.372,M,-35.777,M,,*5F
$GNGGA,094643.30,3422.48846404,N,10853.85977621,E,1,30,0.6,374.373,M,-35.777,M,,*5C
$GNGGA,094643.40,3422.48846401,N,10853.85977643,E,1,30,0.6,374.374,M,-35.777,M,,*5D
$GNGGA,094643.50,3422.48846468,N,10853.85977623,E,1,30,0.6,374.378,M,-35.777,M,,*59
$GNGGA,094643.60,3422.48846356,N,10853.85977711,E,1,30,0.6,374.379,M,-35.777,M,,*51
$GNGGA,094643.70,3422.48846392,N,10853.85977691,E,1,30,0.6,374.377,M,-35.777,M,,*5F
$GNGGA,094643.80,3422.48846411,N,10853.85977810,E,1,30,0.6,374.373,M,-35.777,M,,*5F
$GNGGA,094643.90,3422.48846493,N,10853.85977842,E,1,30,0.6,374.372,M,-35.777,M,,*52
$GNGGA,094644.00,3422.48846397,N,10853.85977911,E,1,30,0.6,374.381,M,-35.777,M,,*54
$GNGGA,094644.10,3422.48846359,N,10853.85977848,E,1,30,0.6,374.379,M,-35.777,M,,*5D
$GNGGA,094644.20,3422.48846395,N,10853.85977808,E,1,30,0.6,374.383,M,-35.777,M,,*5F
$GNGGA,094644.30,3422.48846432,N,10853.85977901,E,1,30,0.6,374.384,M,-35.777,M,,*5B
$GNGGA,094644.40,3422.48846301,N,10853.85977832,E,1,30,0.6,374.389,M,-35.777,M,,*57
$GNGGA,094644.50,3422.48846303,N,10853.85977968,E,1,30,0.6,374.392,M,-35.777,M,,*50
$GNGGA,094644.60,3422.48846240,N,10853.85977879,E,1,30,0.6,374.395,M,-35.777,M,,*53
$GNGGA,094644.70,3422.48846267,N,10853.85977848,E,1,30,0.6,374.395,M,-35.777,M,,*55
$GNGGA,094644.80,3422.48846290,N,10853.85977949,E,1,30,0.6,374.398,M,-35.777,M,,*5F
$GNGGA,094644.90,3422.48846246,N,10853.85978051,E,1,30,0.6,374.395,M,-35.777,M,,*57
$GNGGA,094645.00,3422.48846304,N,10853.85978110,E,1,30,0.6,374.400,M,-35.777,M,,*57
$GNGGA,094645.10,3422.48846268,N,10853.85978064,E,1,30,0.6,374.399,M,-35.777,M,,*58
$GNGGA,094645.20,3422.48846254,N,10853.85978035,E,1,30,0.6,374.402,M,-35.777,M,,*55
$GNGGA,094645.30,3422.48846333,N,10853.85978144,E,1,30,0.6,374.396,M,-35.777,M,,*59
$GNGGA,094645.40,3422.48846221,N,10853.85978134,E,1,30,0.6,374.410,M,-35.777,M,,*52
$GNGGA,094645.50,3422.48846241,N,10853.85978193,E,1,30,0.6,374.407,M,-35.777,M,,*5E
$GNGGA,094645.60,3422.48846122,N,10853.85978130,E,1,30,0.6,374.410,M,-35.777,M,,*54
$GNGGA,094645.70,3422.48846208,N,10853.85978169,E,1,30,0.6,374.415,M,-35.777,M,,*57
$GNGGA,094645.80,3422.48846152,N,10853.85978272,E,1,30,0.6,374.418,M,-35.777,M,,*50
$GNGGA,094645.90,3422.48846119,N,10853.85978214,E,1,30,0.6,374.418,M,-35.777,M,,*5E
$GNGGA,094646.00,3422.48845886,N,10853.85977761,E,1,30,0.6,374.415,M,-35.777,M,,*5D
$GNGGA,094646.10,3422.48845854,N,10853.85977758,E,1,30,0.6,374.416,M,-35.777,M,,*5A
$GNGGA,094646.20,3422.48845782,N,10853.85977696,E,1,30,0.6,374.428,M,-35.777,M,,*53
$GNGGA,094646.30,3422.48845785,N,10853.85977762,E,1,30,0.6,374.424,M,-35.777,M,,*53
$GNGGA,094646.40,3422.48845573,N,10853.85977659,E,1,30,0.6,374.439,M,-35.777,M,,*5A
$GNGGA,094646.50,3422.48845609,N,10853.85977693,E,1,30,0.6,374.434,M,-35.777,M,,*5E
$GNGGA,094646.60,3422.48845602,N,10853.85977701,E,1,30,0.6,374.436,M,-35.777,M,,*5E
$GNGGA,094646.70,3422.48845669,N,10853.85977738,E,1,30,0.6,374.433,M,-35.777,M,,*5D
$GNGGA,094646.80,3422.48845592,N,10853.85977637,E,1,30,0.6,374.439,M,-35.777,M,,*51
$GNGGA,094646.90,3422.48845579,N,10853.85977608,E,1,30,0.6,374.440,M,-35.777,M,,*57
$GNGGA,094647.00,3422.48845578,N,10853.85977710,E,1,30,0.6,374.443,M,-35.777,M,,*55
$GNGGA,094647.10,3422.48845520,N,10853.85977729,E,1,30,0.6,374.443,M,-35.777,M,,*53
$GNGGA,094647.20,3422.48845548,N,10853.85977629,E,1,30,0.6,374.446,M,-35.777,M,,*5A
$GNGGA,094647.30,3422.48845571,N,10853.85977667,E,1,30,0.6,374.446,M,-35.777,M,,*5B
$GNGGA,094647.40,3422.48845445,N,10853.85977684,E,1,30,0.6,374.448,M,-35.777,M,,*59
$GNGGA,094647.50,3422.48845479,N,10853.85977615,E,1,30,0.6,374.451,M,-35.777,M,,*57
$GNGGA,094647.60,3422.48845394,N,10853.85977748,E,1,30,0.6,374.456,M,-35.777,M,,*5E
$GNGGA,094647.70,3422.48845435,N,10853.85977765,E,1,30,0.6,374.450,M,-35.777,M,,*5A
$GNGGA,094647.80,3422.48845401,N,10853.85977698,E,1,30,0.6,374.456,M,-35.777,M,,*57
$GNGGA,094647.90,3422.48845382,N,10853.85977742,E,1,30,0.6,374.454,M,-35.777,M,,*5E
$GNGGA,094648.00,3422.48845413,N,10853.85977766,E,1,30,0.6,374.457,M,-35.777,M,,*52
$GNGGA,094648.10,3422.48845327,N,10853.85977797,E,1,30,0.6,374.461,M,-35.777,M,,*58
$GNGGA,094648.20,3422.48845302,N,10853.85977785,E,1,30,0.6,374.463,M,-35.777,M,,*5D
$GNGGA,094648.30,3422.48845340,N,10853.85977818,E,1,30,0.6,374.462,M,-35.777,M,,*50
$GNGGA,094648.40,3422.48845408,N,10853.85977876,E,1,30,0.6,374.462,M,-35.777,M,,*54
$GNGGA,094648.50,3422.48845373,N,10853.85977912,E,1,30,0.6,374.463,M,-35.777,M,,*5C
$GNGGA,094648.60,3422.48845301,N,10853.85977733,E,1,30,0.6,374.469,M,-35.777,M,,*5D
$GNGGA,094648.70,3422.48845436,N,10853.85977853,E,1,30,0.6,374.464,M,-35.777,M,,*5B
$GNGGA,094648.80,3422.48845300,N,10853.85977817,E,1,30,0.6,374.469,M,-35.777,M,,*5B
$GNGGA,094648.90,3422.48845255,N,10853.85977741,E,1,30,0.6,374.469,M,-35.777,M,,*57
$GNGGA,094649.00,3422.48845257,N,10853.85977655,E,1,30,0.6,374.474,M,-35.777,M,,*55
$GNGGA,094649.10,3422.48845324,N,10853.85977648,E,1,30,0.6,374.471,M,-35.777,M,,*58
$GNGGA,094649.20,3422.48845229,N,10853.85977534,E,1,30,0.6,374.480,M,-35.777,M,,*51
$GNGGA,094649.30,3422.48845184,N,10853.85977565,E,1,30,0.6,374.479,M,-35.777,M,,*56
$GNGGA,094649.40,3422.48845206,N,10853.85977657,E,1,30,0.6,374.481,M,-35.777,M,,*5D
$GNGGA,094649.50,3422.48845166,N,10853.85977635,E,1,30,0.6,374.480,M,-35.777,M,,*5C
$GNGGA,094649.60,3422.48846158,N,10853.85978347,E,1,30,0.6,374.417,M,-35.777,M,,*50
$GNGGA,094649.70,3422.48846085,N,10853.85978292,E,1,30,0.6,374.417,M,-35.777,M,,*59
$GNGGA,094649.80,3422.48846098,N,10853.85978261,E,1,30,0.6,374.419,M,-35.777,M,,*58
$GNGGA,094649.90,3422.48846031,N,10853.85978227,E,1,30,0.6,374.424,M,-35.777,M,,*56
$GNGGA,094650.00,3422.48846047,N,10853.85978327,E,1,30,0.6,374.426,M,-35.777,M,,*55
$GNGGA,094650.10,3422.48846089,N,10853.85978435,E,1,30,0.6,374.419,M,-35.777,M,,*5E
$GNGGA,094650.20,3422.48845946,N,10853.85978365,E,1,30,0.6,374.428,M,-35.777,M,,*54
$GNGGA,094650.30,3422.48846069,N,10853.85978435,E,1,30,0.6,374.422,M,-35.777,M,,*5A
$GNGGA,094650.40,3422.48845986,N,10853.85978325,E,1,30,0.6,374.427,M,-35.777,M,,*55
$GNGGA,094650.50,3422.48845972,N,10853.85978476,E,1,30,0.6,374.429,M,-35.777,M,,*50
$GNGGA,094650.60,3422.48845969,N,10853.85978416,E,1,30,0.6,374.430,M,-35.777,M,,*57
$GNGGA,094650.70,3422.48845948,N,10853.85978454,E,1,30,0.6,374.432,M,-35.777,M,,*51
$GNGGA,094650.80,3422.48845949,N,10853.85978448,E,1,30,0.6,374.435,M,-35.777,M,,*55
$GNGGA,094650.90,3422.48845850,N,10853.85978509,E,1,30,0.6,374.436,M,-35.777,M,,*5A
$GNGGA,094651.00,3422.48845893,N,10853.85978606,E,1,30,0.6,374.434,M,-35.777,M,,*53
$GNGGA,094651.10,3422.48845859,N,10853.85978485,E,1,30,0.6,374.442,M,-35.777,M,,*5C
$GNGGA,094651.20,3422.48845912,N,10853.85978641,E,1,30,0.6,374.439,M,-35.777,M,,*57
$GNGGA,094651.30,3422.48845808,N,10853.85978509,E,1,30,0.6,374.443,M,-35.777,M,,*5E
$GNGGA,094651.40,3422.48844719,N,10853.85977903,E,1,30,0.6,374.511,M,-35.777,M,,*58
$GNGGA,094651.50,3422.48844805,N,10853.85978005,E,1,30,0.6,374.515,M,-35.777,M,,*5F
$GNGGA,094651.60,3422.48845778,N,10853.85978644,E,1,30,0.6,374.445,M,-35.777,M,,*5F
$GNGGA,094651.70,3422.48845766,N,10853.85978698,E,1,30,0.6,374.447,M,-35.777,M,,*52
$GNGGA,094651.80,3422.48845785,N,10853.85978723,E,1,30,0.6,374.446,M,-35.777,M,,*50
$GNGGA,094651.90,3422.48845768,N,10853.85978685,E,1,30,0.6,374.445,M,-35.777,M,,*5C
$GNGGA,094652.00,3422.48845699,N,10853.85978900,E,1,30,0.6,374.447,M,-35.777,M,,*59
$GNGGA,094652.10,3422.48845722,N,10853.85978807,E,1,30,0.6,374.451,M,-35.777,M,,*58
$GNGGA,094652.20,3422.48845682,N,10853.85978861,E,1,30,0.6,374.453,M,-35.777,M,,*52
$GNGGA,094652.30,3422.48845573,N,10853.85978823,E,1,30,0.6,374.453,M,-35.777,M,,*58
$GNGGA,094652.40,3422.48845708,N,10853.85978914,E,1,30,0.6,374.451,M,-35.777,M,,*56
$GNGGA,094652.50,3422.48845583,N,10853.85978986,E,1,30,0.6,374.460,M,-35.777,M,,*5F
$GNGGA,094652.60,3422.48845552,N,10853.85979020,E,1,30,0.6,374.462,M,-35.777,M,,*56
$GNGGA,094652.70,3422.48845563,N,10853.85978992,E,1,30,0.6,374.461,M,-35.777,M,,*57
$GNGGA,094652.80,3422.48844174,N,10853.85978188,E,1,30,0.6,374.550,M,-35.777,M,,*5B
$GNGGA,094652.90,3422.48844129,N,10853.85978153,E,1,30,0.6,374.549,M,-35.777,M,,*5C
$GNGGA,094653.00,3422.48844073,N,10853.85978115,E,1,30,0.6,374.560,M,-35.777,M,,*53
$GNGGA,094653.10,3422.48844131,N,10853.85978223,E,1,30,0.6,374.554,M,-35.777,M,,*54
$GNGGA,094653.20,3422.48843998,N,10853.85978131,E,1,30,0.6,374.564,M,-35.777,M,,*58
$GNGGA,094653.30,3422.48844111,N,10853.85978354,E,1,30,0.6,374.560,M,-35.777,M,,*52
$GNGGA,094653.40,3422.48843888,N,10853.85978115,E,1,30,0.6,374.568,M,-35.777,M,,*54
$GNGGA,094653.50,3422.48843902,N,10853.85978246,E,1,30,0.6,374.568,M,-35.777,M,,*53
$GNGGA,094653.60,3422.48845365,N,10853.85979285,E,1,30,0.6,374.479,M,-35.777,M,,*52
$GNGGA,094653.70,3422.48845346,N,10853.85979129,E,1,30,0.6,374.478,M,-35.777,M,,*56
$GNGGA,094653.80,3422.48845368,N,10853.85979276,E,1,30,0.6,374.476,M,-35.777,M,,*52
$GNGGA,094653.90,3422.48845333,N,10853.85979179,E,1,30,0.6,374.480,M,-35.777,M,,*58
$GNGGA,094654.00,3422.48845325,N,10853.85979275,E,1,30,0.6,374.482,M,-35.777,M,,*5C
$GNGGA,094654.10,3422.48845323,N,10853.85979220,E,1,30,0.6,374.485,M,-35.777,M,,*5C
$GNGGA,094654.20,3422.48845275,N,10853.85979112,E,1,30,0.6,374.485,M,-35.777,M,,*5F
$GNGGA,094654.30,3422.48845345,N,10853.85979229,E,1,30,0.6,374.483,M,-35.777,M,,*51
$GNGGA,094654.40,3422.48845333,N,10853.85979227,E,1,30,0.6,374.481,M,-35.777,M,,*5B
$GNGGA,094654.50,3422.48845247,N,10853.85979203,E,1,30,0.6,374.488,M,-35.777,M,,*57
$GNGGA,094654.60,3422.48845417,N,10853.85979225,E,1,30,0.6,374.486,M,-35.777,M,,*5D
$GNGGA,094654.70,3422.48845324,N,10853.85979256,E,1,30,0.6,374.485,M,-35.777,M,,*5C
$GNGGA,094654.80,3422.48845262,N,10853.85979269,E,1,30,0.6,374.490,M,-35.777,M,,*58
$GNGGA,094654.90,3422.48845214,N,10853.85979229,E,1,30,0.6,374.492,M,-35.777,M,,*5E
$GNGGA,094655.00,3422.48845302,N,10853.85979190,E,1,30,0.6,374.491,M,-35.777,M,,*52
$GNGGA,094655.10,3422.48845282,N,10853.85979210,E,1,30,0.6,374.498,M,-35.777,M,,*58
$GNGGA,094655.20,3422.48845189,N,10853.85979198,E,1,30,0.6,374.497,M,-35.777,M,,*5F
$GNGGA,094655.30,3422.48845262,N,10853.85979238,E,1,30,0.6,374.497,M,-35.777,M,,*51
$GNGGA,094655.40,3422.48845309,N,10853.85979136,E,1,30,0.6,374.491,M,-35.777,M,,*51
$GNGGA,094655.50,3422.48845160,N,10853.85979187,E,1,30,0.6,374.499,M,-35.777,M,,*5F
$GNGGA,094655.60,3422.48845137,N,10853.85979191,E,1,30,0.6,374.503,M,-35.777,M,,*5B
$GNGGA,094655.70,3422.48845217,N,10853.85979150,E,1,30,0.6,374.499,M,-35.777,M,,*54
$GNGGA,094655.80,3422.48845182,N,10853.85979134,E,1,30,0.6,374.500,M,-35.777,M,,*57
$GNGGA,094655.90,3422.48845136,N,10853.85979145,E,1,30,0.6,374.501,M,-35.777,M,,*5E
$GNGGA,094656.00,3422.48845117,N,10853.85979252,E,1,30,0.6,374.500,M,-35.777,M,,*53
$GNGGA,094656.10,3422.48845110,N,10853.85979095,E,1,30,0.6,374.504,M,-35.777,M,,*58
$GNGGA,094656.20,3422.48844996,N,10853.85979214,E,1,30,0.6,374.504,M,-35.777,M,,*57
$GNGGA,094656.30,3422.48845074,N,10853.85979120,E,1,30,0.6,374.503,M,-35.777,M,,*51
$GNGGA,094656.40,3422.48844944,N,10853.85979169,E,1,30,0.6,374.507,M,-35.777,M,,*54
$GNGGA,094656.50,3422.48845077,N,10853.85979095,E,1,30,0.6,374.507,M,-35.777,M,,*5F
$GNGGA,094656.60,3422.48845000,N,10853.85979142,E,1,30,0.6,374.510,M,-35.777,M,,*51
$GNGGA,094656.70,3422.48845006,N,10853.85979124,E,1,30,0.6,374.508,M,-35.777,M,,*5F
$GNGGA,094656.80,3422.48844865,N,10853.85979103,E,1,30,0.6,374.517,M,-35.777,M,,*57
$GNGGA,094656.90,3422.48844908,N,10853.85979008,E,1,30,0.6,374.515,M,-35.777,M,,*54
$GNGGA,094657.00,3422.48843269,N,10853.85977843,E,1,30,0.6,374.628,M,-35.777,M,,*53
$GNGGA,094657.10,3422.48843274,N,10853.85977874,E,1,30,0.6,374.632,M,-35.777,M,,*51
$GNGGA,094657.20,3422.48843102,N,10853.85977807,E,1,30,0.6,374.636,M,-35.777,M,,*50
$GNGGA,094657.30,3422.48843144,N,10853.85977816,E,1,30,0.6,374.632,M,-35.777,M,,*57
$GNGGA,094657.40,3422.48843026,N,10853.85977768,E,1,30,0.6,374.641,M,-35.777,M,,*57
$GNGGA,094657.50,3422.48843061,N,10853.85977779,E,1,30,0.6,374.642,M,-35.777,M,,*56
$GNGGA,094657.60,3422.48844945,N,10853.85978927,E,1,30,0.6,374.519,M,-35.777,M,,*5A
$GNGGA,094657.70,3422.48844860,N,10853.85978922,E,1,30,0.6,374.521,M,-35.777,M,,*53
$GNGGA,094657.80,3422.48844854,N,10853.85978874,E,1,30,0.6,374.518,M,-35.777,M,,*53
$GNGGA,094657.90,3422.48844892,N,10853.85979009,E,1,30,0.6,374.522,M,-35.777,M,,*52
$GNGGA,094658.00,3422.48844997,N,10853.85978967,E,1,30,0.6,374.513,M,-35.777,M,,*52
$GNGGA,094658.10,3422.48844942,N,10853.85978915,E,1,30,0.6,374.521,M,-35.777,M,,*5F
$GNGGA,094658.20,3422.48844875,N,10853.85978838,E,1,30,0.6,374.523,M,-35.777,M,,*55
$GNGGA,094658.30,3422.48844896,N,10853.85978788,E,1,30,0.6,374.525,M,-35.777,M,,*5B
$GNGGA,094658.40,3422.48844888,N,10853.85978813,E,1,30,0.6,374.525,M,-35.777,M,,*5E
$GNGGA,094658.50,3422.48844916,N,10853.85978788,E,1,30,0.6,374.524,M,-35.777,M,,*55
$GNGGA,094658.60,3422.48849682,N,10853.85966510,E,1,30,0.6,374.009,M,-35.777,M,,*5F
$GNGGA,094658.70,3422.48849678,N,10853.85966428,E,1,30,0.6,374.011,M,-35.777,M,,*58
$GNGGA,094658.80,3422.48843051,N,10853.85977476,E,1,30,0.6,374.645,M,-35.777,M,,*5C
$GNGGA,094658.90,3422.48843047,N,10853.85977282,E,1,30,0.6,374.645,M,-35.777,M,,*57
$GNGGA,094659.00,3422.48844876,N,10853.85978620,E,1,30,0.6,374.530,M,-35.777,M,,*50
$GNGGA,094659.10,3422.48844859,N,10853.85978528,E,1,30,0.6,374.538,M,-35.777,M,,*5F
$GNGGA,094659.20,3422.48843044,N,10853.85977171,E,1,30,0.6,374.649,M,-35.777,M,,*5D
$GNGGA,094659.30,3422.48843057,N,10853.85977233,E,1,30,0.6,374.654,M,-35.777,M,,*57
$GNGGA,094659.40,3422.48848124,N,10853.85963212,E,1,30,0.6,374.091,M,-35.777,M,,*57
$GNGGA,094659.50,3422.48848157,N,10853.85963216,E,1,30,0.6,374.087,M,-35.777,M,,*51
$GNGGA,094659.60,3422.48844873,N,10853.85978375,E,1,30,0.6,374.535,M,-35.777,M,,*53
$GNGGA,094659.70,3422.48844950,N,10853.85978387,E,1,30,0.6,374.538,M,-35.777,M,,*52
$GNGGA,094659.80,3422.48844852,N,10853.85978394,E,1,30,0.6,374.534,M,-35.777,M,,*50
$GNGGA,094659.90,3422.48844891,N,10853.85978369,E,1,30,0.6,374.534,M,-35.777,M,,*5C
$GNGGA,094700.00,3422.48850630,N,10853.85964389,E,1,30,0.6,373.927,M,-35.777,M,,*52
$GNGGA,094700.10,3422.48850602,N,10853.85964322,E,1,30,0.6,373.929,M,-35.777,M,,*5D
$GNGGA,094700.20,3422.48850395,N,10853.85964910,E,1,30,0.6,373.956,M,-35.777,M,,*56
$GNGGA,094700.30,3422.48850346,N,10853.85964853,E,1,30,0.6,373.954,M,-35.777,M,,*5D
$GNGGA,094700.40,3422.48850705,N,10853.85964277,E,1,30,0.6,373.930,M,-35.777,M,,*57
$GNGGA,094700.50,3422.48850640,N,10853.85964285,E,1,30,0.6,373.930,M,-35.777,M,,*5B
$GNGGA,094700.60,3422.48844995,N,10853.85978237,E,1,30,0.6,374.529,M,-35.777,M,,*5D
$GNGGA,094700.70,3422.48845038,N,10853.85978431,E,1,30,0.6,374.525,M,-35.777,M,,*5F
$GNGGA,094700.80,3422.48850984,N,10853.85963235,E,1,30,0.6,373.884,M,-35.777,M,,*53
$GNGGA,094700.90,3422.48851100,N,10853.85963141,E,1,30,0.6,373.885,M,-35.777,M,,*56
$GNGGA,094701.00,3422.48850356,N,10853.85964794,E,1,30,0.6,373.967,M,-35.777,M,,*5A
$GNGGA,094701.10,3422.48850377,N,10853.85964809,E,1,30,0.6,373.966,M,-35.777,M,,*52
$GNGGA,094701.20,3422.48845061,N,10853.85978144,E,1,30,0.6,374.534,M,-35.777,M,,*50
$GNGGA,094701.30,3422.48844996,N,10853.85978229,E,1,30,0.6,374.537,M,-35.777,M,,*5A
$GNGGA,094701.40,3422.48849826,N,10853.85966136,E,1,30,0.6,374.023,M,-35.777,M,,*58
$GNGGA,094701.50,3422.48849875,N,10853.85966231,E,1,30,0.6,374.023,M,-35.777,M,,*5B
$GNGGA,094701.60,3422.48844949,N,10853.85978237,E,1,30,0.6,374.543,M,-35.777,M,,*51
$GNGGA,094701.70,3422.48844965,N,10853.85978200,E,1,30,0.6,374.545,M,-35.777,M,,*5C
