$GPGGA,094550.40,3422.44226154,N,10853.99384892,E,2,07,1.2,378.240,M,-35.767,M,3.4,0137*6B
$GPGGA,094550.50,3422.44237442,N,10853.99396639,E,2,07,1.2,378.256,M,-35.767,M,3.4,0137*63
$GPGGA,094550.60,3422.44250171,N,10853.99408441,E,2,07,1.2,378.241,M,-35.767,M,3.6,0137*6D
$GPGGA,094550.70,3422.44262032,N,10853.99422726,E,2,07,1.2,378.254,M,-35.767,M,3.6,0137*65
$GPGGA,094550.80,3422.44275033,N,10853.99437340,E,2,07,1.2,378.252,M,-35.767,M,3.8,0137*65
$GPGGA,094550.90,3422.44288800,N,10853.99452785,E,2,07,1.2,378.236,M,-35.767,M,3.8,0137*62
$GPGGA,094551.00,3422.44303852,N,10853.99469959,E,2,07,1.2,378.247,M,-35.767,M,4.0,0137*61
$GPGGA,094551.10,3422.44319117,N,10853.99488190,E,2,07,1.2,378.228,M,-35.767,M,4.0,0137*68
$GPGGA,094551.20,3422.44334823,N,10853.99507841,E,2,07,1.2,378.246,M,-35.767,M,4.2,0137*63
$GPGGA,094551.30,3422.44351543,N,10853.99528282,E,2,07,1.2,378.233,M,-35.767,M,4.2,0137*60
$GPGGA,094551.40,3422.44367201,N,10853.99550169,E,2,07,1.2,378.246,M,-35.767,M,4.4,0137*6E
$GPGGA,094551.50,3422.44382861,N,10853.99572948,E,2,07,1.2,378.245,M,-35.767,M,4.4,0137*60
$GPGGA,094551.60,3422.44399446,N,10853.99596530,E,2,07,1.2,378.234,M,-35.767,M,4.6,0137*6D
$GPGGA,094551.70,3422.44415844,N,10853.99620468,E,2,07,1.2,378.238,M,-35.767,M,4.6,0137*6F
$GPGGA,094551.80,3422.44432247,N,10853.99645065,E,2,07,1.2,378.237,M,-35.767,M,4.8,0137*67
$GPGGA,094551.90,3422.44448116,N,10853.99669672,E,2,07,1.2,378.225,M,-35.767,M,4.8,0137*61
$GPGGA,094552.00,3422.44464111,N,10853.99695071,E,2,07,1.2,378.211,M,-35.767,M,5.0,0137*6A
$GPGGA,094552.10,3422.44479095,N,10853.99720787,E,2,07,1.2,378.244,M,-35.767,M,5.0,0137*6B
$GPGGA,094552.20,3422.44494445,N,10853.99746981,E,2,07,1.2,378.226,M,-35.767,M,5.2,0137*6C
$GPGGA,094552.30,3422.44509394,N,10853.99773775,E,2,07,1.2,378.220,M,-35.767,M,5.2,0137*66
$GPGGA,094552.40,3422.44524096,N,10853.99800387,E,2,07,1.2,378.237,M,-35.767,M,5.4,0137*6D
$GPGGA,094552.50,3422.44538469,N,10853.99827195,E,2,07,1.2,378.209,M,-35.767,M,5.4,0137*6C
$GPGGA,094552.60,3422.44551997,N,10853.99853863,E,2,07,1.2,378.207,M,-35.767,M,5.6,0137*63
$GPGGA,094552.70,3422.44565782,N,10853.99880711,E,2,07,1.2,378.198,M,-35.767,M,5.6,0137*6E
$GPGGA,094552.80,3422.44578709,N,10853.99907465,E,2,07,1.2,378.197,M,-35.767,M,5.8,0137*61
$GPGGA,094552.90,3422.44591070,N,10853.99934858,E,2,07,1.2,378.209,M,-35.767,M,5.8,0137*68
$GPGGA,094553.00,3422.44602586,N,10853.99962120,E,2,07,1.2,378.179,M,-35.767,M,6.0,0137*6F
$GPGGA,094553.10,3422.44614113,N,10853.99990626,E,2,07,1.2,378.207,M,-35.767,M,6.0,0137*67
$GPGGA,094553.20,3422.44625109,N,10854.00018569,E,2,07,1.2,378.161,M,-35.767,M,6.2,0137*6A
$GPGGA,094553.30,3422.44635339,N,10854.00046475,E,2,07,1.2,378.086,M,-35.767,M,6.2,0137*64
$GPGGA,094553.40,3422.44633942,N,10854.00073784,E,2,07,1.2,377.225,M,-35.767,M,6.4,0137*6A
$GPGGA,094553.50,3422.44643100,N,10854.00101027,E,2,07,1.2,377.165,M,-35.767,M,6.4,0137*6F
$GPGGA,094553.60,3422.44646625,N,10854.00127873,E,2,07,1.2,376.744,M,-35.767,M,6.6,0137*62
$GPGGA,094553.70,3422.44652770,N,10854.00154081,E,2,07,1.2,376.545,M,-35.767,M,6.6,0137*65
$GPGGA,094553.80,3422.44655882,N,10854.00178538,E,2,07,1.2,376.240,M,-35.767,M,6.8,0137*6A
$GPGGA,094553.90,3422.44661582,N,10854.00202358,E,2,07,1.2,376.017,M,-35.767,M,6.8,0137*6F
$GPGGA,094554.00,3422.44673761,N,10854.00225119,E,2,07,1.2,376.188,M,-35.767,M,7.0,0137*61
$GPGGA,094554.10,3422.44679202,N,10854.00250105,E,2,07,1.2,376.183,M,-35.767,M,7.0,0137*6E
$GPGGA,094554.20,3422.44686693,N,10854.00271247,E,2,07,1.2,376.180,M,-35.767,M,7.2,0137*66
$GPGGA,094554.30,3422.44694999,N,10854.00293801,E,2,07,1.2,376.163,M,-35.767,M,7.2,0137*68
$GPGGA,094554.40,3422.44700586,N,10854.00316605,E,2,07,1.2,376.143,M,-35.767,M,7.4,0137*63
$GPGGA,094554.50,3422.44708436,N,10854.00337959,E,2,07,1.2,376.154,M,-35.767,M,7.4,0137*63
$GPGGA,094554.60,3422.44715950,N,10854.00359975,E,2,07,1.2,376.191,M,-35.767,M,7.6,0137*6C
$GPGGA,094554.70,3422.44723566,N,10854.00381971,E,2,07,1.2,376.178,M,-35.767,M,7.6,0137*67
$GPGGA,094554.80,3422.44730003,N,10854.00404480,E,2,07,1.2,376.169,M,-35.767,M,7.8,0137*6B
$GPGGA,094554.90,3422.44737397,N,10854.00425478,E,2,07,1.2,376.192,M,-35.767,M,7.8,0137*63
$GPGGA,094555.00,3422.44742869,N,10854.00448220,E,2,07,1.2,376.074,M,-35.767,M,8.0,0137*6D
$GPGGA,094555.10,3422.44749769,N,10854.00470089,E,2,07,1.2,376.080,M,-35.767,M,8.0,0137*69
$GPGGA,094555.20,3422.44759056,N,10854.00491941,E,2,06,1.5,376.197,M,-35.767,M,8.2,0137*61
$GPGGA,094555.30,3422.44764586,N,10854.00514223,E,2,06,1.5,376.220,M,-35.767,M,8.2,0137*6A
$GPGGA,094555.40,3422.44773705,N,10854.00535524,E,2,06,1.5,376.176,M,-35.767,M,8.4,0137*67
$GPGGA,094555.50,3422.44780100,N,10854.00557480,E,2,06,1.5,376.152,M,-35.767,M,8.4,0137*64
$GPGGA,094555.60,3422.44788148,N,10854.00580468,E,2,06,1.5,376.171,M,-35.767,M,8.6,0137*6C
$GPGGA,094555.70,3422.44794217,N,10854.00602553,E,2,06,1.5,376.150,M,-35.767,M,8.6,0137*6A
$GPGGA,094555.80,3422.44801366,N,10854.00624617,E,2,06,1.5,376.176,M,-35.767,M,8.8,0137*6C
$GPGGA,094555.90,3422.44810286,N,10854.00646480,E,2,06,1.5,376.162,M,-35.767,M,8.8,0137*6F
$GPGGA,094556.00,3422.44818643,N,10854.00669663,E,2,07,1.2,376.343,M,-35.767,M,9.0,0137*6C
$GPGGA,094556.10,3422.44826497,N,10854.00691600,E,2,07,1.2,376.283,M,-35.767,M,9.0,0137*64
$GPGGA,094556.20,3422.44836379,N,10854.00713666,E,2,07,1.2,376.303,M,-35.767,M,9.2,0137*61
$GPGGA,094556.30,3422.44842343,N,10854.00737155,E,2,07,1.2,376.321,M,-35.767,M,9.2,0137*6B
$GPGGA,094556.40,3422.44863202,N,10854.00759104,E,2,07,1.2,377.152,M,-35.767,M,9.4,0137*66
$GPGGA,094556.50,3422.44870302,N,10854.00781120,E,2,07,1.2,377.050,M,-35.767,M,9.4,0137*64
$GPGGA,094556.60,3422.44876719,N,10854.00803520,E,2,07,1.2,376.918,M,-35.767,M,9.6,0137*68
$GPGGA,094556.70,3422.44883723,N,10854.00826022,E,2,07,1.2,376.776,M,-35.767,M,9.6,0137*6C
$GPGGA,094556.80,3422.44883480,N,10854.00848488,E,2,07,1.2,376.197,M,-35.767,M,9.8,0137*62
$GPGGA,094556.90,3422.44892739,N,10854.00871739,E,2,07,1.2,376.186,M,-35.767,M,9.8,0137*61
$GPGGA,094557.00,3422.44903029,N,10854.00894756,E,2,07,1.2,376.147,M,-35.767,M,10.0,0137*59
$GPGGA,094557.10,3422.44912644,N,10854.00918982,E,2,07,1.2,376.148,M,-35.767,M,10.0,0137*58
$GPGGA,094557.20,3422.44922056,N,10854.00942850,E,2,07,1.2,376.140,M,-35.767,M,10.2,0137*56
$GPGGA,094557.30,3422.44932284,N,10854.00968864,E,2,07,1.2,376.158,M,-35.767,M,10.2,0137*5D
$GPGGA,094557.40,3422.44943969,N,10854.00994280,E,2,07,1.2,376.163,M,-35.767,M,10.4,0137*59
$GPGGA,094557.50,3422.44956007,N,10854.01021902,E,2,07,1.2,376.162,M,-35.767,M,10.4,0137*5B
$GPGGA,094557.60,3422.44967228,N,10854.01051819,E,2,07,1.2,376.149,M,-35.767,M,10.6,0137*52
$GPGGA,094557.70,3422.44979961,N,10854.01083605,E,2,07,1.2,376.143,M,-35.767,M,10.6,0137*5C
$GPGGA,094557.80,3422.44992338,N,10854.01115883,E,2,07,1.2,376.089,M,-35.767,M,10.8,0137*57
$GPGGA,094557.90,3422.45004690,N,10854.01150049,E,2,07,1.2,376.073,M,-35.767,M,10.8,0137*5C
$GPGGA,094558.00,3422.45017955,N,10854.01185433,E,2,07,1.2,376.064,M,-35.767,M,11.0,0137*50
$GPGGA,094558.10,3422.45031719,N,10854.01220106,E,2,07,1.2,376.064,M,-35.767,M,11.0,0137*5C
$GPGGA,094558.20,3422.45049495,N,10854.01255994,E,2,07,1.2,376.345,M,-35.767,M,11.2,0137*54
$GPGGA,094558.30,3422.45062902,N,10854.01291804,E,2,07,1.2,376.230,M,-35.767,M,11.2,0137*5C
$GPGGA,094558.40,3422.45074525,N,10854.01327840,E,2,07,1.2,376.166,M,-35.767,M,11.4,0137*5F
$GPGGA,094558.50,3422.45087043,N,10854.01363793,E,2,07,1.2,376.137,M,-35.767,M,11.4,0137*52
$GPGGA,094558.60,3422.45099140,N,10854.01399044,E,2,07,1.2,376.048,M,-35.767,M,11.6,0137*5F
$GPGGA,094558.70,3422.45111794,N,10854.01434907,E,2,07,1.2,376.012,M,-35.767,M,11.6,0137*51
$GPGGA,094558.80,3422.45124928,N,10854.01471306,E,2,07,1.2,376.026,M,-35.767,M,11.8,0137*52
$GPGGA,094558.90,3422.45137288,N,10854.01507779,E,2,07,1.2,376.018,M,-35.767,M,11.8,0137*51
$GPGGA,094559.00,3422.45119981,N,10854.01522038,E,2,06,1.3,373.746,M,-35.767,M,12.0,0137*50
$GPGGA,094559.10,3422.45133421,N,10854.01558450,E,2,06,1.3,373.845,M,-35.767,M,12.0,0137*55
$GPGGA,094559.20,3422.45152687,N,10854.01595096,E,2,06,1.3,374.244,M,-35.767,M,12.2,0137*5E
$GPGGA,094559.30,3422.45166715,N,10854.01632106,E,2,06,1.3,374.406,M,-35.767,M,12.2,0137*54
$GPGGA,094559.40,3422.45187135,N,10854.01669022,E,2,06,1.3,374.914,M,-35.767,M,12.4,0137*59
$GPGGA,094559.50,3422.45201364,N,10854.01706183,E,2,06,1.3,375.062,M,-35.767,M,12.4,0137*58
$GPGGA,094559.60,3422.45182007,N,10854.01737206,E,2,06,1.3,372.755,M,-35.767,M,12.6,0137*5F
$GPGGA,094559.70,3422.45193627,N,10854.01773597,E,2,06,1.3,372.722,M,-35.767,M,12.6,0137*55
$GPGGA,094559.80,3422.45208454,N,10854.01808418,E,2,06,1.3,372.754,M,-35.767,M,12.8,0137*57
$GPGGA,094559.90,3422.45219686,N,10854.01844771,E,2,06,1.3,372.765,M,-35.767,M,12.8,0137*5D
$GPGGA,094600.00,3422.45232065,N,10854.01880035,E,2,06,1.3,372.719,M,-35.767,M,13.0,0137*54
$GPGGA,094600.10,3422.45243332,N,10854.01914760,E,2,06,1.3,372.672,M,-35.767,M,13.0,0137*55
$GPGGA,094600.20,3422.45254922,N,10854.01948290,E,2,06,1.3,372.593,M,-35.767,M,13.2,0137*56
$GPGGA,094600.30,3422.45265516,N,10854.01979993,E,2,06,1.3,372.464,M,-35.767,M,13.2,0137*5D
$GPGGA,094600.40,3422.45304866,N,10854.02016097,E,2,06,1.3,374.412,M,-35.767,M,13.4,0137*59
$GPGGA,094600.50,3422.45314852,N,10854.02047784,E,2,06,1.3,374.424,M,-35.767,M,13.4,0137*5A
$GPGGA,094600.60,3422.45349350,N,10854.02081316,E,2,06,1.3,376.037,M,-35.767,M,13.6,0137*5B
$GPGGA,094600.70,3422.45359750,N,10854.02111282,E,2,06,1.3,376.108,M,-35.767,M,13.6,0137*56
$GPGGA,094600.80,3422.45360283,N,10854.02139357,E,2,06,1.3,375.410,M,-35.767,M,13.8,0137*5A
$GPGGA,094600.90,3422.45370023,N,10854.02167352,E,2,06,1.3,375.396,M,-35.767,M,13.8,0137*55
$GPGGA,094601.00,3422.45379000,N,10854.02192714,E,2,06,1.3,375.133,M,-35.767,M,14.0,0137*5B
$GPGGA,094601.10,3422.45389230,N,10854.02219828,E,2,06,1.3,375.041,M,-35.767,M,14.0,0137*50
$GPGGA,094601.20,3422.45409955,N,10854.02248188,E,2,06,1.3,375.828,M,-35.767,M,14.2,0137*56
$GPGGA,094601.30,3422.45423211,N,10854.02272049,E,2,06,1.3,375.853,M,-35.767,M,14.2,0137*5D
$GPGGA,094601.40,3422.45447200,N,10854.02297180,E,2,06,1.3,376.564,M,-35.767,M,14.4,0137*5B
$GPGGA,094601.50,3422.45459652,N,10854.02321457,E,2,06,1.3,376.575,M,-35.767,M,14.4,0137*55
$GPGGA,094601.60,3422.45489984,N,10854.02349147,E,2,06,1.3,377.884,M,-35.767,M,14.6,0137*55
$GPGGA,094601.70,3422.45500653,N,10854.02372312,E,2,06,1.3,377.710,M,-35.767,M,14.6,0137*59
$GPGGA,094601.80,3422.45517054,N,10854.02396857,E,2,06,1.3,377.988,M,-35.767,M,14.8,0137*50
$GPGGA,094601.90,3422.45530576,N,10854.02420263,E,2,06,1.3,377.990,M,-35.767,M,14.8,0137*5F
$GPGGA,094602.00,3422.45544344,N,10854.02441663,E,2,06,1.3,377.958,M,-35.767,M,15.0,0137*5F
$GPGGA,094602.10,3422.45557665,N,10854.02463601,E,2,06,1.3,377.922,M,-35.767,M,15.0,0137*53
$GPGGA,094602.20,3422.45569686,N,10854.02486515,E,2,06,1.3,377.906,M,-35.767,M,15.2,0137*59
$GPGGA,094602.30,3422.45583943,N,10854.02507588,E,2,06,1.3,377.914,M,-35.767,M,15.2,0137*55
$GPGGA,094602.40,3422.45620828,N,10854.02511410,E,2,06,1.3,378.106,M,-35.767,M,15.4,0137*51
$GPGGA,094602.50,3422.45635781,N,10854.02531814,E,2,06,1.3,378.239,M,-35.767,M,15.4,0137*5D
$GPGGA,094602.60,3422.45649999,N,10854.02549384,E,2,06,1.3,378.384,M,-35.767,M,15.6,0137*5A
$GPGGA,094602.70,3422.45664016,N,10854.02568541,E,2,06,1.3,378.463,M,-35.767,M,15.6,0137*58
$GPGGA,094602.80,3422.45669382,N,10854.02585595,E,2,06,1.3,378.956,M,-35.767,M,15.8,0137*5B
$GPGGA,094602.90,3422.45679935,N,10854.02600265,E,2,06,1.3,379.143,M,-35.767,M,15.8,0137*56
$GPGGA,094603.00,3422.45710717,N,10854.02605922,E,2,06,1.3,379.287,M,-35.767,M,16.0,0137*53
$GPGGA,094603.10,3422.45725133,N,10854.02617761,E,2,06,1.3,379.387,M,-35.767,M,16.0,0137*5F
$GPGGA,094603.20,3422.45731489,N,10854.02631006,E,2,06,1.3,379.822,M,-35.767,M,16.2,0137*59
$GPGGA,094603.30,3422.45745692,N,10854.02641504,E,2,06,1.3,379.887,M,-35.767,M,16.2,0137*5C
$GPGGA,094603.40,3422.45725980,N,10854.02661207,E,2,06,1.3,380.438,M,-35.767,M,16.4,0137*5F
$GPGGA,094603.50,3422.45741464,N,10854.02669136,E,2,06,1.3,380.532,M,-35.767,M,16.4,0137*59
$GPGGA,094603.60,3422.45757028,N,10854.02675909,E,2,06,1.3,380.515,M,-35.767,M,16.6,0137*5F
$GPGGA,094603.70,3422.45772411,N,10854.02681132,E,2,06,1.3,380.539,M,-35.767,M,16.6,0137*52
$GPGGA,094603.80,3422.45806884,N,10854.02678681,E,2,06,1.3,380.393,M,-35.767,M,16.8,0137*50
$GPGGA,094603.90,3422.45822830,N,10854.02680906,E,2,06,1.3,380.384,M,-35.767,M,16.8,0137*59
$GPGGA,094604.00,3422.45815546,N,10854.02696280,E,2,06,1.3,380.548,M,-35.767,M,17.0,0137*52
$GPGGA,094604.10,3422.45831153,N,10854.02697316,E,2,06,1.3,380.550,M,-35.767,M,17.0,0137*53
$GPGGA,094604.20,3422.45859777,N,10854.02693663,E,2,06,1.3,380.453,M,-35.767,M,17.2,0137*5D
$GPGGA,094604.30,3422.45878399,N,10854.02693194,E,2,06,1.3,380.376,M,-35.767,M,17.2,0137*54
$GPGGA,094604.40,3422.45874898,N,10854.02700171,E,2,06,1.3,380.668,M,-35.767,M,17.4,0137*59
$GPGGA,094604.50,3422.45890631,N,10854.02701462,E,2,06,1.3,380.705,M,-35.767,M,17.4,0137*53
$GPGGA,094604.60,3422.45906023,N,10854.02700544,E,2,06,1.3,380.661,M,-35.767,M,17.6,0137*5E
$GPGGA,094604.70,3422.45921444,N,10854.02698556,E,2,06,1.3,380.709,M,-35.767,M,17.6,0137*53
$GPGGA,094604.80,3422.45936205,N,10854.02694851,E,2,06,1.3,380.676,M,-35.767,M,17.8,0137*58
$GPGGA,094604.90,3422.45950344,N,10854.02691379,E,2,06,1.3,380.678,M,-35.767,M,17.8,0137*57
$GPGGA,094605.00,3422.45964681,N,10854.02686938,E,2,06,1.3,380.653,M,-35.767,M,18.0,0137*53
$GPGGA,094605.10,3422.45979684,N,10854.02683301,E,2,06,1.3,380.638,M,-35.767,M,18.0,0137*53
$GPGGA,094605.20,3422.45997311,N,10854.02680867,E,2,06,1.3,380.324,M,-35.767,M,18.2,0137*5B
$GPGGA,094605.30,3422.46011669,N,10854.02675101,E,2,06,1.3,380.300,M,-35.767,M,18.2,0137*51
$GPGGA,094605.40,3422.46026686,N,10854.02669812,E,2,06,1.3,380.203,M,-35.767,M,18.4,0137*51
$GPGGA,094605.50,3422.46041549,N,10854.02663851,E,2,06,1.3,380.160,M,-35.767,M,18.4,0137*5A
$GPGGA,094605.60,3422.46065542,N,10854.02664072,E,2,06,1.3,379.335,M,-35.767,M,18.6,0137*5C
$GPGGA,094605.70,3422.46079001,N,10854.02657166,E,2,06,1.3,379.352,M,-35.767,M,18.6,0137*57
$GPGGA,094605.80,3422.46099366,N,10854.02653674,E,2,06,1.3,378.734,M,-35.767,M,18.8,0137*5F
$GPGGA,094605.90,3422.46112667,N,10854.02647311,E,2,06,1.3,378.767,M,-35.767,M,18.8,0137*5D
$GPGGA,094606.00,3422.46122421,N,10854.02637366,E,2,06,1.3,378.955,M,-35.767,M,19.0,0137*55
$GPGGA,094606.10,3422.46135294,N,10854.02630056,E,2,06,1.3,378.938,M,-35.767,M,19.0,0137*56
$GPGGA,094606.20,3422.46150099,N,10854.02623396,E,2,06,1.3,378.846,M,-35.767,M,19.2,0137*5E
$GPGGA,094606.30,3422.46163652,N,10854.02616048,E,2,06,1.3,378.814,M,-35.767,M,19.2,0137*5F
$GPGGA,094606.40,3422.46169232,N,10854.02604918,E,2,06,1.3,379.417,M,-35.767,M,19.4,0137*57
$GPGGA,094606.50,3422.46182087,N,10854.02597009,E,2,06,1.3,379.463,M,-35.767,M,19.4,0137*5C
$GPGGA,094606.60,3422.46193837,N,10854.02592078,E,2,07,1.2,379.699,M,-35.767,M,18.6,0137*5B
$GPGGA,094606.70,3422.46207365,N,10854.02586391,E,2,07,1.2,379.699,M,-35.767,M,18.6,0137*59
$GPGGA,094606.80,3422.46233924,N,10854.02584918,E,2,07,1.2,378.510,M,-35.767,M,18.8,0137*5A
$GPGGA,094606.90,3422.46245934,N,10854.02576538,E,2,07,1.2,378.508,M,-35.767,M,18.8,0137*51
$GPGGA,094607.00,3422.46259625,N,10854.02568766,E,2,07,1.2,378.436,M,-35.767,M,19.0,0137*58
$GPGGA,094607.10,3422.46272082,N,10854.02561151,E,2,07,1.2,378.469,M,-35.767,M,19.0,0137*5A
$GPGGA,094607.20,3422.46284290,N,10854.02553310,E,2,07,1.2,378.422,M,-35.767,M,19.2,0137*5A
$GPGGA,094607.30,3422.46298405,N,10854.02547693,E,2,07,1.2,378.420,M,-35.767,M,19.2,0137*55
$GPGGA,094607.40,3422.46311890,N,10854.02540721,E,2,07,1.2,378.438,M,-35.767,M,19.4,0137*52
$GPGGA,094607.50,3422.46326631,N,10854.02531827,E,2,07,1.2,378.409,M,-35.767,M,19.4,0137*5F
$GPGGA,094607.60,3422.46340615,N,10854.02528731,E,2,07,1.2,378.334,M,-35.767,M,6.6,0137*6F
$GPGGA,094607.70,3422.46357418,N,10854.02520413,E,2,07,1.2,378.355,M,-35.767,M,6.6,0137*6B
$GPGGA,094607.80,3422.46374671,N,10854.02510860,E,2,07,1.2,378.320,M,-35.767,M,6.8,0137*6F
$GPGGA,094607.90,3422.46393914,N,10854.02501172,E,2,07,1.2,378.373,M,-35.767,M,6.8,0137*67
$GPGGA,094608.00,3422.46414987,N,10854.02491793,E,2,07,1.2,378.355,M,-35.767,M,7.0,0137*6F
$GPGGA,094608.10,3422.46436115,N,10854.02481397,E,2,07,1.2,378.381,M,-35.767,M,7.0,0137*65
$GPGGA,094608.20,3422.46458121,N,10854.02470302,E,2,07,1.2,378.334,M,-35.767,M,7.2,0137*67
$GPGGA,094608.30,3422.46480683,N,10854.02459541,E,2,07,1.2,378.321,M,-35.767,M,7.2,0137*62
$GPGGA,094608.40,3422.46504379,N,10854.02449522,E,2,07,1.2,378.322,M,-35.767,M,7.4,0137*69
$GPGGA,094608.50,3422.46529003,N,10854.02438847,E,2,07,1.2,378.286,M,-35.767,M,7.4,0137*6E
$GPGGA,094608.60,3422.46553586,N,10854.02428282,E,2,07,1.2,378.285,M,-35.767,M,3.6,0137*6F
$GPGGA,094608.70,3422.46579190,N,10854.02416483,E,2,07,1.2,378.262,M,-35.767,M,3.6,0137*66
$GPGGA,094608.80,3422.46605171,N,10854.02406210,E,2,07,1.2,378.273,M,-35.767,M,3.8,0137*6D
$GPGGA,094608.90,3422.46631824,N,10854.02394787,E,2,07,1.2,378.291,M,-35.767,M,3.8,0137*69
$GPGGA,094609.00,3422.46658969,N,10854.02383011,E,2,07,1.2,378.268,M,-35.767,M,4.0,0137*61
$GPGGA,094609.10,3422.46687097,N,10854.02371030,E,2,07,1.2,378.285,M,-35.767,M,4.0,0137*67
$GPGGA,094609.20,3422.46715313,N,10854.02359468,E,2,07,1.2,378.274,M,-35.767,M,4.2,0137*6E
$GPGGA,094609.30,3422.46744490,N,10854.02347714,E,2,07,1.2,378.277,M,-35.767,M,4.2,0137*63
$GPGGA,094609.40,3422.46773800,N,10854.02335118,E,2,07,1.2,378.276,M,-35.767,M,4.4,0137*6D
$GPGGA,094609.50,3422.46803971,N,10854.02320876,E,2,07,1.2,378.265,M,-35.767,M,4.4,0137*64
$GPGGA,094609.60,3422.46834667,N,10854.02308377,E,2,07,1.2,378.253,M,-35.767,M,4.6,0137*6C
$GPGGA,094609.70,3422.46865135,N,10854.02295301,E,2,07,1.2,378.267,M,-35.767,M,4.6,0137*6A
$GPGGA,094609.80,3422.46896441,N,10854.02282424,E,2,07,1.2,378.253,M,-35.767,M,4.8,0137*60
$GPGGA,094609.90,3422.46927809,N,10854.02268151,E,2,07,1.2,378.225,M,-35.767,M,4.8,0137*68
$GPGGA,094610.00,3422.46959295,N,10854.02255763,E,2,07,1.2,378.210,M,-35.767,M,5.0,0137*69
$GPGGA,094610.10,3422.46991634,N,10854.02242301,E,2,07,1.2,378.223,M,-35.767,M,5.0,0137*65
$GPGGA,094610.20,3422.47023596,N,10854.02227128,E,2,07,1.2,378.180,M,-35.767,M,5.2,0137*6E
$GPGGA,094610.30,3422.47056618,N,10854.02213263,E,2,07,1.2,378.185,M,-35.767,M,5.2,0137*66
$GPGGA,094610.40,3422.47090204,N,10854.02199717,E,2,07,1.2,378.196,M,-35.767,M,5.4,0137*61
$GPGGA,094610.50,3422.47123684,N,10854.02185767,E,2,07,1.2,378.189,M,-35.767,M,5.4,0137*61
$GPGGA,094610.60,3422.47157911,N,10854.02171990,E,2,07,1.2,378.180,M,-35.767,M,5.6,0137*64
$GPGGA,094610.70,3422.47191656,N,10854.02157731,E,2,07,1.2,378.195,M,-35.767,M,5.6,0137*66
$GPGGA,094610.80,3422.47225958,N,10854.02143076,E,2,07,1.2,378.181,M,-35.767,M,5.8,0137*6E
$GPGGA,094610.90,3422.47260115,N,10854.02129150,E,2,07,1.2,378.205,M,-35.767,M,5.8,0137*69
$GPGGA,094611.00,3422.47294873,N,10854.02114453,E,2,07,1.2,378.187,M,-35.767,M,6.0,0137*69
$GPGGA,094611.10,3422.47329194,N,10854.02099432,E,2,07,1.2,378.200,M,-35.767,M,6.0,0137*60
$GPGGA,094611.20,3422.47364788,N,10854.02084741,E,2,07,1.2,378.191,M,-35.767,M,6.2,0137*63
$GPGGA,094611.30,3422.47400005,N,10854.02068890,E,2,07,1.2,378.182,M,-35.767,M,6.2,0137*66
$GPGGA,094611.40,3422.47435646,N,10854.02053710,E,2,07,1.2,378.183,M,-35.767,M,6.4,0137*6E
$GPGGA,094611.50,3422.47470689,N,10854.02038218,E,2,07,1.2,378.201,M,-35.767,M,6.4,0137*64
$GPGGA,094611.60,3422.47506120,N,10854.02021472,E,2,07,1.2,378.161,M,-35.767,M,6.6,0137*66
$GPGGA,094611.70,3422.47540848,N,10854.02007444,E,2,07,1.2,378.187,M,-35.767,M,6.6,0137*6B
$GPGGA,094611.80,3422.47575699,N,10854.01991666,E,2,07,1.2,378.181,M,-35.767,M,6.8,0137*6F
$GPGGA,094611.90,3422.47611508,N,10854.01976405,E,2,07,1.2,378.167,M,-35.767,M,6.8,0137*62
$GPGGA,094612.00,3422.47645412,N,10854.01960526,E,2,07,1.2,378.172,M,-35.767,M,7.0,0137*69
$GPGGA,094612.10,3422.47679025,N,10854.01947201,E,2,07,1.2,378.200,M,-35.767,M,7.0,0137*66
$GPGGA,094612.20,3422.47711343,N,10854.01931662,E,2,07,1.2,378.208,M,-35.767,M,7.2,0137*63
$GPGGA,094612.30,3422.47742281,N,10854.01917928,E,2,07,1.2,378.180,M,-35.767,M,7.2,0137*6D
$GPGGA,094612.40,3422.47772686,N,10854.01903763,E,2,07,1.2,378.209,M,-35.767,M,7.4,0137*6A
$GPGGA,094612.50,3422.47802380,N,10854.01891162,E,2,07,1.2,378.211,M,-35.767,M,7.4,0137*64
$GPGGA,094612.60,3422.47830439,N,10854.01876785,E,2,07,1.2,378.217,M,-35.767,M,6.6,0137*60
$GPGGA,094612.70,3422.47858331,N,10854.01864414,E,2,07,1.2,378.243,M,-35.767,M,6.6,0137*69
$GPGGA,094612.80,3422.47885410,N,10854.01850305,E,2,07,1.2,378.246,M,-35.767,M,6.8,0137*69
$GPGGA,094612.90,3422.47912514,N,10854.01837746,E,2,07,1.2,378.320,M,-35.767,M,6.8,0137*61
$GPGGA,094613.00,3422.47938426,N,10854.01824249,E,2,07,1.2,378.350,M,-35.767,M,7.0,0137*67
$GPGGA,094613.10,3422.47965311,N,10854.01811128,E,2,07,1.2,378.336,M,-35.767,M,7.0,0137*6F
$GPGGA,094613.20,3422.47993533,N,10854.01797839,E,2,07,1.2,378.288,M,-35.767,M,7.2,0137*6D
$GPGGA,094613.30,3422.48018913,N,10854.01784763,E,2,07,1.2,378.390,M,-35.767,M,7.2,0137*6D
$GPGGA,094613.40,3422.48046322,N,10854.01771793,E,2,07,1.2,378.342,M,-35.767,M,7.4,0137*65
$GPGGA,094613.50,3422.48073230,N,10854.01758527,E,2,07,1.2,378.336,M,-35.767,M,7.4,0137*65
$GPGGA,094613.60,3422.48093153,N,10854.01742215,E,2,07,1.2,378.886,M,-35.767,M,6.6,0137*60
$GPGGA,094613.70,3422.48119656,N,10854.01728052,E,2,07,1.2,378.874,M,-35.767,M,6.6,0137*60
$GPGGA,094613.80,3422.48147260,N,10854.01715705,E,2,07,1.2,378.719,M,-35.767,M,6.8,0137*64
$GPGGA,094613.90,3422.48173958,N,10854.01703451,E,2,07,1.2,378.708,M,-35.767,M,6.8,0137*67
$GPGGA,094614.00,3422.48200140,N,10854.01689324,E,2,07,1.2,378.686,M,-35.767,M,7.0,0137*67
$GPGGA,094614.10,3422.48227180,N,10854.01676304,E,2,07,1.2,378.598,M,-35.767,M,7.0,0137*61
$GPGGA,094614.20,3422.48252068,N,10854.01661144,E,2,07,1.2,378.606,M,-35.767,M,7.2,0137*61
$GPGGA,094614.30,3422.48278604,N,10854.01652467,E,2,07,1.2,378.692,M,-35.767,M,7.2,0137*6D
$GPGGA,094614.40,3422.48308666,N,10854.01638123,E,2,07,1.2,378.198,M,-35.767,M,7.4,0137*6A
$GPGGA,094614.50,3422.48334220,N,10854.01625404,E,2,07,1.2,378.230,M,-35.767,M,7.4,0137*6F
$GPGGA,094614.60,3422.48358096,N,10854.01619207,E,2,07,1.2,378.698,M,-35.767,M,3.6,0137*63
$GPGGA,094614.70,3422.48383073,N,10854.01604328,E,2,07,1.2,378.687,M,-35.767,M,3.6,0137*61
$GPGGA,094614.80,3422.48411068,N,10854.01587692,E,2,07,1.2,378.305,M,-35.767,M,3.8,0137*65
$GPGGA,094614.90,3422.48436220,N,10854.01574276,E,2,07,1.2,378.293,M,-35.767,M,3.8,0137*63
$GPGGA,094615.00,3422.48461215,N,10854.01560520,E,2,07,1.2,378.263,M,-35.767,M,4.0,0137*6E
$GPGGA,094615.10,3422.48485941,N,10854.01547519,E,2,07,1.2,378.273,M,-35.767,M,4.0,0137*61
$GPGGA,094615.20,3422.48514698,N,10854.01553909,E,2,07,1.2,378.666,M,-35.767,M,4.2,0137*6A
$GPGGA,094615.30,3422.48539165,N,10854.01541165,E,2,07,1.2,378.681,M,-35.767,M,4.2,0137*69
$GPGGA,094615.40,3422.48562037,N,10854.01515760,E,2,07,1.2,378.429,M,-35.767,M,4.4,0137*62
$GPGGA,094615.50,3422.48586563,N,10854.01502139,E,2,07,1.2,378.411,M,-35.767,M,4.4,0137*6A
$GPGGA,094615.60,3422.48610720,N,10854.01488200,E,2,07,1.2,378.391,M,-35.767,M,4.6,0137*67
$GPGGA,094615.70,3422.48636071,N,10854.01475185,E,2,07,1.2,378.369,M,-35.767,M,4.6,0137*6A
$GPGGA,094615.80,3422.48662102,N,10854.01463723,E,2,07,1.2,378.406,M,-35.767,M,4.8,0137*6C
$GPGGA,094615.90,3422.48688282,N,10854.01450381,E,2,07,1.2,378.412,M,-35.767,M,4.8,0137*6B
$GPGGA,094616.00,3422.48712405,N,10854.01429864,E,2,07,1.2,378.336,M,-35.767,M,5.0,0137*6C
$GPGGA,094616.10,3422.48739507,N,10854.01416340,E,2,07,1.2,378.326,M,-35.767,M,5.0,0137*67
$GPGGA,094616.20,3422.48767107,N,10854.01403015,E,2,07,1.2,378.299,M,-35.767,M,5.2,0137*6B
$GPGGA,094616.30,3422.48794840,N,10854.01389920,E,2,07,1.2,378.310,M,-35.767,M,5.2,0137*66
$GPGGA,094616.40,3422.48823151,N,10854.01381225,E,2,07,1.2,378.552,M,-35.767,M,5.4,0137*6B
$GPGGA,094616.50,3422.48851247,N,10854.01366425,E,2,07,1.2,378.544,M,-35.767,M,5.4,0137*63
$GPGGA,094616.60,3422.48879166,N,10854.01347627,E,2,07,1.2,378.509,M,-35.767,M,5.6,0137*62
$GPGGA,094616.70,3422.48908680,N,10854.01333016,E,2,07,1.2,378.502,M,-35.767,M,5.6,0137*67
$GPGGA,094616.80,3422.48941385,N,10854.01323214,E,2,07,1.2,378.424,M,-35.767,M,5.8,0137*6F
$GPGGA,094616.90,3422.48972245,N,10854.01308320,E,2,07,1.2,378.469,M,-35.767,M,5.8,0137*65
$GPGGA,094617.00,3422.49002648,N,10854.01291819,E,2,07,1.2,378.416,M,-35.767,M,6.0,0137*68
$GPGGA,094617.10,3422.49033799,N,10854.01275893,E,2,07,1.2,378.427,M,-35.767,M,6.0,0137*6C
$GPGGA,094617.20,3422.49063981,N,10854.01255677,E,2,07,1.2,378.368,M,-35.767,M,6.2,0137*65
$GPGGA,094617.30,3422.49095089,N,10854.01240580,E,2,07,1.2,378.372,M,-35.767,M,6.2,0137*68
$GPGGA,094617.40,3422.49127068,N,10854.01226757,E,2,07,1.2,378.374,M,-35.767,M,6.4,0137*60
$GPGGA,094617.50,3422.49158561,N,10854.01211548,E,2,07,1.2,378.391,M,-35.767,M,6.4,0137*66
$GPGGA,094617.60,3422.49190905,N,10854.01201460,E,2,07,1.2,378.446,M,-35.767,M,6.6,0137*6A
$GPGGA,094617.70,3422.49221883,N,10854.01186661,E,2,07,1.2,378.460,M,-35.767,M,6.6,0137*66
$GPGGA,094617.80,3422.49253109,N,10854.01169961,E,2,07,1.2,378.424,M,-35.767,M,6.8,0137*67
$GPGGA,094617.90,3422.49284726,N,10854.01157080,E,2,07,1.2,378.408,M,-35.767,M,6.8,0137*62
$GPGGA,094618.00,3422.49318553,N,10854.01154198,E,2,07,1.2,378.586,M,-35.767,M,7.0,0137*65
$GPGGA,094618.10,3422.49350621,N,10854.01141832,E,2,07,1.2,378.596,M,-35.767,M,7.0,0137*62
$GPGGA,094618.20,3422.49379842,N,10854.01116204,E,2,07,1.2,378.340,M,-35.767,M,7.2,0137*63
$GPGGA,094618.30,3422.49411818,N,10854.01105799,E,2,07,1.2,378.348,M,-35.767,M,7.2,0137*6F
$GPGGA,094618.40,3422.49443958,N,10854.01095864,E,2,07,1.2,378.354,M,-35.767,M,7.4,0137*64
$GPGGA,094618.50,3422.49477442,N,10854.01086710,E,2,07,1.2,378.248,M,-35.767,M,7.4,0137*66
$GPGGA,094618.60,3422.49508462,N,10854.01074631,E,2,07,1.2,378.331,M,-35.767,M,6.6,0137*6D
$GPGGA,094618.70,3422.49540865,N,10854.01065135,E,2,07,1.2,378.341,M,-35.767,M,6.6,0137*6F
$GPGGA,094618.80,3422.49573666,N,10854.01056781,E,2,07,1.2,378.339,M,-35.767,M,6.8,0137*65
$GPGGA,094618.90,3422.49606454,N,10854.01048598,E,2,07,1.2,378.341,M,-35.767,M,6.8,0137*6C
$GPGGA,094619.00,3422.49638917,N,10854.01040156,E,2,07,1.2,378.354,M,-35.767,M,7.0,0137*60
$GPGGA,094619.10,3422.49672288,N,10854.01031886,E,2,07,1.2,378.354,M,-35.767,M,7.0,0137*60
$GPGGA,094619.20,3422.49704979,N,10854.01023539,E,2,07,1.2,378.309,M,-35.767,M,7.2,0137*66
$GPGGA,094619.30,3422.49738659,N,10854.01016532,E,2,07,1.2,378.371,M,-35.767,M,7.2,0137*67
$GPGGA,094619.40,3422.49772672,N,10854.01009945,E,2,07,1.2,378.327,M,-35.767,M,7.4,0137*60
$GPGGA,094619.50,3422.49806473,N,10854.01004234,E,2,07,1.2,378.327,M,-35.767,M,7.4,0137*6E
$GPGGA,094619.60,3422.49841580,N,10854.00999626,E,2,07,1.2,378.346,M,-35.767,M,6.6,0137*6C
$GPGGA,094619.70,3422.49876247,N,10854.00995795,E,2,07,1.2,378.318,M,-35.767,M,6.6,0137*6B
$GPGGA,094619.80,3422.49911431,N,10854.00993545,E,2,07,1.2,378.289,M,-35.767,M,6.8,0137*6D
$GPGGA,094619.90,3422.49946801,N,10854.00992591,E,2,07,1.2,378.323,M,-35.767,M,6.8,0137*68
$GPGGA,094620.00,3422.49984078,N,10854.00991259,E,2,07,1.2,378.291,M,-35.767,M,7.0,0137*62
$GPGGA,094620.10,3422.50020606,N,10854.00992201,E,2,07,1.2,378.311,M,-35.767,M,7.0,0137*64
$GPGGA,094620.20,3422.50058074,N,10854.00993854,E,2,07,1.2,378.316,M,-35.767,M,7.2,0137*65
$GPGGA,094620.30,3422.50096463,N,10854.00996799,E,2,07,1.2,378.281,M,-35.767,M,7.2,0137*60
$GPGGA,094620.40,3422.50134225,N,10854.01001246,E,2,07,1.2,378.297,M,-35.767,M,7.4,0137*6A
$GPGGA,094620.50,3422.50172914,N,10854.01005779,E,2,07,1.2,378.276,M,-35.767,M,7.4,0137*62
$GPGGA,094620.60,3422.50211656,N,10854.01011841,E,2,07,1.2,378.276,M,-35.767,M,3.6,0137*69
$GPGGA,094620.70,3422.50251617,N,10854.01017331,E,2,07,1.2,378.274,M,-35.767,M,3.6,0137*61
$GPGGA,094620.80,3422.50291313,N,10854.01023294,E,2,07,1.2,378.274,M,-35.767,M,3.8,0137*64
$GPGGA,094620.90,3422.50331166,N,10854.01029276,E,2,07,1.2,378.267,M,-35.767,M,3.8,0137*6A
$GPGGA,094621.00,3422.50370856,N,10854.01035534,E,2,07,1.2,378.282,M,-35.767,M,4.0,0137*65
$GPGGA,094621.10,3422.50410596,N,10854.01042376,E,2,07,1.2,378.269,M,-35.767,M,4.0,0137*61
$GPGGA,094621.20,3422.50450193,N,10854.01049555,E,2,07,1.2,378.282,M,-35.767,M,4.2,0137*6C
$GPGGA,094621.30,3422.50490081,N,10854.01055806,E,2,07,1.2,378.256,M,-35.767,M,4.2,0137*6C
$GPGGA,094621.40,3422.50529774,N,10854.01062154,E,2,07,1.2,378.263,M,-35.767,M,4.4,0137*6F
$GPGGA,094621.50,3422.50569268,N,10854.01069751,E,2,07,1.2,378.256,M,-35.767,M,4.4,0137*6C
$GPGGA,094621.60,3422.50608238,N,10854.01076563,E,2,07,1.2,378.257,M,-35.767,M,4.6,0137*60
$GPGGA,094621.70,3422.50647452,N,10854.01082797,E,2,07,1.2,378.262,M,-35.767,M,4.6,0137*64
$GPGGA,094621.80,3422.50687016,N,10854.01088161,E,2,07,1.2,378.247,M,-35.767,M,4.8,0137*6F
$GPGGA,094621.90,3422.50726429,N,10854.01092523,E,2,07,1.2,378.245,M,-35.767,M,4.8,0137*67
$GPGGA,094622.00,3422.50765384,N,10854.01097817,E,2,07,1.2,378.248,M,-35.767,M,5.0,0137*61
$GPGGA,094622.10,3422.50803520,N,10854.01103115,E,2,07,1.2,378.254,M,-35.767,M,5.0,0137*6D
$GPGGA,094622.20,3422.50842141,N,10854.01106627,E,2,07,1.2,378.243,M,-35.767,M,5.2,0137*6F
$GPGGA,094622.30,3422.50879331,N,10854.01109883,E,2,07,1.2,378.249,M,-35.767,M,5.2,0137*66
$GPGGA,094622.40,3422.50916502,N,10854.01112747,E,2,07,1.2,378.248,M,-35.767,M,5.4,0137*65
$GPGGA,094622.50,3422.50953137,N,10854.01114839,E,2,07,1.2,378.248,M,-35.767,M,5.4,0137*67
$GPGGA,094622.60,3422.50989192,N,10854.01115762,E,2,07,1.2,378.249,M,-35.767,M,5.6,0137*6F
$GPGGA,094622.70,3422.51025082,N,10854.01116320,E,2,07,1.2,378.260,M,-35.767,M,5.6,0137*6A
$GPGGA,094622.80,3422.51061310,N,10854.01115446,E,2,07,1.2,378.250,M,-35.767,M,5.8,0137*64
$GPGGA,094622.90,3422.51096318,N,10854.01113067,E,2,07,1.2,378.243,M,-35.767,M,5.8,0137*66
$GPGGA,094623.00,3422.51130792,N,10854.01110590,E,2,07,1.2,378.253,M,-35.767,M,6.0,0137*61
$GPGGA,094623.10,3422.51165289,N,10854.01106901,E,2,07,1.2,378.263,M,-35.767,M,6.0,0137*6F
$GPGGA,094623.20,3422.51199318,N,10854.01101872,E,2,07,1.2,378.257,M,-35.767,M,6.2,0137*61
$GPGGA,094623.30,3422.51232453,N,10854.01094918,E,2,07,1.2,378.248,M,-35.767,M,6.2,0137*64
$GPGGA,094623.40,3422.51265549,N,10854.01086183,E,2,07,1.2,378.265,M,-35.767,M,6.4,0137*6B
$GPGGA,094623.50,3422.51297982,N,10854.01076222,E,2,07,1.2,378.287,M,-35.767,M,6.4,0137*67
$GPGGA,094623.60,3422.51329176,N,10854.01065087,E,2,07,1.2,378.280,M,-35.767,M,6.6,0137*69
$GPGGA,094623.70,3422.51360069,N,10854.01052700,E,2,07,1.2,378.274,M,-35.767,M,6.6,0137*6D
$GPGGA,094623.80,3422.51390142,N,10854.01038298,E,2,07,1.2,378.288,M,-35.767,M,6.8,0137*60
$GPGGA,094623.90,3422.51419300,N,10854.01021726,E,2,07,1.2,378.281,M,-35.767,M,6.8,0137*62
$GPGGA,094624.00,3422.51447559,N,10854.01003722,E,2,07,1.2,378.289,M,-35.767,M,7.0,0137*68
$GPGGA,094624.10,3422.51475024,N,10854.00984561,E,2,07,1.2,378.292,M,-35.767,M,7.0,0137*6F
$GPGGA,094624.20,3422.51501109,N,10854.00963590,E,2,07,1.2,378.301,M,-35.767,M,7.2,0137*6E
$GPGGA,094624.30,3422.51526310,N,10854.00941366,E,2,07,1.2,378.316,M,-35.767,M,7.2,0137*69
$GPGGA,094624.40,3422.51550840,N,10854.00918195,E,2,07,1.2,378.298,M,-35.767,M,7.4,0137*62
$GPGGA,094624.50,3422.51574456,N,10854.00893468,E,2,07,1.2,378.319,M,-35.767,M,7.4,0137*63
$GPGGA,094624.60,3422.51596447,N,10854.00865997,E,2,07,1.2,378.258,M,-35.767,M,6.6,0137*6F
$GPGGA,094624.70,3422.51618787,N,10854.00839817,E,2,07,1.2,378.261,M,-35.767,M,6.6,0137*6E
$GPGGA,094624.80,3422.51640610,N,10854.00813033,E,2,07,1.2,378.263,M,-35.767,M,6.8,0137*69
$GPGGA,094624.90,3422.51661937,N,10854.00785664,E,2,07,1.2,378.270,M,-35.767,M,6.8,0137*67
$GPGGA,094625.00,3422.51682465,N,10854.00757309,E,2,07,1.2,378.264,M,-35.767,M,7.0,0137*65
$GPGGA,094625.10,3422.51702733,N,10854.00727469,E,2,07,1.2,378.268,M,-35.767,M,7.0,0137*67
$GPGGA,094625.20,3422.51721928,N,10854.00696557,E,2,07,1.2,378.266,M,-35.767,M,7.2,0137*6A
$GPGGA,094625.30,3422.51741539,N,10854.00664182,E,2,07,1.2,378.260,M,-35.767,M,7.2,0137*66
$GPGGA,094625.40,3422.51761091,N,10854.00631583,E,2,07,1.2,378.260,M,-35.767,M,7.4,0137*67
$GPGGA,094625.50,3422.51781277,N,10854.00598789,E,2,07,1.2,378.262,M,-35.767,M,7.4,0137*68
$GPGGA,094625.60,3422.51802260,N,10854.00565313,E,2,07,1.2,378.261,M,-35.767,M,6.6,0137*6C
$GPGGA,094625.70,3422.51822688,N,10854.00532100,E,2,07,1.2,378.275,M,-35.767,M,6.6,0137*6A
$GPGGA,094625.80,3422.51842382,N,10854.00497802,E,2,07,1.2,378.271,M,-35.767,M,6.8,0137*63
$GPGGA,094625.90,3422.51862078,N,10854.00463276,E,2,07,1.2,378.266,M,-35.767,M,6.8,0137*62
$GPGGA,094626.00,3422.51881720,N,10854.00429065,E,2,07,1.2,378.278,M,-35.767,M,7.0,0137*67
$GPGGA,094626.10,3422.51901056,N,10854.00394525,E,2,07,1.2,378.282,M,-35.767,M,7.0,0137*6C
$GPGGA,094626.20,3422.51920280,N,10854.00359289,E,2,07,1.2,378.275,M,-35.767,M,7.2,0137*6F
$GPGGA,094626.30,3422.51939607,N,10854.00324936,E,2,07,1.2,378.283,M,-35.767,M,7.2,0137*61
$GPGGA,094626.40,3422.51958696,N,10854.00283356,E,2,06,1.3,378.114,M,-35.767,M,7.4,0137*62
$GPGGA,094626.50,3422.51976827,N,10854.00249079,E,2,06,1.3,378.128,M,-35.767,M,7.4,0137*6C
$GPGGA,094626.60,3422.51993111,N,10854.00218716,E,2,06,1.3,378.196,M,-35.767,M,3.6,0137*61
$GPGGA,094626.70,3422.52010730,N,10854.00186797,E,2,06,1.3,378.189,M,-35.767,M,3.6,0137*67
$GPGGA,094626.80,3422.52027908,N,10854.00155647,E,2,06,1.3,378.200,M,-35.767,M,3.8,0137*67
$GPGGA,094626.90,3422.52044603,N,10854.00125066,E,2,06,1.3,378.219,M,-35.767,M,3.8,0137*6D
$GPGGA,094627.00,3422.52060236,N,10854.00095322,E,2,06,1.3,378.228,M,-35.767,M,4.0,0137*65
$GPGGA,094627.10,3422.52075161,N,10854.00066061,E,2,06,1.3,378.228,M,-35.767,M,4.0,0137*69
$GPGGA,094627.20,3422.52090153,N,10854.00037299,E,2,06,1.3,378.226,M,-35.767,M,4.2,0137*6D
$GPGGA,094627.30,3422.52105155,N,10854.00009400,E,2,06,1.3,378.235,M,-35.767,M,4.2,0137*6E
$GPGGA,094627.40,3422.52120209,N,10853.99981518,E,2,06,1.3,378.244,M,-35.767,M,4.4,0137*62
$GPGGA,094627.50,3422.52134690,N,10853.99954083,E,2,06,1.3,378.246,M,-35.767,M,4.4,0137*6F
$GPGGA,094627.60,3422.52148975,N,10853.99927377,E,2,06,1.3,378.253,M,-35.767,M,4.6,0137*69
$GPGGA,094627.70,3422.52163156,N,10853.99900535,E,2,06,1.3,378.246,M,-35.767,M,4.6,0137*69
$GPGGA,094627.80,3422.52176474,N,10853.99874339,E,2,06,1.3,378.257,M,-35.767,M,4.8,0137*61
$GPGGA,094627.90,3422.52190249,N,10853.99848399,E,2,06,1.3,378.266,M,-35.767,M,4.8,0137*67
$GPGGA,094628.00,3422.52203852,N,10853.99822980,E,2,06,1.3,378.263,M,-35.767,M,5.0,0137*6A
$GPGGA,094628.10,3422.52217535,N,10853.99798096,E,2,06,1.3,378.273,M,-35.767,M,5.0,0137*63
$GPGGA,094628.20,3422.52230740,N,10853.99773141,E,2,06,1.3,378.269,M,-35.767,M,5.2,0137*62
$GPGGA,094628.30,3422.52243461,N,10853.99748323,E,2,06,1.3,378.274,M,-35.767,M,5.2,0137*65
$GPGGA,094628.40,3422.52256252,N,10853.99723528,E,2,06,1.3,378.284,M,-35.767,M,5.4,0137*69
$GPGGA,094628.50,3422.52269141,N,10853.99698645,E,2,06,1.3,378.281,M,-35.767,M,5.4,0137*69
$GPGGA,094628.60,3422.52281881,N,10853.99674587,E,2,06,1.3,378.294,M,-35.767,M,5.6,0137*60
$GPGGA,094628.70,3422.52294635,N,10853.99650840,E,2,06,1.3,378.293,M,-35.767,M,5.6,0137*63
$GPGGA,094628.80,3422.52307403,N,10853.99627076,E,2,06,1.3,378.305,M,-35.767,M,5.8,0137*6D
$GPGGA,094628.90,3422.52319485,N,10853.99603494,E,2,06,1.3,378.315,M,-35.767,M,5.8,0137*62
$GPGGA,094629.00,3422.52331397,N,10853.99579845,E,2,06,1.3,378.318,M,-35.767,M,6.0,0137*6C
$GPGGA,094629.10,3422.52343263,N,10853.99556568,E,2,06,1.3,378.317,M,-35.767,M,6.0,0137*62
$GPGGA,094629.20,3422.52355352,N,10853.99533667,E,2,06,1.3,378.307,M,-35.767,M,6.2,0137*69
$GPGGA,094629.30,3422.52367566,N,10853.99510817,E,2,06,1.3,378.322,M,-35.767,M,6.2,0137*67
$GPGGA,094629.40,3422.52379225,N,10853.99488129,E,2,06,1.3,378.314,M,-35.767,M,6.4,0137*68
$GPGGA,094629.50,3422.52391430,N,10853.99465696,E,2,06,1.3,378.322,M,-35.767,M,6.4,0137*68
$GPGGA,094629.60,3422.52402715,N,10853.99443468,E,2,06,1.3,378.325,M,-35.767,M,6.6,0137*60
$GPGGA,094629.70,3422.52414397,N,10853.99420641,E,2,06,1.3,378.311,M,-35.767,M,6.6,0137*63
$GPGGA,094629.80,3422.52426259,N,10853.99398306,E,2,06,1.3,378.332,M,-35.767,M,6.8,0137*63
$GPGGA,094629.90,3422.52438371,N,10853.99376068,E,2,06,1.3,378.323,M,-35.767,M,6.8,0137*6D
$GPGGA,094630.00,3422.52450484,N,10853.99353372,E,2,06,1.3,378.321,M,-35.767,M,7.0,0137*6B
$GPGGA,094630.10,3422.52462884,N,10853.99329662,E,2,06,1.3,378.317,M,-35.767,M,7.0,0137*6B
$GPGGA,094630.20,3422.52475308,N,10853.99305725,E,2,06,1.3,378.311,M,-35.767,M,7.2,0137*69
$GPGGA,094630.30,3422.52487827,N,10853.99281087,E,2,06,1.3,378.317,M,-35.767,M,7.2,0137*67
$GPGGA,094630.40,3422.52500963,N,10853.99255660,E,2,06,1.3,378.311,M,-35.767,M,7.4,0137*69
$GPGGA,094630.50,3422.52514394,N,10853.99229712,E,2,06,1.3,378.332,M,-35.767,M,7.4,0137*61
$GPGGA,094630.60,3422.52528258,N,10853.99198595,E,2,07,1.2,378.350,M,-35.767,M,6.6,0137*6F
$GPGGA,094630.70,3422.52541894,N,10853.99171301,E,2,07,1.2,378.349,M,-35.767,M,6.6,0137*6F
$GPGGA,094630.80,3422.52555388,N,10853.99144239,E,2,07,1.2,378.366,M,-35.767,M,6.8,0137*6C
$GPGGA,094630.90,3422.52568710,N,10853.99116625,E,2,07,1.2,378.378,M,-35.767,M,6.8,0137*67
$GPGGA,094631.00,3422.52581760,N,10853.99089250,E,2,07,1.2,378.377,M,-35.767,M,7.0,0137*68
$GPGGA,094631.10,3422.52594791,N,10853.99061899,E,2,07,1.2,378.381,M,-35.767,M,7.0,0137*63
$GPGGA,094631.20,3422.52608387,N,10853.99035023,E,2,07,1.2,378.379,M,-35.767,M,7.2,0137*68
$GPGGA,094631.30,3422.52621695,N,10853.99007743,E,2,07,1.2,378.396,M,-35.767,M,7.2,0137*65
$GPGGA,094631.40,3422.52634160,N,10853.98980293,E,2,07,1.2,378.399,M,-35.767,M,7.4,0137*6D
$GPGGA,094631.50,3422.52646837,N,10853.98953190,E,2,07,1.2,378.403,M,-35.767,M,7.4,0137*68
$GPGGA,094631.60,3422.52664158,N,10853.98927428,E,2,07,1.2,378.558,M,-35.767,M,6.6,0137*62
$GPGGA,094631.70,3422.52676926,N,10853.98900523,E,2,07,1.2,378.561,M,-35.767,M,6.6,0137*64
$GPGGA,094631.80,3422.52689150,N,10853.98874182,E,2,07,1.2,378.548,M,-35.767,M,6.8,0137*6A
$GPGGA,094631.90,3422.52700908,N,10853.98848621,E,2,07,1.2,378.563,M,-35.767,M,6.8,0137*66
$GPGGA,094632.00,3422.52711746,N,10853.98824914,E,2,07,1.2,378.561,M,-35.767,M,7.0,0137*60
$GPGGA,094632.10,3422.52722201,N,10853.98802527,E,2,07,1.2,378.557,M,-35.767,M,7.0,0137*6A
$GPGGA,094632.20,3422.52732148,N,10853.98780879,E,2,07,1.2,378.550,M,-35.767,M,7.2,0137*60
$GPGGA,094632.30,3422.52741051,N,10853.98760399,E,2,07,1.2,378.545,M,-35.767,M,7.2,0137*63
$GPGGA,094632.40,3422.52749586,N,10853.98739701,E,2,07,1.2,378.548,M,-35.767,M,7.4,0137*61
$GPGGA,094632.50,3422.52757801,N,10853.98719814,E,2,07,1.2,378.552,M,-35.767,M,7.4,0137*6F
$GPGGA,094632.60,3422.52767010,N,10853.98700146,E,2,07,1.2,378.549,M,-35.767,M,3.6,0137*6D
$GPGGA,094632.70,3422.52775581,N,10853.98680690,E,2,07,1.2,378.557,M,-35.767,M,3.6,0137*68
$GPGGA,094632.80,3422.52783799,N,10853.98661417,E,2,07,1.2,378.536,M,-35.767,M,3.8,0137*6E
$GPGGA,094632.90,3422.52790997,N,10853.98640688,E,2,07,1.2,378.552,M,-35.767,M,3.8,0137*68
$GPGGA,094633.00,3422.52796979,N,10853.98619745,E,2,07,1.2,378.519,M,-35.767,M,4.0,0137*6A
$GPGGA,094633.10,3422.52802561,N,10853.98598169,E,2,07,1.2,378.517,M,-35.767,M,4.0,0137*60
$GPGGA,094633.20,3422.52807706,N,10853.98577307,E,2,07,1.2,378.516,M,-35.767,M,4.2,0137*6D
$GPGGA,094633.30,3422.52812658,N,10853.98555453,E,2,07,1.2,378.500,M,-35.767,M,4.2,0137*63
$GPGGA,094633.40,3422.52816675,N,10853.98534041,E,2,07,1.2,378.498,M,-35.767,M,4.4,0137*69
$GPGGA,094633.50,3422.52820045,N,10853.98512388,E,2,07,1.2,378.508,M,-35.767,M,4.4,0137*62
$GPGGA,094633.60,3422.52822369,N,10853.98490281,E,2,07,1.2,378.493,M,-35.767,M,4.6,0137*6C
$GPGGA,094633.70,3422.52823651,N,10853.98468381,E,2,07,1.2,378.493,M,-35.767,M,4.6,0137*64
$GPGGA,094633.80,3422.52824215,N,10853.98446343,E,2,07,1.2,378.483,M,-35.767,M,4.8,0137*65
$GPGGA,094633.90,3422.52824350,N,10853.98424242,E,2,07,1.2,378.467,M,-35.767,M,4.8,0137*6A
$GPGGA,094634.00,3422.52824833,N,10853.98402520,E,2,07,1.2,378.472,M,-35.767,M,5.0,0137*60
$GPGGA,094634.10,3422.52823751,N,10853.98379618,E,2,07,1.2,378.468,M,-35.767,M,5.0,0137*65
$GPGGA,094634.20,3422.52822757,N,10853.98357792,E,2,07,1.2,378.468,M,-35.767,M,5.2,0137*6C
$GPGGA,094634.30,3422.52821366,N,10853.98335359,E,2,07,1.2,378.458,M,-35.767,M,5.2,0137*6C
$GPGGA,094634.40,3422.52819467,N,10853.98313401,E,2,07,1.2,378.475,M,-35.767,M,5.4,0137*61
$GPGGA,094634.50,3422.52817375,N,10853.98291075,E,2,07,1.2,378.467,M,-35.767,M,5.4,0137*65
$GPGGA,094634.60,3422.52814841,N,10853.98269405,E,2,07,1.2,378.447,M,-35.767,M,5.6,0137*6D
$GPGGA,094634.70,3422.52811955,N,10853.98247654,E,2,07,1.2,378.465,M,-35.767,M,5.6,0137*67
$GPGGA,094634.80,3422.52809830,N,10853.98225514,E,2,07,1.2,378.460,M,-35.767,M,5.8,0137*6B
$GPGGA,094634.90,3422.52806896,N,10853.98203382,E,2,07,1.2,378.431,M,-35.767,M,5.8,0137*60
$GPGGA,094635.00,3422.52803605,N,10853.98181459,E,2,07,1.2,378.445,M,-35.767,M,6.0,0137*69
$GPGGA,094635.10,3422.52800448,N,10853.98159400,E,2,07,1.2,378.435,M,-35.767,M,6.0,0137*6E
$GPGGA,094635.20,3422.52797206,N,10853.98137481,E,2,07,1.2,378.424,M,-35.767,M,6.2,0137*63
$GPGGA,094635.30,3422.52792974,N,10853.98115703,E,2,07,1.2,378.426,M,-35.767,M,6.2,0137*62
$GPGGA,094635.40,3422.52788500,N,10853.98093888,E,2,07,1.2,378.425,M,-35.767,M,6.4,0137*67
$GPGGA,094635.50,3422.52783613,N,10853.98072184,E,2,07,1.2,378.422,M,-35.767,M,6.4,0137*61
$GPGGA,094635.60,3422.52778390,N,10853.98050850,E,2,07,1.2,378.420,M,-35.767,M,6.6,0137*68
$GPGGA,094635.70,3422.52772326,N,10853.98030314,E,2,07,1.2,378.437,M,-35.767,M,6.6,0137*65
$GPGGA,094635.80,3422.52765864,N,10853.98009322,E,2,07,1.2,378.414,M,-35.767,M,6.8,0137*61
$GPGGA,094635.90,3422.52758778,N,10853.97988249,E,2,07,1.2,378.406,M,-35.767,M,6.8,0137*6C
$GPGGA,094636.00,3422.52752185,N,10853.97967999,E,2,07,1.2,378.437,M,-35.767,M,7.0,0137*64
$GPGGA,094636.10,3422.52745508,N,10853.97947494,E,2,07,1.2,378.429,M,-35.767,M,7.0,0137*6F
$GPGGA,094636.20,3422.52737732,N,10853.97927649,E,2,07,1.2,378.439,M,-35.767,M,7.2,0137*65
$GPGGA,094636.30,3422.52729506,N,10853.97908209,E,2,07,1.2,378.440,M,-35.767,M,7.2,0137*6D
$GPGGA,094636.40,3422.52720816,N,10853.97889123,E,2,07,1.2,378.444,M,-35.767,M,7.4,0137*6E
$GPGGA,094636.50,3422.52711617,N,10853.97869841,E,2,07,1.2,378.458,M,-35.767,M,7.4,0137*6C
$GPGGA,094636.60,3422.52702899,N,10853.97850929,E,2,07,1.2,378.442,M,-35.767,M,6.6,0137*68
$GPGGA,094636.70,3422.52693692,N,10853.97832146,E,2,07,1.2,378.432,M,-35.767,M,6.6,0137*67
$GPGGA,094636.80,3422.52684567,N,10853.97813609,E,2,07,1.2,378.455,M,-35.767,M,6.8,0137*67
$GPGGA,094636.90,3422.52676261,N,10853.97794283,E,2,07,1.2,378.460,M,-35.767,M,6.8,0137*6A
$GPGGA,094637.00,3422.52667522,N,10853.97775155,E,2,07,1.2,378.453,M,-35.767,M,7.0,0137*6C
$GPGGA,094637.10,3422.52658595,N,10853.97756565,E,2,07,1.2,378.454,M,-35.767,M,7.0,0137*6C
$GPGGA,094637.20,3422.52649643,N,10853.97738118,E,2,07,1.2,378.465,M,-35.767,M,7.2,0137*61
$GPGGA,094637.30,3422.52641066,N,10853.97719037,E,2,07,1.2,378.454,M,-35.767,M,7.2,0137*64
$GPGGA,094637.40,3422.52632369,N,10853.97700802,E,2,07,1.2,378.465,M,-35.767,M,7.4,0137*69
$GPGGA,094637.50,3422.52623284,N,10853.97682125,E,2,07,1.2,378.465,M,-35.767,M,7.4,0137*6D
$GPGGA,094637.60,3422.52614667,N,10853.97663669,E,2,07,1.2,378.470,M,-35.767,M,6.6,0137*64
$GPGGA,094637.70,3422.52605752,N,10853.97645216,E,2,07,1.2,378.471,M,-35.767,M,6.6,0137*6B
$GPGGA,094637.80,3422.52596829,N,10853.97627290,E,2,07,1.2,378.474,M,-35.767,M,6.8,0137*6F
$GPGGA,094637.90,3422.52588067,N,10853.97609227,E,2,07,1.2,378.487,M,-35.767,M,6.8,0137*6F
$GPGGA,094638.00,3422.52579091,N,10853.97590871,E,2,07,1.2,378.490,M,-35.767,M,7.0,0137*6B
$GPGGA,094638.10,3422.52570234,N,10853.97573232,E,2,07,1.2,378.501,M,-35.767,M,7.0,0137*67
$GPGGA,094638.20,3422.52561711,N,10853.97554947,E,2,07,1.2,378.496,M,-35.767,M,7.2,0137*67
$GPGGA,094638.30,3422.52552900,N,10853.97537366,E,2,07,1.2,378.496,M,-35.767,M,7.2,0137*64
$GPGGA,094638.40,3422.52544098,N,10853.97519261,E,2,07,1.2,378.496,M,-35.767,M,7.4,0137*60
$GPGGA,094638.50,3422.52535607,N,10853.97501717,E,2,07,1.2,378.510,M,-35.767,M,7.4,0137*65
$GPGGA,094638.60,3422.52527674,N,10853.97482653,E,2,07,1.2,378.521,M,-35.767,M,3.6,0137*6E
$GPGGA,094638.70,3422.52519429,N,10853.97464973,E,2,07,1.2,378.503,M,-35.767,M,3.6,0137*6D
$GPGGA,094638.80,3422.52510901,N,10853.97447280,E,2,07,1.2,378.512,M,-35.767,M,3.8,0137*64
$GPGGA,094638.90,3422.52502376,N,10853.97429369,E,2,07,1.2,378.507,M,-35.767,M,3.8,0137*66
$GPGGA,094639.00,3422.52494098,N,10853.97411980,E,2,07,1.2,378.513,M,-35.767,M,4.0,0137*6F
$GPGGA,094639.10,3422.52485720,N,10853.97393814,E,2,07,1.2,378.495,M,-35.767,M,4.0,0137*64
$GPGGA,094639.20,3422.52477520,N,10853.97376687,E,2,07,1.2,378.515,M,-35.767,M,4.2,0137*6C
$GPGGA,094639.30,3422.52469165,N,10853.97358507,E,2,07,1.2,378.521,M,-35.767,M,4.2,0137*67
$GPGGA,094639.40,3422.52460701,N,10853.97339951,E,2,07,1.2,378.527,M,-35.767,M,4.4,0137*65
$GPGGA,094639.50,3422.52451359,N,10853.97319976,E,2,07,1.2,378.528,M,-35.767,M,4.4,0137*67
$GPGGA,094639.60,3422.52442449,N,10853.97299809,E,2,07,1.2,378.520,M,-35.767,M,4.6,0137*6A
$GPGGA,094639.70,3422.52432820,N,10853.97278365,E,2,07,1.2,378.517,M,-35.767,M,4.6,0137*65
$GPGGA,094639.80,3422.52422765,N,10853.97255723,E,2,07,1.2,378.519,M,-35.767,M,4.8,0137*6C
$GPGGA,094639.90,3422.52412562,N,10853.97232874,E,2,07,1.2,378.524,M,-35.767,M,4.8,0137*69
$GPGGA,094640.00,3422.52401556,N,10853.97208314,E,2,07,1.2,378.544,M,-35.767,M,5.0,0137*60
$GPGGA,094640.10,3422.52390177,N,10853.97182349,E,2,07,1.2,378.533,M,-35.767,M,5.0,0137*60
$GPGGA,094640.20,3422.52377721,N,10853.97154164,E,2,07,1.2,378.547,M,-35.767,M,5.2,0137*68
$GPGGA,094640.30,3422.52364713,N,10853.97124069,E,2,07,1.2,378.541,M,-35.767,M,5.2,0137*67
$GPGGA,094640.40,3422.52351252,N,10853.97091190,E,2,07,1.2,378.535,M,-35.767,M,5.4,0137*6B
$GPGGA,094640.50,3422.52336842,N,10853.97056937,E,2,07,1.2,378.531,M,-35.767,M,5.4,0137*6A
$GPGGA,094640.60,3422.52321353,N,10853.97020719,E,2,07,1.2,378.541,M,-35.767,M,5.6,0137*62
$GPGGA,094640.70,3422.52305453,N,10853.96982623,E,2,07,1.2,378.564,M,-35.767,M,5.6,0137*6D
$GPGGA,094640.80,3422.52289596,N,10853.96942218,E,2,07,1.2,378.560,M,-35.767,M,5.8,0137*65
$GPGGA,094640.90,3422.52272423,N,10853.96900125,E,2,07,1.2,378.531,M,-35.767,M,5.8,0137*60
$GPGGA,094641.00,3422.52254939,N,10853.96856344,E,2,07,1.2,378.564,M,-35.767,M,6.0,0137*66
$GPGGA,094641.10,3422.52236720,N,10853.96810464,E,2,07,1.2,378.565,M,-35.767,M,6.0,0137*63
$GPGGA,094641.20,3422.52218265,N,10853.96762816,E,2,07,1.2,378.572,M,-35.767,M,6.2,0137*6F
$GPGGA,094641.30,3422.52199497,N,10853.96713153,E,2,07,1.2,378.575,M,-35.767,M,6.2,0137*66
$GPGGA,094641.40,3422.52179943,N,10853.96661654,E,2,07,1.2,378.577,M,-35.767,M,6.4,0137*6B
$GPGGA,094641.50,3422.52160286,N,10853.96608013,E,2,07,1.2,378.566,M,-35.767,M,6.4,0137*6A
$GPGGA,094641.60,3422.52139944,N,10853.96552254,E,2,07,1.2,378.577,M,-35.767,M,6.6,0137*6F
$GPGGA,094641.70,3422.52119807,N,10853.96494653,E,2,07,1.2,378.548,M,-35.767,M,6.6,0137*6E
$GPGGA,094641.80,3422.52098762,N,10853.96435076,E,2,07,1.2,378.575,M,-35.767,M,6.8,0137*6F
$GPGGA,094641.90,3422.52077781,N,10853.96373850,E,2,07,1.2,378.572,M,-35.767,M,6.8,0137*6C
$GPGGA,094642.00,3422.52056800,N,10853.96310616,E,2,07,1.2,378.576,M,-35.767,M,7.0,0137*67
$GPGGA,094642.10,3422.52035651,N,10853.96246118,E,2,07,1.2,378.567,M,-35.767,M,7.0,0137*62
$GPGGA,094642.20,3422.52014384,N,10853.96179822,E,2,07,1.2,378.573,M,-35.767,M,7.2,0137*67
$GPGGA,094642.30,3422.51992461,N,10853.96111216,E,2,07,1.2,378.558,M,-35.767,M,7.2,0137*64
$GPGGA,094642.40,3422.51969970,N,10853.96041023,E,2,07,1.2,378.566,M,-35.767,M,7.4,0137*61
$GPGGA,094642.50,3422.51947078,N,10853.95969444,E,2,07,1.2,378.565,M,-35.767,M,7.4,0137*6B
$GPGGA,094642.60,3422.51924612,N,10853.95897642,E,2,07,1.2,378.618,M,-35.767,M,6.6,0137*69
$GPGGA,094642.70,3422.51900856,N,10853.95822157,E,2,07,1.2,378.623,M,-35.767,M,6.6,0137*65
$GPGGA,094642.80,3422.51877173,N,10853.95745204,E,2,07,1.2,378.633,M,-35.767,M,6.8,0137*61
$GPGGA,094642.90,3422.51853362,N,10853.95666620,E,2,07,1.2,378.638,M,-35.767,M,6.8,0137*6D
$GPGGA,094643.00,3422.51829382,N,10853.95586358,E,2,07,1.2,378.625,M,-35.767,M,7.0,0137*64
$GPGGA,094643.10,3422.51805243,N,10853.95504848,E,2,07,1.2,378.616,M,-35.767,M,7.0,0137*67
$GPGGA,094643.20,3422.51781503,N,10853.95421271,E,2,07,1.2,378.613,M,-35.767,M,7.2,0137*65
$GPGGA,094643.30,3422.51757135,N,10853.95336072,E,2,07,1.2,378.608,M,-35.767,M,7.2,0137*64
$GPGGA,094643.40,3422.51732250,N,10853.95249014,E,2,07,1.2,378.600,M,-35.767,M,7.4,0137*67
$GPGGA,094643.50,3422.51707739,N,10853.95162875,E,2,07,1.2,378.627,M,-35.767,M,7.4,0137*6A
$GPGGA,094643.60,3422.51682854,N,10853.95081441,E,2,07,1.2,378.727,M,-35.767,M,6.6,0137*64
$GPGGA,094643.70,3422.51656515,N,10853.94986333,E,2,07,1.2,378.664,M,-35.767,M,6.6,0137*6F
$GPGGA,094643.80,3422.51634301,N,10853.94890400,E,2,07,1.2,378.621,M,-35.767,M,6.8,0137*69
$GPGGA,094643.90,3422.51606097,N,10853.94798448,E,2,07,1.2,378.637,M,-35.767,M,6.8,0137*69
$GPGGA,094644.00,3422.51581452,N,10853.94695528,E,2,07,1.2,378.553,M,-35.767,M,7.0,0137*65
$GPGGA,094644.10,3422.51554848,N,10853.94600769,E,2,07,1.2,378.540,M,-35.767,M,7.0,0137*62
$GPGGA,094644.20,3422.51534192,N,10853.94490614,E,2,07,1.2,378.437,M,-35.767,M,7.2,0137*6A
$GPGGA,094644.30,3422.51506869,N,10853.94390270,E,2,07,1.2,378.371,M,-35.767,M,7.2,0137*63
$GPGGA,094644.40,3422.51481275,N,10853.94273399,E,2,07,1.2,378.290,M,-35.767,M,7.4,0137*6F
$GPGGA,094644.50,3422.51452250,N,10853.94170386,E,2,07,1.2,378.321,M,-35.767,M,7.4,0137*62
$GPGGA,094644.60,3422.51413631,N,10853.94091452,E,2,07,1.2,378.599,M,-35.767,M,7.6,0137*60
$GPGGA,094644.70,3422.51384894,N,10853.93989821,E,2,07,1.2,378.612,M,-35.767,M,7.6,0137*66
$GPGGA,094644.80,3422.51348068,N,10853.93887546,E,2,07,1.2,379.162,M,-35.767,M,7.8,0137*6E
$GPGGA,094644.90,3422.51319166,N,10853.93785321,E,2,07,1.2,379.174,M,-35.767,M,7.8,0137*69
$GPGGA,094645.00,3422.51292453,N,10853.93686375,E,2,07,1.2,378.829,M,-35.767,M,8.0,0137*64
$GPGGA,094645.10,3422.51263059,N,10853.93582091,E,2,07,1.2,378.833,M,-35.767,M,8.0,0137*60
$GPGGA,094645.20,3422.51236815,N,10853.93473506,E,2,07,1.2,378.721,M,-35.767,M,8.2,0137*69
$GPGGA,094645.30,3422.51207191,N,10853.93367697,E,2,07,1.2,378.716,M,-35.767,M,8.2,0137*62
$GPGGA,094645.40,3422.51175521,N,10853.93263484,E,2,07,1.2,378.717,M,-35.767,M,8.4,0137*6E
$GPGGA,094645.50,3422.51145559,N,10853.93155394,E,2,07,1.2,378.711,M,-35.767,M,8.4,0137*65
$GPGGA,094645.60,3422.51114077,N,10853.93046572,E,2,07,1.2,378.773,M,-35.767,M,8.6,0137*60
$GPGGA,094645.70,3422.51084023,N,10853.92937913,E,2,07,1.2,378.759,M,-35.767,M,8.6,0137*65
$GPGGA,094645.80,3422.51055066,N,10853.92830406,E,2,07,1.2,378.725,M,-35.767,M,8.8,0137*6D
$GPGGA,094645.90,3422.51024659,N,10853.92723092,E,2,07,1.2,378.732,M,-35.767,M,8.8,0137*62
$GPGGA,094646.00,3422.50995646,N,10853.92615727,E,2,07,1.2,378.658,M,-35.767,M,9.0,0137*6D
$GPGGA,094646.10,3422.50965689,N,10853.92508374,E,2,07,1.2,378.664,M,-35.767,M,9.0,0137*62
$GPGGA,094646.20,3422.50935188,N,10853.92400734,E,2,07,1.2,378.617,M,-35.767,M,9.2,0137*6D
$GPGGA,094646.30,3422.50906167,N,10853.92293881,E,2,07,1.2,378.616,M,-35.767,M,9.2,0137*61
$GPGGA,094646.40,3422.50876804,N,10853.92188703,E,2,07,1.2,378.629,M,-35.767,M,9.4,0137*6A
$GPGGA,094646.50,3422.50847455,N,10853.92081235,E,2,07,1.2,378.637,M,-35.767,M,9.4,0137*66
$GPGGA,094646.60,3422.50817738,N,10853.91972766,E,2,07,1.2,378.680,M,-35.767,M,9.6,0137*63
$GPGGA,094646.70,3422.50789135,N,10853.91867247,E,2,07,1.2,378.676,M,-35.767,M,9.6,0137*6B
$GPGGA,094646.80,3422.50764248,N,10853.91761428,E,2,07,1.2,378.578,M,-35.767,M,9.8,0137*6B
$GPGGA,094646.90,3422.50736254,N,10853.91658713,E,2,07,1.2,378.582,M,-35.767,M,9.8,0137*65
$GPGGA,094647.00,3422.50707539,N,10853.91558688,E,2,07,1.2,378.590,M,-35.767,M,10.0,0137*50
$GPGGA,094647.10,3422.50679947,N,10853.91458771,E,2,07,1.2,378.593,M,-35.767,M,10.0,0137*59
$GPGGA,094647.20,3422.50651453,N,10853.91360232,E,2,07,1.2,378.688,M,-35.767,M,10.2,0137*5D
$GPGGA,094647.30,3422.50624843,N,10853.91263608,E,2,07,1.2,378.675,M,-35.767,M,10.2,0137*5E
$GPGGA,094647.40,3422.50599253,N,10853.91167927,E,2,07,1.2,378.570,M,-35.767,M,10.4,0137*52
$GPGGA,094647.50,3422.50573430,N,10853.91074021,E,2,07,1.2,378.575,M,-35.767,M,10.4,0137*5D
$GPGGA,094647.60,3422.50547312,N,10853.90981882,E,2,07,1.2,378.650,M,-35.767,M,10.6,0137*5B
$GPGGA,094647.70,3422.50522181,N,10853.90890532,E,2,07,1.2,378.643,M,-35.767,M,10.6,0137*54
$GPGGA,094647.80,3422.50498311,N,10853.90800508,E,2,07,1.2,378.589,M,-35.767,M,10.8,0137*5B
$GPGGA,094647.90,3422.50474074,N,10853.90712015,E,2,07,1.2,378.591,M,-35.767,M,10.8,0137*54
$GPGGA,094648.00,3422.50451210,N,10853.90621439,E,2,07,1.2,378.549,M,-35.767,M,11.0,0137*52
$GPGGA,094648.10,3422.50428088,N,10853.90535254,E,2,07,1.2,378.543,M,-35.767,M,11.0,0137*5F
$GPGGA,094648.20,3422.50404896,N,10853.90454589,E,2,07,1.2,378.588,M,-35.767,M,11.2,0137*51
$GPGGA,094648.30,3422.50382971,N,10853.90371686,E,2,07,1.2,378.581,M,-35.767,M,11.2,0137*54
$GPGGA,094648.40,3422.50360418,N,10853.90289514,E,2,07,1.2,378.573,M,-35.767,M,11.4,0137*58
$GPGGA,094648.50,3422.50340237,N,10853.90209526,E,2,07,1.2,378.457,M,-35.767,M,11.4,0137*5E
$GPGGA,094648.60,3422.50317090,N,10853.90130723,E,2,07,1.2,378.585,M,-35.767,M,11.6,0137*52
$GPGGA,094648.70,3422.50296331,N,10853.90053185,E,2,07,1.2,378.586,M,-35.767,M,11.6,0137*5E
$GPGGA,094648.80,3422.50276038,N,10853.89976210,E,2,07,1.2,378.596,M,-35.767,M,11.8,0137*53
$GPGGA,094648.90,3422.50256271,N,10853.89900583,E,2,07,1.2,378.584,M,-35.767,M,11.8,0137*50
$GPGGA,094649.00,3422.50236668,N,10853.89826000,E,2,07,1.2,378.573,M,-35.767,M,12.0,0137*5A
$GPGGA,094649.10,3422.50217735,N,10853.89752556,E,2,07,1.2,378.578,M,-35.767,M,12.0,0137*50
$GPGGA,094649.20,3422.50198877,N,10853.89680442,E,2,07,1.2,378.586,M,-35.767,M,12.2,0137*57
$GPGGA,094649.30,3422.50180769,N,10853.89608996,E,2,07,1.2,378.586,M,-35.767,M,12.2,0137*5B
$GPGGA,094649.40,3422.50162438,N,10853.89538495,E,2,07,1.2,378.578,M,-35.767,M,12.4,0137*5E
$GPGGA,094649.50,3422.50145099,N,10853.89469468,E,2,07,1.2,378.567,M,-35.767,M,12.4,0137*5C
$GPGGA,094649.60,3422.50127203,N,10853.89401916,E,2,07,1.2,378.556,M,-35.767,M,12.6,0137*50
$GPGGA,094649.70,3422.50110265,N,10853.89335140,E,2,07,1.2,378.545,M,-35.767,M,12.6,0137*5C
$GPGGA,094649.80,3422.50093166,N,10853.89269599,E,2,07,1.2,378.553,M,-35.767,M,12.8,0137*58
$GPGGA,094649.90,3422.50076248,N,10853.89204817,E,2,07,1.2,378.569,M,-35.767,M,12.8,0137*54
$GPGGA,094650.00,3422.50059966,N,10853.89141237,E,2,07,1.2,378.546,M,-35.767,M,13.0,0137*51
$GPGGA,094650.10,3422.50043676,N,10853.89078873,E,2,07,1.2,378.554,M,-35.767,M,13.0,0137*57
$GPGGA,094650.20,3422.50027215,N,10853.89017566,E,2,07,1.2,378.555,M,-35.767,M,13.2,0137*54
$GPGGA,094650.30,3422.50011241,N,10853.88957213,E,2,07,1.2,378.549,M,-35.767,M,13.2,0137*55
$GPGGA,094650.40,3422.49995443,N,10853.88897951,E,2,07,1.2,378.549,M,-35.767,M,13.4,0137*5D
$GPGGA,094650.50,3422.49979859,N,10853.88839767,E,2,07,1.2,378.542,M,-35.767,M,13.4,0137*5D
$GPGGA,094650.60,3422.49964163,N,10853.88782968,E,2,07,1.2,378.554,M,-35.767,M,3.6,0137*68
$GPGGA,094650.70,3422.49949260,N,10853.88727239,E,2,07,1.2,378.545,M,-35.767,M,3.6,0137*66
$GPGGA,094650.80,3422.49934432,N,10853.88672321,E,2,07,1.2,378.563,M,-35.767,M,3.8,0137*61
$GPGGA,094650.90,3422.49919642,N,10853.88617839,E,2,07,1.2,378.554,M,-35.767,M,3.8,0137*6F
$GPGGA,094651.00,3422.49905562,N,10853.88564832,E,2,07,1.2,378.549,M,-35.767,M,4.0,0137*64
$GPGGA,094651.10,3422.49891886,N,10853.88512870,E,2,07,1.2,378.547,M,-35.767,M,4.0,0137*67
$GPGGA,094651.20,3422.49878394,N,10853.88461595,E,2,07,1.2,378.547,M,-35.767,M,4.2,0137*6A
$GPGGA,094651.30,3422.49865159,N,10853.88411485,E,2,07,1.2,378.540,M,-35.767,M,4.2,0137*64
$GPGGA,094651.40,3422.49851876,N,10853.88361944,E,2,07,1.2,378.537,M,-35.767,M,4.4,0137*66
$GPGGA,094651.50,3422.49838800,N,10853.88313403,E,2,07,1.2,378.530,M,-35.767,M,4.4,0137*65
$GPGGA,094651.60,3422.49826433,N,10853.88265460,E,2,07,1.2,378.550,M,-35.767,M,4.6,0137*64
$GPGGA,094651.70,3422.49813991,N,10853.88218721,E,2,07,1.2,378.535,M,-35.767,M,4.6,0137*69
$GPGGA,094651.80,3422.49801534,N,10853.88173036,E,2,07,1.2,378.538,M,-35.767,M,4.8,0137*6A
$GPGGA,094651.90,3422.49789435,N,10853.88127895,E,2,07,1.2,378.546,M,-35.767,M,4.8,0137*6D
$GPGGA,094652.00,3422.49777870,N,10853.88083473,E,2,07,1.2,378.528,M,-35.767,M,5.0,0137*61
$GPGGA,094652.10,3422.49766309,N,10853.88040031,E,2,07,1.2,378.542,M,-35.767,M,5.0,0137*64
$GPGGA,094652.20,3422.49754837,N,10853.87997084,E,2,07,1.2,378.541,M,-35.767,M,5.2,0137*63
$GPGGA,094652.30,3422.49743526,N,10853.87955675,E,2,07,1.2,378.533,M,-35.767,M,5.2,0137*6A
$GPGGA,094652.40,3422.49732665,N,10853.87914754,E,2,07,1.2,378.534,M,-35.767,M,5.4,0137*69
$GPGGA,094652.50,3422.49721817,N,10853.87874688,E,2,07,1.2,378.552,M,-35.767,M,5.4,0137*66
$GPGGA,094652.60,3422.49711146,N,10853.87835931,E,2,07,1.2,378.549,M,-35.767,M,5.6,0137*6B
$GPGGA,094652.70,3422.49700914,N,10853.87797925,E,2,07,1.2,378.549,M,-35.767,M,5.6,0137*67
$GPGGA,094652.80,3422.49691512,N,10853.87761095,E,2,07,1.2,378.543,M,-35.767,M,5.8,0137*64
$GPGGA,094652.90,3422.49681700,N,10853.87724956,E,2,07,1.2,378.554,M,-35.767,M,5.8,0137*64
$GPGGA,094653.00,3422.49672252,N,10853.87689896,E,2,07,1.2,378.558,M,-35.767,M,6.0,0137*6E
$GPGGA,094653.10,3422.49663370,N,10853.87656011,E,2,07,1.2,378.537,M,-35.767,M,6.0,0137*62
$GPGGA,094653.20,3422.49654420,N,10853.87623563,E,2,07,1.2,378.553,M,-35.767,M,6.2,0137*65
$GPGGA,094653.30,3422.49646092,N,10853.87591051,E,2,07,1.2,378.552,M,-35.767,M,6.2,0137*65
$GPGGA,094653.40,3422.49637976,N,10853.87560177,E,2,07,1.2,378.557,M,-35.767,M,6.4,0137*6F
$GPGGA,094653.50,3422.49629786,N,10853.87530072,E,2,07,1.2,378.555,M,-35.767,M,6.4,0137*63
$GPGGA,094653.60,3422.49622113,N,10853.87501241,E,2,07,1.2,378.549,M,-35.767,M,6.6,0137*6E
$GPGGA,094653.70,3422.49614849,N,10853.87472901,E,2,07,1.2,378.554,M,-35.767,M,6.6,0137*6A
$GPGGA,094653.80,3422.49607105,N,10853.87445782,E,2,07,1.2,378.567,M,-35.767,M,6.8,0137*69
$GPGGA,094653.90,3422.49600535,N,10853.87419653,E,2,07,1.2,378.552,M,-35.767,M,6.8,0137*6A
$GPGGA,094654.00,3422.49593723,N,10853.87393950,E,2,07,1.2,378.564,M,-35.767,M,7.0,0137*6D
$GPGGA,094654.10,3422.49586708,N,10853.87369121,E,2,07,1.2,378.558,M,-35.767,M,7.0,0137*65
$GPGGA,094654.20,3422.49580469,N,10853.87345745,E,2,07,1.2,378.557,M,-35.767,M,7.2,0137*63
$GPGGA,094654.30,3422.49574151,N,10853.87322187,E,2,07,1.2,378.562,M,-35.767,M,7.2,0137*68
$GPGGA,094654.40,3422.49568450,N,10853.87299760,E,2,07,1.2,378.563,M,-35.767,M,7.4,0137*6F
$GPGGA,094654.50,3422.49562143,N,10853.87278263,E,2,07,1.2,378.584,M,-35.767,M,7.4,0137*63
$GPGGA,094654.60,3422.49556587,N,10853.87255583,E,2,07,1.2,378.587,M,-35.767,M,6.6,0137*6D
$GPGGA,094654.70,3422.49551138,N,10853.87234979,E,2,07,1.2,378.562,M,-35.767,M,6.6,0137*6E
$GPGGA,094654.80,3422.49545098,N,10853.87214617,E,2,07,1.2,378.582,M,-35.767,M,6.8,0137*6A
$GPGGA,094654.90,3422.49539230,N,10853.87194349,E,2,07,1.2,378.576,M,-35.767,M,6.8,0137*6E
$GPGGA,094655.00,3422.49532937,N,10853.87174348,E,2,07,1.2,378.592,M,-35.767,M,7.0,0137*6D
$GPGGA,094655.10,3422.49526908,N,10853.87153994,E,2,07,1.2,378.586,M,-35.767,M,7.0,0137*6E
$GPGGA,094655.20,3422.49520480,N,10853.87134238,E,2,07,1.2,378.589,M,-35.767,M,7.2,0137*67
$GPGGA,094655.30,3422.49513333,N,10853.87114616,E,2,07,1.2,378.590,M,-35.767,M,7.2,0137*6B
$GPGGA,094655.40,3422.49505655,N,10853.87095645,E,2,07,1.2,378.607,M,-35.767,M,7.4,0137*6B
$GPGGA,094655.50,3422.49497010,N,10853.87077256,E,2,07,1.2,378.593,M,-35.767,M,7.4,0137*63
$GPGGA,094655.60,3422.49489068,N,10853.87056946,E,2,07,1.2,378.584,M,-35.767,M,6.6,0137*6C
$GPGGA,094655.70,3422.49479641,N,10853.87039479,E,2,07,1.2,378.592,M,-35.767,M,6.6,0137*60
$GPGGA,094655.80,3422.49469921,N,10853.87022120,E,2,07,1.2,378.598,M,-35.767,M,6.8,0137*60
$GPGGA,094655.90,3422.49460373,N,10853.87004441,E,2,07,1.2,378.573,M,-35.767,M,6.8,0137*66
$GPGGA,094656.00,3422.49450094,N,10853.86987326,E,2,07,1.2,378.571,M,-35.767,M,7.0,0137*6B
