$GPGGA,081411.00,3422.44043687,N,10853.99549792,E,1,03,6.1,377.603,M,-35.766,M,,*4D
$GPGGA,081411.10,3422.44043818,N,10853.99549830,E,1,03,6.1,377.603,M,-35.766,M,,*43
$GPGGA,081411.20,3422.44049785,N,10853.99558854,E,1,03,6.1,377.603,M,-35.766,M,,*43
$GPGGA,081411.30,3422.44050067,N,10853.99558955,E,1,03,6.1,377.603,M,-35.766,M,,*41
$GPGGA,081411.40,3422.44060159,N,10853.99564982,E,1,03,6.1,377.603,M,-35.766,M,,*4C
$GPGGA,081411.50,3422.44059746,N,10853.99565078,E,1,03,6.1,377.603,M,-35.766,M,,*42
$GPGGA,081411.60,3422.44070930,N,10853.99572696,E,1,03,6.1,377.604,M,-35.766,M,,*42
$GPGGA,081411.70,3422.44071063,N,10853.99572777,E,1,03,6.1,377.604,M,-35.766,M,,*43
$GPGGA,081411.80,3422.44080575,N,10853.99580056,E,1,03,6.1,377.604,M,-35.766,M,,*49
$GPGGA,081411.90,3422.44079287,N,10853.99579302,E,1,03,6.1,377.604,M,-35.766,M,,*40
$GPGGA,081412.00,3422.44087889,N,10853.99583558,E,1,03,6.1,377.604,M,-35.766,M,,*43
$GPGGA,081412.10,3422.44087252,N,10853.99583274,E,1,03,6.1,377.604,M,-35.766,M,,*47
$GPGGA,081412.20,3422.44088320,N,10853.99585441,E,1,03,6.1,377.604,M,-35.766,M,,*49
$GPGGA,081412.30,3422.44087876,N,10853.99585069,E,1,03,6.1,377.603,M,-35.766,M,,*46
$GPGGA,081412.40,3422.44089097,N,10853.99585029,E,1,03,6.1,377.604,M,-35.766,M,,*4B
$GPGGA,081412.50,3422.44090037,N,10853.99585046,E,1,03,6.1,377.604,M,-35.766,M,,*41
$GPGGA,081412.60,3422.44090024,N,10853.99587401,E,1,03,6.1,377.603,M,-35.766,M,,*42
$GPGGA,081412.70,3422.44090587,N,10853.99587501,E,1,03,6.1,377.603,M,-35.766,M,,*4E
$GPGGA,081412.80,3422.44090800,N,10853.99589545,E,1,03,6.1,377.603,M,-35.766,M,,*4D
$GPGGA,081412.90,3422.44090781,N,10853.99589790,E,1,03,6.1,377.603,M,-35.766,M,,*40
$GPGGA,081413.00,3422.44089627,N,10853.99590269,E,1,03,6.1,377.603,M,-35.766,M,,*46
$GPGGA,081413.10,3422.44088776,N,10853.99589954,E,1,03,6.1,377.603,M,-35.766,M,,*4E
$GPGGA,081413.20,3422.44092174,N,10853.99592626,E,1,03,6.1,377.604,M,-35.766,M,,*45
$GPGGA,081413.30,3422.44091906,N,10853.99592735,E,1,03,6.1,377.604,M,-35.766,M,,*49
$GPGGA,081413.40,3422.43825171,N,10853.99513847,E,1,06,1.4,375.001,M,-35.766,M,,*43
$GPGGA,081413.50,3422.43825451,N,10853.99513978,E,1,06,1.4,375.004,M,-35.766,M,,*4D
$GPGGA,081413.60,3422.43897358,N,10853.99513421,E,1,08,1.0,373.337,M,-35.766,M,,*47
$GPGGA,081413.70,3422.43897501,N,10853.99513403,E,1,08,1.0,373.335,M,-35.766,M,,*4E
$GPGGA,081413.80,3422.43897999,N,10853.99509906,E,1,08,1.0,373.360,M,-35.766,M,,*4F
$GPGGA,081413.90,3422.43898103,N,10853.99510053,E,1,08,1.0,373.363,M,-35.766,M,,*48
$GPGGA,081414.00,3422.43901818,N,10853.99510130,E,1,08,1.0,373.347,M,-35.766,M,,*46
$GPGGA,081414.10,3422.43901813,N,10853.99510174,E,1,08,1.0,373.348,M,-35.766,M,,*43
$GPGGA,081414.20,3422.43909407,N,10853.99509134,E,1,08,1.0,373.367,M,-35.766,M,,*40
$GPGGA,081414.30,3422.43909578,N,10853.99509102,E,1,08,1.0,373.368,M,-35.766,M,,*42
$GPGGA,081414.40,3422.43912015,N,10853.99508825,E,1,08,1.0,373.303,M,-35.766,M,,*41
$GPGGA,081414.50,3422.43912040,N,10853.99508800,E,1,08,1.0,373.303,M,-35.766,M,,*47
$GPGGA,081633.40,3422.51128822,N,10854.00998720,E,2,08,1.0,373.832,M,-35.767,M,3.4,0100*63
$GPGGA,081633.50,3422.51156788,N,10854.00991089,E,2,08,1.0,373.839,M,-35.767,M,3.5,0100*63
$GPGGA,081633.60,3422.51184421,N,10854.00981797,E,2,08,1.0,373.836,M,-35.767,M,3.6,0100*6A
$GPGGA,081633.70,3422.51210908,N,10854.00971089,E,2,08,1.0,373.831,M,-35.767,M,3.7,0100*62
$GPGGA,081633.80,3422.51237116,N,10854.00959293,E,2,08,1.0,373.834,M,-35.767,M,3.8,0100*66
$GPGGA,081633.90,3422.51262615,N,10854.00946080,E,2,08,1.0,373.833,M,-35.767,M,3.9,0100*6B
$GPGGA,081634.00,3422.51287481,N,10854.00932742,E,2,08,1.0,373.825,M,-35.767,M,4.0,0100*62
$GPGGA,081634.10,3422.51311876,N,10854.00919850,E,2,08,1.0,373.835,M,-35.767,M,4.1,0100*6C
$GPGGA,081634.20,3422.51336117,N,10854.00905754,E,2,08,1.0,373.833,M,-35.767,M,4.2,0100*67
$GPGGA,081634.30,3422.51360911,N,10854.00890667,E,2,08,1.0,373.840,M,-35.767,M,4.3,0100*62
$GPGGA,081634.40,3422.51385042,N,10854.00874622,E,2,08,1.0,373.832,M,-35.768,M,4.4,0100*67
$GPGGA,081634.50,3422.51409009,N,10854.00858209,E,2,08,1.0,373.831,M,-35.768,M,4.5,0100*6B
$GPGGA,081634.60,3422.51432328,N,10854.00841128,E,2,08,1.0,373.837,M,-35.768,M,4.6,0100*6D
$GPGGA,081634.70,3422.51454525,N,10854.00822998,E,2,08,1.0,373.845,M,-35.768,M,4.7,0100*65
$GPGGA,081634.80,3422.51477236,N,10854.00804629,E,2,08,1.0,373.843,M,-35.768,M,4.8,0100*66
$GPGGA,081634.90,3422.51499065,N,10854.00784544,E,2,08,1.0,373.843,M,-35.768,M,4.9,0100*6D
$GPGGA,081635.00,3422.51520735,N,10854.00763771,E,2,08,1.0,373.844,M,-35.768,M,5.0,0100*66
$GPGGA,081635.10,3422.51541681,N,10854.00742241,E,2,08,1.0,373.853,M,-35.768,M,5.1,0100*6C
$GPGGA,081635.20,3422.51562123,N,10854.00719992,E,2,08,1.0,373.842,M,-35.768,M,5.2,0100*69
$GPGGA,081635.30,3422.51582410,N,10854.00696352,E,2,08,1.0,373.841,M,-35.768,M,5.3,0100*61
$GPGGA,081635.40,3422.51602064,N,10854.00672171,E,2,08,1.0,373.829,M,-35.768,M,5.4,0100*6A
$GPGGA,081635.50,3422.51621822,N,10854.00647892,E,2,08,1.0,373.835,M,-35.768,M,5.5,0100*6E
$GPGGA,081635.60,3422.51640930,N,10854.00623748,E,2,08,1.0,373.841,M,-35.768,M,5.6,0100*62
$GPGGA,081635.70,3422.51659116,N,10854.00599112,E,2,08,1.0,373.841,M,-35.768,M,5.7,0100*6D
$GPGGA,081635.80,3422.51676052,N,10854.00573545,E,2,08,1.0,373.833,M,-35.768,M,5.8,0100*66
$GPGGA,081635.90,3422.51692281,N,10854.00547876,E,2,08,1.0,373.835,M,-35.768,M,5.9,0100*6C
$GPGGA,081636.00,3422.51709143,N,10854.00522625,E,2,08,1.0,373.825,M,-35.768,M,6.0,0100*68
$GPGGA,081636.10,3422.51726054,N,10854.00497301,E,2,08,1.0,373.842,M,-35.768,M,6.1,0100*6F
$GPGGA,081636.20,3422.51742833,N,10854.00471026,E,2,08,1.0,373.839,M,-35.768,M,6.2,0100*66
$GPGGA,081636.30,3422.51759047,N,10854.00444633,E,2,08,1.0,373.840,M,-35.768,M,6.3,0100*6D
$GPGGA,081636.40,3422.51775458,N,10854.00418932,E,2,08,1.0,373.839,M,-35.768,M,6.4,0100*60
$GPGGA,081636.50,3422.51791707,N,10854.00394115,E,2,08,1.0,373.833,M,-35.768,M,6.5,0100*67
$GPGGA,081636.60,3422.51807837,N,10854.00369563,E,2,08,1.0,373.845,M,-35.768,M,6.6,0100*6D
$GPGGA,081636.70,3422.51823650,N,10854.00344212,E,2,08,1.0,373.849,M,-35.768,M,6.7,0100*66
$GPGGA,081636.80,3422.51839349,N,10854.00318486,E,2,08,1.0,373.845,M,-35.768,M,6.8,0100*6E
$GPGGA,081636.90,3422.51855010,N,10854.00292626,E,2,08,1.0,373.844,M,-35.768,M,6.9,0100*61
$GPGGA,081637.00,3422.51870871,N,10854.00267291,E,2,08,1.0,373.840,M,-35.768,M,7.0,0100*6F
$GPGGA,081637.10,3422.51887228,N,10854.00241373,E,2,08,1.0,373.842,M,-35.768,M,7.1,0100*6A
$GPGGA,081637.20,3422.51904028,N,10854.00214754,E,2,08,1.0,373.856,M,-35.768,M,7.2,0100*66
$GPGGA,081637.30,3422.51920727,N,10854.00187088,E,2,08,1.0,373.855,M,-35.768,M,7.3,0100*64
$GPGGA,081637.40,3422.51937303,N,10854.00158756,E,2,08,1.0,373.866,M,-35.768,M,7.4,0100*66
$GPGGA,081637.50,3422.51953809,N,10854.00130163,E,2,08,1.0,373.861,M,-35.768,M,7.5,0100*6C
$GPGGA,081637.60,3422.51970896,N,10854.00101914,E,2,08,1.0,373.875,M,-35.768,M,7.6,0100*64
$GPGGA,081637.70,3422.51988313,N,10854.00072433,E,2,08,1.0,373.880,M,-35.768,M,7.7,0100*62
$GPGGA,081637.80,3422.52005708,N,10854.00042509,E,2,08,1.0,373.884,M,-35.768,M,7.8,0100*6C
$GPGGA,081637.90,3422.52023395,N,10854.00011978,E,2,08,1.0,373.883,M,-35.768,M,7.9,0100*63
$GPGGA,081638.00,3422.52041270,N,10853.99981256,E,2,08,1.0,373.889,M,-35.768,M,8.0,0100*67
$GPGGA,081638.10,3422.52059644,N,10853.99950653,E,2,08,1.0,373.897,M,-35.768,M,8.1,0100*6F
$GPGGA,081638.20,3422.52078471,N,10853.99918866,E,2,08,1.0,373.903,M,-35.768,M,8.2,0100*60
$GPGGA,081638.30,3422.52096660,N,10853.99886481,E,2,08,1.0,373.908,M,-35.768,M,8.3,0100*6A
$GPGGA,081638.40,3422.52115322,N,10853.99854134,E,2,08,1.0,373.911,M,-35.768,M,8.4,0100*6F
$GPGGA,081638.50,3422.52132876,N,10853.99821749,E,2,08,1.0,373.912,M,-35.768,M,8.5,0100*6D
$GPGGA,081638.60,3422.52150857,N,10853.99790055,E,2,08,1.0,373.923,M,-35.768,M,8.6,0100*67
$GPGGA,081638.70,3422.52168234,N,10853.99759383,E,2,08,1.0,373.931,M,-35.768,M,8.7,0100*6D
$GPGGA,081638.80,3422.52185147,N,10853.99729016,E,2,08,1.0,373.941,M,-35.768,M,8.8,0100*66
$GPGGA,081638.90,3422.52201612,N,10853.99698686,E,2,08,1.0,373.935,M,-35.769,M,8.9,0100*68
$GPGGA,081639.00,3422.52217421,N,10853.99668324,E,2,08,1.0,373.938,M,-35.769,M,9.0,0100*62
$GPGGA,081639.10,3422.52233366,N,10853.99636900,E,2,08,1.0,373.947,M,-35.769,M,9.1,0100*6F
$GPGGA,081639.20,3422.52250017,N,10853.99605720,E,2,08,1.0,373.949,M,-35.769,M,9.2,0100*6D
$GPGGA,081639.30,3422.52266939,N,10853.99573868,E,2,08,1.0,373.947,M,-35.769,M,9.3,0100*62
$GPGGA,081639.40,3422.52283100,N,10853.99542069,E,2,08,1.0,373.959,M,-35.769,M,9.4,0100*6F
$GPGGA,081639.50,3422.52299269,N,10853.99510554,E,2,08,1.0,373.960,M,-35.769,M,9.5,0100*6E
$GPGGA,081639.60,3422.52314850,N,10853.99478663,E,2,08,1.0,373.963,M,-35.769,M,9.6,0100*61
$GPGGA,081639.70,3422.52330394,N,10853.99446400,E,2,08,1.0,373.953,M,-35.769,M,9.7,0100*6D
$GPGGA,081639.80,3422.52345349,N,10853.99413616,E,2,08,1.0,373.952,M,-35.769,M,9.8,0100*6B
$GPGGA,081639.90,3422.52360602,N,10853.99381011,E,2,08,1.0,373.948,M,-35.769,M,9.9,0100*60
$GPGGA,081640.00,3422.52375288,N,10853.99348744,E,2,08,1.0,373.956,M,-35.769,M,10.0,0100*59
$GPGGA,081640.10,3422.52389991,N,10853.99316228,E,2,08,1.0,373.955,M,-35.769,M,10.1,0100*5E
$GPGGA,081640.20,3422.52404212,N,10853.99283252,E,2,08,1.0,373.951,M,-35.769,M,10.2,0100*58
$GPGGA,081640.30,3422.52417606,N,10853.99250135,E,2,08,1.0,373.945,M,-35.769,M,10.3,0100*52
$GPGGA,081640.40,3422.52431110,N,10853.99217018,E,2,08,1.0,373.952,M,-35.769,M,10.4,0100*5D
$GPGGA,081640.50,3422.52444152,N,10853.99184126,E,2,08,1.0,373.972,M,-35.769,M,10.5,0100*5E
$GPGGA,081640.60,3422.52456824,N,10853.99150798,E,2,08,1.0,373.977,M,-35.769,M,10.6,0100*5A
$GPGGA,081640.70,3422.52468947,N,10853.99116955,E,2,08,1.0,373.982,M,-35.769,M,10.7,0100*54
$GPGGA,081640.80,3422.52480118,N,10853.99082949,E,2,08,1.0,373.990,M,-35.769,M,10.8,0100*52
$GPGGA,081640.90,3422.52490829,N,10853.99048544,E,2,08,1.0,373.990,M,-35.769,M,10.9,0100*5F
$GPGGA,081641.00,3422.52502010,N,10853.99014774,E,2,08,1.0,373.999,M,-35.769,M,4.6,0100*64
$GPGGA,081641.10,3422.52512102,N,10853.98979740,E,2,08,1.0,373.998,M,-35.769,M,4.7,0100*62
$GPGGA,081641.20,3422.52521812,N,10853.98945150,E,2,08,1.0,374.023,M,-35.769,M,4.8,0100*60
$GPGGA,081641.30,3422.52530616,N,10853.98910418,E,2,08,1.0,374.015,M,-35.769,M,4.9,0100*66
$GPGGA,081641.40,3422.52539040,N,10853.98876194,E,2,08,1.0,374.018,M,-35.769,M,5.0,0100*68
$GPGGA,081641.50,3422.52547725,N,10853.98842171,E,2,08,1.0,374.014,M,-35.769,M,5.1,0100*65
$GPGGA,081641.60,3422.52555189,N,10853.98808120,E,2,08,1.0,374.007,M,-35.769,M,5.2,0100*6E
$GPGGA,081641.70,3422.52561145,N,10853.98773992,E,2,08,1.0,374.001,M,-35.769,M,5.3,0100*6D
$GPGGA,081641.80,3422.52566150,N,10853.98739451,E,2,08,1.0,373.995,M,-35.769,M,5.4,0100*69
$GPGGA,081641.90,3422.52571338,N,10853.98705019,E,2,08,1.0,373.991,M,-35.769,M,5.5,0100*60
$GPGGA,081642.00,3422.52576668,N,10853.98671116,E,2,08,1.0,373.991,M,-35.769,M,5.6,0100*62
$GPGGA,081642.10,3422.52581845,N,10853.98636922,E,2,08,1.0,373.995,M,-35.769,M,5.7,0100*63
$GPGGA,081642.20,3422.52585102,N,10853.98602058,E,2,08,1.0,373.988,M,-35.769,M,5.8,0100*6E
$GPGGA,081642.30,3422.52586859,N,10853.98567801,E,2,08,1.0,373.983,M,-35.769,M,5.9,0100*65
$GPGGA,081642.40,3422.52587743,N,10853.98533077,E,2,08,1.0,373.981,M,-35.770,M,6.0,0100*6F
$GPGGA,081642.50,3422.52588242,N,10853.98498949,E,2,08,1.0,373.978,M,-35.770,M,6.1,0100*66
$GPGGA,081642.60,3422.52589391,N,10853.98464393,E,2,08,1.0,373.963,M,-35.770,M,6.2,0100*6C
$GPGGA,081642.70,3422.52589204,N,10853.98429403,E,2,08,1.0,373.963,M,-35.770,M,6.3,0100*66
$GPGGA,081642.80,3422.52587999,N,10853.98394700,E,2,08,1.0,373.953,M,-35.770,M,6.4,0100*6D
$GPGGA,081642.90,3422.52585973,N,10853.98359966,E,2,08,1.0,373.952,M,-35.770,M,6.5,0100*65
$GPGGA,081643.00,3422.52583564,N,10853.98325844,E,2,08,1.0,373.950,M,-35.770,M,6.6,0100*6A
$GPGGA,081643.10,3422.52580983,N,10853.98291467,E,2,08,1.0,373.940,M,-35.770,M,6.7,0100*6E
$GPGGA,081643.20,3422.52577825,N,10853.98256752,E,2,08,1.0,373.932,M,-35.770,M,6.8,0100*6C
$GPGGA,081643.30,3422.52574869,N,10853.98221946,E,2,08,1.0,373.921,M,-35.770,M,6.9,0100*6E
$GPGGA,081643.40,3422.52571408,N,10853.98185939,E,2,08,1.0,373.910,M,-35.770,M,7.0,0100*68
$GPGGA,081643.50,3422.52567667,N,10853.98150005,E,2,08,1.0,373.917,M,-35.770,M,7.1,0100*6D
$GPGGA,081643.60,3422.52563164,N,10853.98114361,E,2,08,1.0,373.920,M,-35.770,M,7.2,0100*68
$GPGGA,081643.70,3422.52558219,N,10853.98078562,E,2,08,1.0,373.908,M,-35.770,M,7.3,0100*6D
$GPGGA,081643.80,3422.52552757,N,10853.98042858,E,2,08,1.0,373.901,M,-35.770,M,7.4,0100*64
$GPGGA,081643.90,3422.52546987,N,10853.98007278,E,2,08,1.0,373.896,M,-35.770,M,7.5,0100*64
$GPGGA,081644.00,3422.52540456,N,10853.97971560,E,2,08,1.0,373.898,M,-35.770,M,7.6,0100*69
$GPGGA,081644.10,3422.52533993,N,10853.97935749,E,2,08,1.0,373.901,M,-35.770,M,7.7,0100*61
$GPGGA,081644.20,3422.52526424,N,10853.97899486,E,2,08,1.0,373.884,M,-35.770,M,7.8,0100*63
$GPGGA,081644.30,3422.52518918,N,10853.97863507,E,2,08,1.0,373.884,M,-35.770,M,7.9,0100*61
$GPGGA,081644.40,3422.52510601,N,10853.97827664,E,2,08,1.0,373.893,M,-35.770,M,8.0,0100*6F
$GPGGA,081644.50,3422.52502310,N,10853.97792007,E,2,08,1.0,373.888,M,-35.770,M,8.1,0100*61
$GPGGA,081644.60,3422.52493753,N,10853.97756679,E,2,08,1.0,373.882,M,-35.770,M,8.2,0100*66
$GPGGA,081644.70,3422.52484827,N,10853.97721056,E,2,08,1.0,373.889,M,-35.770,M,8.3,0100*6C
$GPGGA,081644.80,3422.52475279,N,10853.97685490,E,2,08,1.0,373.881,M,-35.770,M,8.4,0100*62
$GPGGA,081644.90,3422.52465887,N,10853.97649561,E,2,08,1.0,373.877,M,-35.770,M,8.5,0100*6E
$GPGGA,081645.00,3422.52456607,N,10853.97614176,E,2,08,1.0,373.880,M,-35.770,M,8.6,0100*61
$GPGGA,081645.10,3422.52446980,N,10853.97578088,E,2,08,1.0,373.882,M,-35.770,M,8.7,0100*6B
$GPGGA,081645.20,3422.52437237,N,10853.97542264,E,2,08,1.0,373.875,M,-35.770,M,8.8,0100*67
$GPGGA,081645.30,3422.52426884,N,10853.97506697,E,2,08,1.0,373.872,M,-35.770,M,8.9,0100*6A
$GPGGA,081645.40,3422.52416592,N,10853.97471126,E,2,08,1.0,373.865,M,-35.770,M,9.0,0100*66
$GPGGA,081645.50,3422.52405468,N,10853.97435428,E,2,08,1.0,373.873,M,-35.770,M,9.1,0100*6C
$GPGGA,081645.60,3422.52395002,N,10853.97399792,E,2,08,1.0,373.870,M,-35.770,M,9.2,0100*6A
$GPGGA,081645.70,3422.52383520,N,10853.97364405,E,2,08,1.0,373.875,M,-35.770,M,9.3,0100*62
$GPGGA,081645.80,3422.52371951,N,10853.97328802,E,2,08,1.0,373.868,M,-35.770,M,9.4,0100*62
$GPGGA,081645.90,3422.52360395,N,10853.97292794,E,2,08,1.0,373.860,M,-35.770,M,9.5,0100*68
$GPGGA,081646.00,3422.52348140,N,10853.97258273,E,2,08,1.0,373.890,M,-35.770,M,9.6,0100*64
$GPGGA,081646.10,3422.52335919,N,10853.97222164,E,2,08,1.0,373.873,M,-35.770,M,9.7,0100*6F
$GPGGA,081646.20,3422.52323343,N,10853.97186967,E,2,08,1.0,373.881,M,-35.770,M,9.8,0100*6A
$GPGGA,081646.30,3422.52310502,N,10853.97151454,E,2,08,1.0,373.873,M,-35.770,M,9.9,0100*63
$GPGGA,081646.40,3422.52297397,N,10853.97115554,E,2,08,1.0,373.872,M,-35.770,M,10.0,0100*51
$GPGGA,081646.50,3422.52284256,N,10853.97078808,E,2,08,1.0,373.861,M,-35.770,M,10.1,0100*53
$GPGGA,081646.60,3422.52270278,N,10853.97041680,E,2,08,1.0,373.865,M,-35.770,M,10.2,0100*54
$GPGGA,081646.70,3422.52257193,N,10853.97002735,E,2,08,1.0,373.856,M,-35.770,M,10.3,0100*5F
$GPGGA,081646.80,3422.52243042,N,10853.96962661,E,2,08,1.0,373.862,M,-35.770,M,10.4,0100*56
$GPGGA,081646.90,3422.52228012,N,10853.96921891,E,2,08,1.0,373.860,M,-35.770,M,10.5,0100*5A
$GPGGA,081647.00,3422.52212659,N,10853.96880250,E,2,08,1.0,373.864,M,-35.770,M,10.6,0100*58
$GPGGA,081647.10,3422.52196207,N,10853.96837399,E,2,08,1.0,373.864,M,-35.770,M,10.7,0100*50
$GPGGA,081647.20,3422.52178241,N,10853.96793604,E,2,08,1.0,373.857,M,-35.770,M,10.8,0100*5E
$GPGGA,081647.30,3422.52160420,N,10853.96748866,E,2,08,1.0,373.854,M,-35.771,M,10.9,0100*58
$GPGGA,081647.40,3422.52142005,N,10853.96704714,E,2,08,1.0,373.883,M,-35.771,M,11.0,0100*5C
$GPGGA,081647.50,3422.52122925,N,10853.96660932,E,2,08,1.0,373.864,M,-35.771,M,11.1,0100*51
$GPGGA,081647.60,3422.52103717,N,10853.96616789,E,2,08,1.0,373.866,M,-35.771,M,11.2,0100*50
$GPGGA,081647.70,3422.52084096,N,10853.96573814,E,2,08,1.0,373.868,M,-35.771,M,11.3,0100*55
$GPGGA,081647.80,3422.52064627,N,10853.96530074,E,2,08,1.0,373.882,M,-35.771,M,11.4,0100*52
$GPGGA,081647.90,3422.52044153,N,10853.96485039,E,2,08,1.0,373.870,M,-35.771,M,11.5,0100*5F
$GPGGA,081648.00,3422.52023512,N,10853.96439029,E,2,08,1.0,373.872,M,-35.771,M,11.6,0100*5E
$GPGGA,081648.10,3422.52002716,N,10853.96392596,E,2,08,1.0,373.888,M,-35.771,M,11.7,0100*59
$GPGGA,081648.20,3422.51982521,N,10853.96346031,E,2,08,1.0,373.892,M,-35.771,M,11.8,0100*5B
$GPGGA,081648.30,3422.51962305,N,10853.96299202,E,2,08,1.0,373.889,M,-35.771,M,11.9,0100*5E
$GPGGA,081648.40,3422.51941739,N,10853.96251818,E,2,08,1.0,373.883,M,-35.771,M,12.0,0100*56
$GPGGA,081648.50,3422.51920957,N,10853.96204101,E,2,08,1.0,373.886,M,-35.771,M,12.1,0100*53
$GPGGA,081648.60,3422.51901099,N,10853.96156507,E,2,08,1.0,373.899,M,-35.771,M,12.2,0100*53
$GPGGA,081648.70,3422.51881484,N,10853.96108336,E,2,08,1.0,373.882,M,-35.771,M,12.3,0100*57
$GPGGA,081648.80,3422.51861792,N,10853.96059719,E,2,08,1.0,373.885,M,-35.771,M,12.4,0100*5E
$GPGGA,081648.90,3422.51842154,N,10853.96010670,E,2,08,1.0,373.886,M,-35.771,M,12.5,0100*53
$GPGGA,081649.00,3422.51821649,N,10853.95961666,E,2,08,1.0,373.900,M,-35.771,M,6.2,0100*63
$GPGGA,081649.10,3422.51801574,N,10853.95911981,E,2,08,1.0,373.888,M,-35.771,M,6.3,0100*6C
$GPGGA,081649.20,3422.51782286,N,10853.95859876,E,2,08,1.0,373.882,M,-35.771,M,6.4,0100*68
$GPGGA,081649.30,3422.51761921,N,10853.95809588,E,2,08,1.0,373.893,M,-35.771,M,6.5,0100*6A
$GPGGA,081649.40,3422.51741515,N,10853.95759186,E,2,08,1.0,373.892,M,-35.771,M,6.6,0100*66
$GPGGA,081649.50,3422.51721474,N,10853.95707826,E,2,08,1.0,373.884,M,-35.771,M,6.7,0100*69
$GPGGA,081649.60,3422.51701107,N,10853.95656580,E,2,08,1.0,373.876,M,-35.771,M,6.8,0100*6F
$GPGGA,081649.70,3422.51680536,N,10853.95604879,E,2,08,1.0,373.879,M,-35.771,M,6.9,0100*62
$GPGGA,081649.80,3422.51659933,N,10853.95552760,E,2,08,1.0,373.885,M,-35.771,M,7.0,0100*6C
$GPGGA,081649.90,3422.51638976,N,10853.95499578,E,2,08,1.0,373.885,M,-35.771,M,7.1,0100*67
$GPGGA,081650.00,3422.51618029,N,10853.95445058,E,2,08,1.0,373.899,M,-35.771,M,7.2,0100*6F
$GPGGA,081650.10,3422.51595273,N,10853.95387675,E,2,08,1.0,373.881,M,-35.771,M,7.3,0100*6D
$GPGGA,081650.20,3422.51573080,N,10853.95330104,E,2,08,1.0,373.890,M,-35.771,M,7.4,0100*62
$GPGGA,081650.30,3422.51550108,N,10853.95270958,E,2,08,1.0,373.887,M,-35.771,M,7.5,0100*60
$GPGGA,081650.40,3422.51527111,N,10853.95211777,E,2,08,1.0,373.908,M,-35.771,M,7.6,0100*6E
$GPGGA,081650.50,3422.51504066,N,10853.95150429,E,2,08,1.0,373.883,M,-35.771,M,7.7,0100*62
$GPGGA,081650.60,3422.51480894,N,10853.95088209,E,2,08,1.0,373.872,M,-35.771,M,7.8,0100*68
$GPGGA,081650.70,3422.51457328,N,10853.95026439,E,2,08,1.0,373.908,M,-35.771,M,7.9,0100*63
$GPGGA,081650.80,3422.51424203,N,10853.94967898,E,2,08,1.0,373.667,M,-35.772,M,8.0,0100*69
$GPGGA,081650.90,3422.51398759,N,10853.94903624,E,2,08,1.0,373.636,M,-35.772,M,8.1,0100*6C
$GPGGA,081651.00,3422.51382451,N,10853.94833101,E,2,08,1.0,373.741,M,-35.772,M,8.2,0100*64
$GPGGA,081651.10,3422.51357392,N,10853.94767465,E,2,08,1.0,373.739,M,-35.772,M,8.3,0100*62
$GPGGA,081651.20,3422.51323997,N,10853.94706334,E,2,08,1.0,373.614,M,-35.772,M,8.4,0100*60
$GPGGA,081651.30,3422.51300053,N,10853.94638992,E,2,08,1.0,373.619,M,-35.772,M,8.5,0100*67
$GPGGA,081651.40,3422.51283951,N,10853.94555358,E,2,08,1.0,373.908,M,-35.772,M,8.6,0100*69
$GPGGA,081651.50,3422.51259345,N,10853.94486665,E,2,08,1.0,373.924,M,-35.772,M,8.7,0100*6B
$GPGGA,081651.60,3422.51224132,N,10853.94426325,E,2,08,1.0,373.730,M,-35.772,M,8.8,0100*6F
$GPGGA,081651.70,3422.51200292,N,10853.94357334,E,2,08,1.0,373.737,M,-35.772,M,8.9,0100*66
$GPGGA,081651.80,3422.51128078,N,10853.94252296,E,2,08,1.0,374.937,M,-35.772,M,9.0,0100*6A
$GPGGA,081651.90,3422.51103725,N,10853.94183374,E,2,08,1.0,374.946,M,-35.772,M,9.1,0100*68
$GPGGA,081652.00,3422.51129512,N,10853.94150395,E,2,08,1.0,373.744,M,-35.772,M,9.2,0100*65
$GPGGA,081652.10,3422.51105221,N,10853.94082213,E,2,08,1.0,373.744,M,-35.772,M,9.3,0100*6D
$GPGGA,081652.20,3422.51097089,N,10853.94017551,E,2,08,1.0,373.738,M,-35.772,M,9.4,0100*65
$GPGGA,081652.30,3422.51073480,N,10853.93949281,E,2,08,1.0,373.737,M,-35.772,M,9.5,0100*62
$GPGGA,081652.40,3422.51049596,N,10853.93880642,E,2,08,1.0,373.744,M,-35.772,M,9.6,0100*62
$GPGGA,081652.50,3422.51025920,N,10853.93812027,E,2,08,1.0,373.746,M,-35.772,M,9.7,0100*65
$GPGGA,081652.60,3422.51002276,N,10853.93743853,E,2,08,1.0,373.750,M,-35.772,M,9.8,0100*63
$GPGGA,081652.70,3422.50978732,N,10853.93675716,E,2,08,1.0,373.745,M,-35.772,M,9.9,0100*6D
$GPGGA,081652.80,3422.50955614,N,10853.93607716,E,2,08,1.0,373.751,M,-35.772,M,10.0,0100*59
$GPGGA,081652.90,3422.50932637,N,10853.93539955,E,2,08,1.0,373.750,M,-35.772,M,10.1,0100*5F
$GPGGA,081653.00,3422.50909661,N,10853.93472451,E,2,08,1.0,373.754,M,-35.772,M,10.2,0100*5C
$GPGGA,081653.10,3422.50886825,N,10853.93405505,E,2,08,1.0,373.751,M,-35.772,M,10.3,0100*51
$GPGGA,081653.20,3422.50864245,N,10853.93338131,E,2,08,1.0,373.759,M,-35.772,M,10.4,0100*57
$GPGGA,081653.30,3422.50842089,N,10853.93271594,E,2,08,1.0,373.754,M,-35.772,M,10.5,0100*5B
$GPGGA,081653.40,3422.50819984,N,10853.93204778,E,2,08,1.0,373.769,M,-35.772,M,10.6,0100*59
$GPGGA,081653.50,3422.50798085,N,10853.93138451,E,2,08,1.0,373.758,M,-35.773,M,10.7,0100*50
$GPGGA,081653.60,3422.50776516,N,10853.93072280,E,2,08,1.0,373.762,M,-35.773,M,10.8,0100*5F
$GPGGA,081653.70,3422.50755405,N,10853.93006474,E,2,08,1.0,373.772,M,-35.773,M,10.9,0100*52
$GPGGA,081653.80,3422.50734295,N,10853.92940721,E,2,08,1.0,373.763,M,-35.773,M,11.0,0100*54
$GPGGA,081653.90,3422.50713395,N,10853.92875184,E,2,08,1.0,373.764,M,-35.773,M,11.1,0100*59
$GPGGA,081654.00,3422.50693041,N,10853.92811283,E,2,08,1.0,373.759,M,-35.773,M,11.2,0100*5F
$GPGGA,081654.10,3422.50672604,N,10853.92748239,E,2,08,1.0,373.768,M,-35.773,M,11.3,0100*57
$GPGGA,081654.20,3422.50652360,N,10853.92685424,E,2,08,1.0,373.767,M,-35.773,M,11.4,0100*53
$GPGGA,081654.30,3422.50631912,N,10853.92623237,E,2,08,1.0,373.754,M,-35.773,M,11.5,0100*51
$GPGGA,081654.40,3422.50612005,N,10853.92561599,E,2,08,1.0,373.762,M,-35.773,M,11.6,0100*58
$GPGGA,081654.50,3422.50592394,N,10853.92501060,E,2,08,1.0,373.768,M,-35.773,M,11.7,0100*57
$GPGGA,081654.60,3422.50572532,N,10853.92440364,E,2,08,1.0,373.767,M,-35.773,M,11.8,0100*53
$GPGGA,081654.70,3422.50552927,N,10853.92380596,E,2,08,1.0,373.763,M,-35.773,M,11.9,0100*5D
$GPGGA,081654.80,3422.50534208,N,10853.92321736,E,2,08,1.0,373.773,M,-35.773,M,12.0,0100*5C
$GPGGA,081654.90,3422.50515125,N,10853.92263738,E,2,08,1.0,373.767,M,-35.773,M,12.1,0100*5F
$GPGGA,081655.00,3422.50496383,N,10853.92206141,E,2,08,1.0,373.762,M,-35.773,M,12.2,0100*5E
$GPGGA,081655.10,3422.50477788,N,10853.92148633,E,2,08,1.0,373.766,M,-35.773,M,12.3,0100*51
$GPGGA,081655.20,3422.50459647,N,10853.92092302,E,2,08,1.0,373.760,M,-35.773,M,12.4,0100*5C
$GPGGA,081655.30,3422.50441825,N,10853.92036233,E,2,08,1.0,373.769,M,-35.773,M,12.5,0100*5B
$GPGGA,081655.40,3422.50423940,N,10853.91980778,E,2,08,1.0,373.755,M,-35.773,M,12.6,0100*5B
$GPGGA,081655.50,3422.50406594,N,10853.91926021,E,2,08,1.0,373.759,M,-35.773,M,12.7,0100*52
$GPGGA,081655.60,3422.50389508,N,10853.91871690,E,2,08,1.0,373.751,M,-35.773,M,12.8,0100*5C
$GPGGA,081655.70,3422.50372494,N,10853.91817955,E,2,08,1.0,373.750,M,-35.773,M,12.9,0100*5B
$GPGGA,081655.80,3422.50355941,N,10853.91764743,E,2,08,1.0,373.745,M,-35.773,M,13.0,0100*5A
$GPGGA,081655.90,3422.50339762,N,10853.91712079,E,2,08,1.0,373.746,M,-35.773,M,13.1,0100*53
$GPGGA,081656.00,3422.50323238,N,10853.91659846,E,2,08,1.0,373.757,M,-35.773,M,13.2,0100*51
$GPGGA,081656.10,3422.50307527,N,10853.91608719,E,2,08,1.0,373.754,M,-35.773,M,13.3,0100*5C
$GPGGA,081656.20,3422.50291582,N,10853.91557628,E,2,08,1.0,373.748,M,-35.773,M,13.4,0100*5E
$GPGGA,081656.30,3422.50276325,N,10853.91506904,E,2,08,1.0,373.745,M,-35.773,M,13.5,0100*54
$GPGGA,081656.40,3422.50260947,N,10853.91457095,E,2,08,1.0,373.744,M,-35.773,M,13.6,0100*5C
$GPGGA,081656.50,3422.50246566,N,10853.91407643,E,2,08,1.0,373.744,M,-35.774,M,13.7,0100*58
$GPGGA,081656.60,3422.50232001,N,10853.91359307,E,2,08,1.0,373.744,M,-35.774,M,13.8,0100*5A
$GPGGA,081656.70,3422.50218171,N,10853.91310988,E,2,08,1.0,373.741,M,-35.774,M,13.9,0100*51
$GPGGA,081656.80,3422.50204301,N,10853.91263429,E,2,08,1.0,373.746,M,-35.774,M,14.0,0100*5C
$GPGGA,081656.90,3422.50190752,N,10853.91216022,E,2,08,1.0,373.743,M,-35.774,M,14.1,0100*58
$GPGGA,081657.00,3422.50350558,N,10853.91141982,E,5,08,1.0,378.247,M,-35.774,M,8.0,1001*64
$GPGGA,081657.10,3422.50337324,N,10853.91095796,E,5,08,1.0,378.262,M,-35.774,M,8.0,1001*6D
$GPGGA,081657.20,3422.50323940,N,10853.91050428,E,5,08,1.0,378.252,M,-35.774,M,8.0,1001*6F
$GPGGA,081657.30,3422.50311354,N,10853.91005762,E,5,08,1.0,378.251,M,-35.774,M,8.0,1001*6E
$GPGGA,081657.40,3422.50298743,N,10853.90961528,E,5,08,1.0,378.241,M,-35.774,M,8.0,1001*6C
$GPGGA,081657.50,3422.50286132,N,10853.90917822,E,5,08,1.0,378.237,M,-35.774,M,8.0,1001*65
$GPGGA,081657.60,3422.50273562,N,10853.90874781,E,5,08,1.0,378.239,M,-35.774,M,8.0,1001*61
$GPGGA,081657.70,3422.50261965,N,10853.90831992,E,5,08,1.0,378.236,M,-35.774,M,8.0,1001*6A
$GPGGA,081657.80,3422.50249751,N,10853.90789849,E,5,08,1.0,378.231,M,-35.774,M,8.0,1001*6A
$GPGGA,081657.90,3422.50238181,N,10853.90748577,E,5,08,1.0,378.230,M,-35.774,M,8.0,1001*6A
$GPGGA,081658.00,3422.50226860,N,10853.90707487,E,5,08,1.0,378.238,M,-35.774,M,9.0,1001*69
$GPGGA,081658.10,3422.50215686,N,10853.90667451,E,5,08,1.0,378.236,M,-35.774,M,9.0,1001*6C
$GPGGA,081658.20,3422.50204621,N,10853.90627859,E,5,08,1.0,378.234,M,-35.774,M,9.0,1001*60
$GPGGA,081658.30,3422.50193810,N,10853.90588201,E,5,08,1.0,378.237,M,-35.774,M,9.0,1001*62
$GPGGA,081658.40,3422.50183152,N,10853.90549489,E,5,08,1.0,378.237,M,-35.774,M,9.0,1001*60
$GPGGA,081658.50,3422.50172698,N,10853.90511106,E,5,08,1.0,378.231,M,-35.774,M,9.0,1001*67
$GPGGA,081658.60,3422.50162561,N,10853.90473545,E,5,08,1.0,378.233,M,-35.774,M,9.0,1001*64
$GPGGA,081658.70,3422.50152760,N,10853.90436789,E,5,08,1.0,378.233,M,-35.774,M,9.0,1001*66
$GPGGA,081658.80,3422.50142786,N,10853.90400007,E,5,08,1.0,378.236,M,-35.774,M,9.0,1001*61
$GPGGA,081658.90,3422.50133417,N,10853.90364326,E,5,08,1.0,378.232,M,-35.774,M,9.0,1001*6C
$GPGGA,081659.00,3422.50124442,N,10853.90330178,E,5,08,1.0,378.236,M,-35.774,M,10.0,1001*56
$GPGGA,081659.10,3422.50115341,N,10853.90296689,E,5,08,1.0,378.228,M,-35.774,M,10.0,1001*5A
$GPGGA,081659.20,3422.50107215,N,10853.90264132,E,5,08,1.0,378.214,M,-35.774,M,10.0,1001*5F
$GPGGA,081659.30,3422.50099103,N,10853.90233036,E,5,08,1.0,378.217,M,-35.774,M,10.0,1001*58
$GPGGA,081659.40,3422.50091754,N,10853.90203341,E,5,08,1.0,378.212,M,-35.774,M,10.0,1001*56
$GPGGA,081659.50,3422.50084524,N,10853.90174193,E,5,08,1.0,378.222,M,-35.774,M,10.0,1001*5B
$GPGGA,081659.60,3422.50077194,N,10853.90145705,E,5,08,1.0,378.207,M,-35.774,M,10.0,1001*57
$GPGGA,081659.70,3422.50070411,N,10853.90117969,E,5,08,1.0,378.207,M,-35.774,M,10.0,1001*5A
$GPGGA,081659.80,3422.50063952,N,10853.90091416,E,5,08,1.0,378.206,M,-35.774,M,10.0,1001*56
$GPGGA,081659.90,3422.50057600,N,10853.90065269,E,5,08,1.0,378.207,M,-35.774,M,10.0,1001*5C
$GPGGA,081700.00,3422.50051492,N,10853.90039648,E,5,08,1.0,378.204,M,-35.774,M,11.0,1001*5B
$GPGGA,081700.10,3422.50045638,N,10853.90015259,E,5,08,1.0,378.203,M,-35.774,M,11.0,1001*50
$GPGGA,081700.20,3422.50039850,N,10853.89991598,E,5,08,1.0,378.197,M,-35.774,M,11.0,1001*51
$GPGGA,081700.30,3422.50034491,N,10853.89968758,E,5,08,1.0,378.200,M,-35.774,M,11.0,1001*59
$GPGGA,081700.40,3422.50029408,N,10853.89946355,E,5,08,1.0,378.201,M,-35.774,M,11.0,1001*56
$GPGGA,081700.50,3422.50024433,N,10853.89924536,E,5,08,1.0,378.199,M,-35.774,M,11.0,1001*57
$GPGGA,081700.60,3422.50019335,N,10853.89902703,E,5,08,1.0,378.200,M,-35.774,M,11.0,1001*58
$GPGGA,081700.70,3422.50014566,N,10853.89881614,E,5,08,1.0,378.195,M,-35.774,M,11.0,1001*56
$GPGGA,081700.80,3422.50010161,N,10853.89860786,E,5,08,1.0,378.197,M,-35.774,M,11.0,1001*59
$GPGGA,081700.90,3422.50005926,N,10853.89839929,E,5,08,1.0,378.194,M,-35.774,M,11.0,1001*53
$GPGGA,081701.00,3422.50001762,N,10853.89819395,E,5,08,1.0,378.183,M,-35.774,M,12.0,1001*5B
$GPGGA,081701.10,3422.49998010,N,10853.89799166,E,5,08,1.0,378.182,M,-35.774,M,12.0,1001*51
$GPGGA,081701.20,3422.49994254,N,10853.89778909,E,5,08,1.0,378.185,M,-35.774,M,12.0,1001*55
$GPGGA,081701.30,3422.49990778,N,10853.89758741,E,5,08,1.0,378.183,M,-35.774,M,12.0,1001*5D
$GPGGA,081701.40,3422.49987521,N,10853.89739157,E,5,08,1.0,378.181,M,-35.774,M,12.0,1001*56
$GPGGA,081701.50,3422.49984248,N,10853.89719469,E,5,08,1.0,378.180,M,-35.774,M,12.0,1001*57
$GPGGA,081701.60,3422.49981354,N,10853.89700478,E,5,08,1.0,378.173,M,-35.774,M,12.0,1001*59
$GPGGA,081701.70,3422.49978634,N,10853.89681930,E,5,08,1.0,378.171,M,-35.774,M,12.0,1001*56
$GPGGA,081701.80,3422.49975681,N,10853.89663547,E,5,08,1.0,378.184,M,-35.774,M,12.0,1001*50
$GPGGA,081701.90,3422.49973198,N,10853.89645487,E,5,08,1.0,378.171,M,-35.774,M,12.0,1001*5B
$GPGGA,081702.00,3422.49970560,N,10853.89627410,E,5,08,1.0,378.177,M,-35.775,M,13.0,1001*5D
$GPGGA,081702.10,3422.49968294,N,10853.89610383,E,5,08,1.0,378.170,M,-35.775,M,13.0,1001*57
$GPGGA,081702.20,3422.49966615,N,10853.89593168,E,5,08,1.0,378.166,M,-35.775,M,13.0,1001*5F
$GPGGA,081702.30,3422.49964756,N,10853.89576264,E,5,08,1.0,378.167,M,-35.775,M,13.0,1001*5F
$GPGGA,081702.40,3422.49962802,N,10853.89559814,E,5,08,1.0,378.165,M,-35.775,M,13.0,1001*52
$GPGGA,081702.50,3422.49960838,N,10853.89543483,E,5,08,1.0,378.161,M,-35.775,M,13.0,1001*55
$GPGGA,081702.60,3422.49959546,N,10853.89527321,E,5,08,1.0,378.152,M,-35.775,M,13.0,1001*55
$GPGGA,081702.70,3422.49957957,N,10853.89511103,E,5,08,1.0,378.156,M,-35.775,M,13.0,1001*55
$GPGGA,081702.80,3422.49956650,N,10853.89495398,E,5,08,1.0,378.155,M,-35.775,M,13.0,1001*5D
$GPGGA,081702.90,3422.49955428,N,10853.89479222,E,5,08,1.0,378.152,M,-35.775,M,13.0,1001*57
$GPGGA,081703.00,3422.49954576,N,10853.89463554,E,5,08,1.0,378.153,M,-35.775,M,14.0,1001*5F
$GPGGA,081703.10,3422.49953527,N,10853.89447684,E,5,08,1.0,378.150,M,-35.775,M,14.0,1001*56
$GPGGA,081703.20,3422.49952595,N,10853.89431483,E,5,08,1.0,378.146,M,-35.775,M,14.0,1001*5E
$GPGGA,081703.30,3422.49951454,N,10853.89415827,E,5,08,1.0,378.134,M,-35.775,M,14.0,1001*51
$GPGGA,081703.40,3422.49950699,N,10853.89400200,E,5,08,1.0,378.152,M,-35.775,M,14.0,1001*5F
$GPGGA,081703.50,3422.49950460,N,10853.89384130,E,5,08,1.0,378.146,M,-35.775,M,14.0,1001*54
$GPGGA,081703.60,3422.49949877,N,10853.89368277,E,5,08,1.0,378.141,M,-35.775,M,14.0,1001*50
$GPGGA,081703.70,3422.49949468,N,10853.89352493,E,5,08,1.0,378.145,M,-35.775,M,14.0,1001*52
$GPGGA,081703.80,3422.49948703,N,10853.89336354,E,5,08,1.0,378.132,M,-35.775,M,14.0,1001*5C
$GPGGA,081703.90,3422.49948417,N,10853.89320642,E,5,08,1.0,378.132,M,-35.775,M,14.0,1001*5E
$GPGGA,081704.00,3422.49948320,N,10853.89304690,E,5,08,1.0,378.129,M,-35.775,M,15.0,1001*51
$GPGGA,081704.10,3422.49947739,N,10853.89288649,E,5,08,1.0,378.118,M,-35.775,M,15.0,1001*50
$GPGGA,081704.20,3422.49947345,N,10853.89273593,E,5,08,1.0,378.133,M,-35.775,M,15.0,1001*55
$GPGGA,081704.30,3422.49946832,N,10853.89258544,E,5,08,1.0,378.124,M,-35.775,M,15.0,1001*5B
$GPGGA,081704.40,3422.49946716,N,10853.89243767,E,5,08,1.0,378.125,M,-35.775,M,15.0,1001*5D
$GPGGA,081704.50,3422.49946313,N,10853.89230090,E,5,08,1.0,378.117,M,-35.775,M,15.0,1001*57
$GPGGA,081704.60,3422.49945929,N,10853.89217039,E,5,08,1.0,378.117,M,-35.775,M,15.0,1001*52
$GPGGA,081704.70,3422.49945776,N,10853.89204568,E,5,08,1.0,378.124,M,-35.775,M,15.0,1001*54
$GPGGA,081704.80,3422.49945705,N,10853.89192570,E,5,08,1.0,378.118,M,-35.775,M,15.0,1001*55
$GPGGA,081704.90,3422.49945191,N,10853.89181083,E,5,08,1.0,378.118,M,-35.775,M,15.0,1001*54
$GPGGA,081705.00,3422.49944880,N,10853.89170410,E,5,08,1.0,378.109,M,-35.775,M,16.0,1001*57
$GPGGA,081705.10,3422.49944737,N,10853.89160443,E,5,08,1.0,378.114,M,-35.775,M,16.0,1001*5E
$GPGGA,081705.20,3422.49944073,N,10853.89151498,E,5,08,1.0,378.108,M,-35.775,M,16.0,1001*53
$GPGGA,081705.30,3422.49943607,N,10853.89142765,E,5,08,1.0,378.108,M,-35.775,M,16.0,1001*53
$GPGGA,081705.40,3422.49943046,N,10853.89134270,E,5,08,1.0,378.105,M,-35.775,M,16.0,1001*5A
$GPGGA,081705.50,3422.49942372,N,10853.89126239,E,5,08,1.0,378.096,M,-35.775,M,16.0,1001*5B
$GPGGA,081705.60,3422.49942214,N,10853.89119030,E,5,08,1.0,378.112,M,-35.775,M,16.0,1001*53
$GPGGA,081705.70,3422.49941631,N,10853.89111772,E,5,08,1.0,378.107,M,-35.775,M,16.0,1001*5F
$GPGGA,081705.80,3422.49940951,N,10853.89105217,E,5,08,1.0,378.123,M,-35.775,M,16.0,1001*5D
$GPGGA,081705.90,3422.49940256,N,10853.89098453,E,5,08,1.0,378.119,M,-35.775,M,16.0,1001*5A
$GPGGA,081706.00,3422.49939913,N,10853.89091932,E,5,08,1.0,378.106,M,-35.775,M,17.0,1001*58
$GPGGA,081706.10,3422.49939288,N,10853.89085578,E,5,08,1.0,378.096,M,-35.775,M,17.0,1001*5F
$GPGGA,081706.20,3422.49938920,N,10853.89079466,E,5,08,1.0,378.111,M,-35.775,M,17.0,1001*57
$GPGGA,081706.30,3422.49938402,N,10853.89073052,E,5,08,1.0,378.108,M,-35.775,M,17.0,1001*5A
$GPGGA,081706.40,3422.49937794,N,10853.89067004,E,5,08,1.0,378.102,M,-35.775,M,17.0,1001*52
$GPGGA,081706.50,3422.49937302,N,10853.89060917,E,5,08,1.0,378.099,M,-35.775,M,17.0,1001*57
$GPGGA,081706.60,3422.49936900,N,10853.89055134,E,5,08,1.0,378.106,M,-35.775,M,17.0,1001*55
$GPGGA,081706.70,3422.49936432,N,10853.89049325,E,5,08,1.0,378.103,M,-35.775,M,17.0,1001*52
$GPGGA,081706.80,3422.49935443,N,10853.89043780,E,5,08,1.0,378.104,M,-35.775,M,17.0,1001*5E
$GPGGA,081706.90,3422.49934839,N,10853.89038114,E,5,08,1.0,378.103,M,-35.775,M,17.0,1001*5F
$GPGGA,081707.00,3422.49934551,N,10853.89032494,E,5,08,1.0,378.092,M,-35.775,M,18.0,1001*55
$GPGGA,081707.10,3422.49933761,N,10853.89027236,E,5,08,1.0,378.101,M,-35.775,M,18.0,1001*53
$GPGGA,081707.20,3422.49932822,N,10853.89021615,E,5,08,1.0,378.098,M,-35.775,M,18.0,1001*5B
$GPGGA,081707.30,3422.49932114,N,10853.89016217,E,5,08,1.0,378.101,M,-35.775,M,18.0,1001*55
$GPGGA,081707.40,3422.49931548,N,10853.89010729,E,5,08,1.0,378.107,M,-35.775,M,18.0,1001*54
$GPGGA,081707.50,3422.49930775,N,10853.89005147,E,5,08,1.0,378.111,M,-35.775,M,18.0,1001*55
$GPGGA,081707.60,3422.49929883,N,10853.88999670,E,5,08,1.0,378.096,M,-35.775,M,18.0,1001*58
$GPGGA,081707.70,3422.49929053,N,10853.88994193,E,5,08,1.0,378.092,M,-35.775,M,18.0,1001*5F
$GPGGA,081707.80,3422.49928056,N,10853.88988546,E,5,08,1.0,378.098,M,-35.775,M,18.0,1001*5F
$GPGGA,081707.90,3422.49927091,N,10853.88983208,E,5,08,1.0,378.099,M,-35.775,M,18.0,1001*5D
$GPGGA,081708.00,3422.49926322,N,10853.88977509,E,5,08,1.0,378.098,M,-35.775,M,19.0,1001*5C
$GPGGA,081708.10,3422.49925601,N,10853.88971937,E,5,08,1.0,378.087,M,-35.775,M,19.0,1001*53
$GPGGA,081708.20,3422.49924381,N,10853.88966287,E,5,08,1.0,378.105,M,-35.775,M,19.0,1001*51
$GPGGA,081708.30,3422.49923399,N,10853.88960721,E,5,08,1.0,378.104,M,-35.775,M,19.0,1001*50
$GPGGA,081708.40,3422.49922499,N,10853.88954098,E,5,08,1.0,378.103,M,-35.775,M,19.0,1001*54
$GPGGA,081708.50,3422.49921402,N,10853.88947775,E,5,08,1.0,378.103,M,-35.775,M,19.0,1001*52
$GPGGA,081708.60,3422.49920334,N,10853.88942179,E,5,08,1.0,378.089,M,-35.775,M,19.0,1001*5E
$GPGGA,081708.70,3422.49919022,N,10853.88935716,E,5,08,1.0,378.096,M,-35.775,M,19.0,1001*50
$GPGGA,081708.80,3422.49918007,N,10853.88929552,E,5,08,1.0,378.097,M,-35.775,M,19.0,1001*57
$GPGGA,081708.90,3422.49916851,N,10853.88923504,E,5,08,1.0,378.101,M,-35.775,M,19.0,1001*54
$GPGGA,081709.00,3422.49917613,N,10853.88917125,E,5,08,1.0,378.104,M,-35.775,M,3.0,1001*6B
$GPGGA,081709.10,3422.49916598,N,10853.88911029,E,5,08,1.0,378.107,M,-35.775,M,3.0,1001*63
$GPGGA,081709.20,3422.49915191,N,10853.88904731,E,5,08,1.0,378.101,M,-35.775,M,3.0,1001*62
$GPGGA,081709.30,3422.49913933,N,10853.88898437,E,5,08,1.0,378.104,M,-35.775,M,3.0,1001*61
$GPGGA,081709.40,3422.49912723,N,10853.88891964,E,5,08,1.0,378.108,M,-35.775,M,3.0,1001*66
$GPGGA,081709.50,3422.49911369,N,10853.88885236,E,5,08,1.0,378.101,M,-35.775,M,3.0,1001*6E
$GPGGA,081709.60,3422.49909999,N,10853.88878247,E,5,08,1.0,378.107,M,-35.775,M,3.0,1001*63
$GPGGA,081709.70,3422.49908653,N,10853.88871916,E,5,08,1.0,378.105,M,-35.775,M,3.0,1001*6E
$GPGGA,081709.80,3422.49907210,N,10853.88864854,E,5,08,1.0,378.107,M,-35.775,M,3.0,1001*6C
$GPGGA,081709.90,3422.49905467,N,10853.88857839,E,5,08,1.0,378.106,M,-35.775,M,3.0,1001*63
$GPGGA,081710.00,3422.49904417,N,10853.88850726,E,5,08,1.0,378.112,M,-35.775,M,4.0,1001*60
$GPGGA,081710.10,3422.49902243,N,10853.88843349,E,5,08,1.0,378.104,M,-35.775,M,4.0,1001*68
$GPGGA,081710.20,3422.49900413,N,10853.88835612,E,5,08,1.0,378.104,M,-35.775,M,4.0,1001*60
$GPGGA,081710.30,3422.49898937,N,10853.88827796,E,5,08,1.0,378.107,M,-35.775,M,4.0,1001*67
$GPGGA,081710.40,3422.49897164,N,10853.88820233,E,5,08,1.0,378.106,M,-35.775,M,4.0,1001*6D
$GPGGA,081710.50,3422.49894859,N,10853.88813036,E,5,08,1.0,378.105,M,-35.775,M,4.0,1001*6C
$GPGGA,081710.60,3422.49892906,N,10853.88805226,E,5,08,1.0,378.110,M,-35.775,M,4.0,1001*62
$GPGGA,081710.70,3422.49890827,N,10853.88797462,E,5,08,1.0,378.110,M,-35.775,M,4.0,1001*61
$GPGGA,081710.80,3422.49888682,N,10853.88789397,E,5,08,1.0,378.098,M,-35.775,M,4.0,1001*65
$GPGGA,081710.90,3422.49886724,N,10853.88781992,E,5,08,1.0,378.090,M,-35.775,M,4.0,1001*68
$GPGGA,081711.00,3422.49884155,N,10853.88773596,E,5,08,1.0,378.106,M,-35.775,M,5.0,1001*68
$GPGGA,081711.10,3422.49881825,N,10853.88765289,E,5,08,1.0,378.099,M,-35.775,M,5.0,1001*6B
$GPGGA,081711.20,3422.49879066,N,10853.88756844,E,5,08,1.0,378.096,M,-35.775,M,5.0,1001*64
$GPGGA,081711.30,3422.49876607,N,10853.88748320,E,5,08,1.0,378.092,M,-35.775,M,5.0,1001*69
$GPGGA,081711.40,3422.49873907,N,10853.88739576,E,5,08,1.0,378.095,M,-35.775,M,5.0,1001*60
$GPGGA,081711.50,3422.49871152,N,10853.88731019,E,5,08,1.0,378.096,M,-35.775,M,5.0,1001*6C
$GPGGA,081711.60,3422.49868296,N,10853.88722711,E,5,08,1.0,378.101,M,-35.775,M,5.0,1001*6E
$GPGGA,081711.70,3422.49865921,N,10853.88715293,E,5,08,1.0,378.095,M,-35.775,M,5.0,1001*62
$GPGGA,081711.80,3422.49863421,N,10853.88708529,E,5,08,1.0,378.105,M,-35.775,M,5.0,1001*64
$GPGGA,081711.90,3422.49861132,N,10853.88702153,E,5,08,1.0,378.108,M,-35.775,M,5.0,1001*6E
$GPGGA,081712.00,3422.49859210,N,10853.88696662,E,5,08,1.0,378.091,M,-35.775,M,6.0,1001*67
$GPGGA,081712.10,3422.49857361,N,10853.88691481,E,5,08,1.0,378.092,M,-35.775,M,6.0,1001*64
$GPGGA,081712.20,3422.49856243,N,10853.88688079,E,5,08,1.0,378.095,M,-35.775,M,6.0,1001*6B
$GPGGA,081712.30,3422.49854750,N,10853.88685006,E,5,08,1.0,378.104,M,-35.775,M,6.0,1001*63
$GPGGA,081712.40,3422.49854138,N,10853.88683381,E,5,08,1.0,378.099,M,-35.775,M,6.0,1001*63
$GPGGA,081712.50,3422.49853982,N,10853.88683071,E,5,08,1.0,378.099,M,-35.775,M,6.0,1001*60
$GPGGA,081712.60,3422.49854502,N,10853.88683814,E,5,08,1.0,378.100,M,-35.775,M,6.0,1001*6A
$GPGGA,081712.70,3422.49854317,N,10853.88683721,E,5,08,1.0,378.104,M,-35.775,M,6.0,1001*64
$GPGGA,081712.80,3422.49854381,N,10853.88683716,E,5,08,1.0,378.109,M,-35.775,M,6.0,1001*6D
$GPGGA,081712.90,3422.49854271,N,10853.88683635,E,5,08,1.0,378.104,M,-35.775,M,6.0,1001*6F
$GPGGA,081713.00,3422.49854380,N,10853.88683744,E,5,08,1.0,378.108,M,-35.775,M,7.0,1001*62
$GPGGA,081713.10,3422.49854139,N,10853.88683674,E,5,08,1.0,378.110,M,-35.775,M,7.0,1001*68
$GPGGA,081713.20,3422.49854184,N,10853.88683685,E,5,08,1.0,378.099,M,-35.775,M,7.0,1001*63
$GPGGA,081713.30,3422.49854236,N,10853.88683723,E,5,08,1.0,378.102,M,-35.775,M,7.0,1001*66
$GPGGA,081713.40,3422.49854253,N,10853.88683740,E,5,08,1.0,378.108,M,-35.775,M,7.0,1001*6D
$GPGGA,081713.50,3422.49854219,N,10853.88683514,E,5,08,1.0,378.107,M,-35.775,M,7.0,1001*6E
$GPGGA,081713.60,3422.49854231,N,10853.88683599,E,5,08,1.0,378.109,M,-35.775,M,7.0,1001*6C
$GPGGA,081713.70,3422.49854169,N,10853.88683561,E,5,08,1.0,378.105,M,-35.775,M,7.0,1001*68
$GPGGA,081713.80,3422.49854214,N,10853.88683541,E,5,08,1.0,378.106,M,-35.775,M,7.0,1001*6F
$GPGGA,081713.90,3422.49854141,N,10853.88683580,E,5,08,1.0,378.114,M,-35.775,M,7.0,1001*63
$GPGGA,081714.00,3422.49854093,N,10853.88683518,E,5,08,1.0,378.105,M,-35.775,M,8.0,1001*6D
$GPGGA,081714.10,3422.49853986,N,10853.88683483,E,5,08,1.0,378.103,M,-35.775,M,8.0,1001*63
$GPGGA,081714.20,3422.49854001,N,10853.88683515,E,5,08,1.0,378.115,M,-35.775,M,8.0,1001*68
$GPGGA,081714.30,3422.49854097,N,10853.88683581,E,5,08,1.0,378.113,M,-35.775,M,8.0,1001*6D
$GPGGA,081714.40,3422.49853942,N,10853.88683326,E,5,08,1.0,378.113,M,-35.775,M,8.0,1001*67
$GPGGA,081714.50,3422.49854043,N,10853.88683442,E,5,08,1.0,378.110,M,-35.775,M,8.0,1001*6F
$GPGGA,081714.60,3422.49853954,N,10853.88683561,E,5,08,1.0,378.109,M,-35.775,M,8.0,1001*6C
$GPGGA,081714.70,3422.49853939,N,10853.88683586,E,5,08,1.0,378.114,M,-35.775,M,8.0,1001*63
$GPGGA,081714.80,3422.49853929,N,10853.88683464,E,5,08,1.0,378.107,M,-35.775,M,8.0,1001*62
$GPGGA,081714.90,3422.49854006,N,10853.88683446,E,5,08,1.0,378.106,M,-35.775,M,8.0,1001*61
$GPGGA,081715.00,3422.49853860,N,10853.88683352,E,5,08,1.0,378.114,M,-35.775,M,9.0,1001*66
$GPGGA,081715.10,3422.49853894,N,10853.88683406,E,5,08,1.0,378.114,M,-35.775,M,9.0,1001*6A
$GPGGA,081715.20,3422.49853962,N,10853.88683453,E,5,08,1.0,378.113,M,-35.775,M,9.0,1001*66
$GPGGA,081715.30,3422.49853951,N,10853.88683346,E,5,08,1.0,378.110,M,-35.775,M,9.0,1001*67
$GPGGA,081715.40,3422.49853830,N,10853.88683297,E,5,08,1.0,378.114,M,-35.775,M,9.0,1001*6F
$GPGGA,081715.50,3422.49854034,N,10853.88683276,E,5,08,1.0,378.115,M,-35.775,M,9.0,1001*6B
$GPGGA,081715.60,3422.49853794,N,10853.88683377,E,5,08,1.0,378.117,M,-35.775,M,9.0,1001*60
$GPGGA,081715.70,3422.49853872,N,10853.88683428,E,5,08,1.0,378.114,M,-35.775,M,9.0,1001*68
$GPGGA,081715.80,3422.49853782,N,10853.88683152,E,5,08,1.0,378.112,M,-35.775,M,9.0,1001*69
$GPGGA,081715.90,3422.49853833,N,10853.88683288,E,5,08,1.0,378.116,M,-35.775,M,9.0,1001*6D
$GPGGA,081716.00,3422.49853925,N,10853.88683344,E,5,08,1.0,378.111,M,-35.775,M,10.0,1001*5F
$GPGGA,081716.10,3422.49853804,N,10853.88683308,E,5,08,1.0,378.104,M,-35.775,M,10.0,1001*50
$GPGGA,081716.20,3422.49853753,N,10853.88683289,E,5,08,1.0,378.115,M,-35.775,M,10.0,1001*56
$GPGGA,081716.30,3422.49853933,N,10853.88683377,E,5,08,1.0,378.112,M,-35.775,M,10.0,1001*58
$GPGGA,081716.40,3422.49853715,N,10853.88683235,E,5,08,1.0,378.115,M,-35.775,M,10.0,1001*55
$GPGGA,081716.50,3422.49853802,N,10853.88683265,E,5,08,1.0,378.117,M,-35.775,M,10.0,1001*5A
$GPGGA,081716.60,3422.49853826,N,10853.88683286,E,5,08,1.0,378.117,M,-35.775,M,10.0,1001*52
$GPGGA,081716.70,3422.49853847,N,10853.88683387,E,5,08,1.0,378.113,M,-35.775,M,10.0,1001*50
$GPGGA,081716.80,3422.49853781,N,10853.88683201,E,5,08,1.0,378.114,M,-35.775,M,10.0,1001*52
$GPGGA,081716.90,3422.49853900,N,10853.88683357,E,5,08,1.0,378.116,M,-35.775,M,10.0,1001*54
$GPGGA,081717.00,3422.49853844,N,10853.88683268,E,5,08,1.0,378.113,M,-35.775,M,11.0,1001*54
$GPGGA,081717.10,3422.49853846,N,10853.88683338,E,5,08,1.0,378.110,M,-35.775,M,11.0,1001*50
$GPGGA,081717.20,3422.49853809,N,10853.88683247,E,5,08,1.0,378.113,M,-35.775,M,11.0,1001*52
$GPGGA,081717.30,3422.49853830,N,10853.88683363,E,5,08,1.0,378.114,M,-35.775,M,11.0,1001*59
$GPGGA,081717.40,3422.49853716,N,10853.88683264,E,5,08,1.0,378.114,M,-35.775,M,11.0,1001*53
$GPGGA,081717.50,3422.49853833,N,10853.88683267,E,5,08,1.0,378.108,M,-35.775,M,11.0,1001*54
$GPGGA,081717.60,3422.49853741,N,10853.88683335,E,5,08,1.0,378.105,M,-35.775,M,11.0,1001*56
$GPGGA,081717.70,3422.49853924,N,10853.88683275,E,5,08,1.0,378.105,M,-35.775,M,11.0,1001*5F
$GPGGA,081717.80,3422.49853754,N,10853.88683201,E,5,08,1.0,378.105,M,-35.775,M,11.0,1001*5A
$GPGGA,081717.90,3422.49853701,N,10853.88683342,E,5,08,1.0,378.108,M,-35.775,M,11.0,1001*50
$GPGGA,081718.00,3422.49853907,N,10853.88683160,E,5,08,1.0,378.111,M,-35.775,M,12.0,1001*57
$GPGGA,081718.10,3422.49853637,N,10853.88683249,E,5,08,1.0,378.108,M,-35.775,M,12.0,1001*5A
$GPGGA,081718.20,3422.49853801,N,10853.88683205,E,5,08,1.0,378.103,M,-35.775,M,12.0,1001*51
$GPGGA,081718.30,3422.49853837,N,10853.88683156,E,5,08,1.0,378.104,M,-35.775,M,12.0,1001*57
$GPGGA,081718.40,3422.49853727,N,10853.88683249,E,5,08,1.0,378.111,M,-35.775,M,12.0,1001*57
$GPGGA,081718.50,3422.49853957,N,10853.88683295,E,5,08,1.0,378.109,M,-35.775,M,12.0,1001*57
$GPGGA,081718.60,3422.49853796,N,10853.88683141,E,5,08,1.0,378.109,M,-35.775,M,12.0,1001*5D
$GPGGA,081718.70,3422.49853772,N,10853.88683232,E,5,08,1.0,378.111,M,-35.775,M,12.0,1001*58
$GPGGA,081718.80,3422.49853801,N,10853.88683211,E,5,08,1.0,378.108,M,-35.775,M,12.0,1001*55
$GPGGA,081718.90,3422.49853637,N,10853.88683061,E,5,08,1.0,378.112,M,-35.775,M,12.0,1001*51
$GPGGA,081719.00,3422.49853791,N,10853.88683167,E,5,08,1.0,378.104,M,-35.775,M,13.0,1001*55
$GPGGA,081719.10,3422.49853646,N,10853.88683149,E,5,08,1.0,378.103,M,-35.775,M,13.0,1001*54
$GPGGA,081719.20,3422.49853680,N,10853.88683070,E,5,08,1.0,378.109,M,-35.775,M,13.0,1001*5C
$GPGGA,081719.30,3422.49853802,N,10853.88683092,E,5,08,1.0,378.108,M,-35.775,M,13.0,1001*54
$GPGGA,081719.40,3422.49853782,N,10853.88683139,E,5,08,1.0,378.112,M,-35.775,M,13.0,1001*5F
$GPGGA,081719.50,3422.49853880,N,10853.88683203,E,5,08,1.0,378.107,M,-35.775,M,13.0,1001*5D
$GPGGA,081719.60,3422.49853802,N,10853.88683092,E,5,08,1.0,378.108,M,-35.775,M,13.0,1001*51
$GPGGA,081719.70,3422.49853805,N,10853.88683180,E,5,08,1.0,378.109,M,-35.775,M,13.0,1001*54
$GPGGA,081719.80,3422.49854036,N,10853.88683192,E,5,08,1.0,378.113,M,-35.775,M,13.0,1001*5C
$GPGGA,081719.90,3422.49853861,N,10853.88682974,E,5,08,1.0,378.106,M,-35.775,M,13.0,1001*55
$GPGGA,081720.00,3422.49853845,N,10853.88683158,E,5,08,1.0,378.109,M,-35.775,M,14.0,1001*5F
$GPGGA,081720.10,3422.49853838,N,10853.88683068,E,5,08,1.0,378.107,M,-35.775,M,14.0,1001*58
$GPGGA,081720.20,3422.49853784,N,10853.88683038,E,5,08,1.0,378.104,M,-35.775,M,14.0,1001*55
$GPGGA,081720.30,3422.49854007,N,10853.88683008,E,5,08,1.0,378.106,M,-35.775,M,14.0,1001*5E
$GPGGA,081720.40,3422.49853920,N,10853.88683183,E,5,08,1.0,378.104,M,-35.775,M,14.0,1001*52
$GPGGA,081720.50,3422.49853960,N,10853.88683136,E,5,08,1.0,378.103,M,-35.775,M,14.0,1001*5E
$GPGGA,081720.60,3422.49854043,N,10853.88683105,E,5,08,1.0,378.104,M,-35.775,M,14.0,1001*55
$GPGGA,081720.70,3422.49854062,N,10853.88683048,E,5,08,1.0,378.107,M,-35.775,M,14.0,1001*5C
$GPGGA,081720.80,3422.49853775,N,10853.88683120,E,5,08,1.0,378.103,M,-35.775,M,14.0,1001*5E
$GPGGA,081720.90,3422.49854042,N,10853.88683177,E,5,08,1.0,378.107,M,-35.775,M,14.0,1001*5D
$GPGGA,081721.00,3422.49853948,N,10853.88683163,E,5,08,1.0,378.107,M,-35.775,M,15.0,1001*55
$GPGGA,081721.10,3422.49853857,N,10853.88683166,E,5,08,1.0,378.107,M,-35.775,M,15.0,1001*5E
$GPGGA,081721.20,3422.49853882,N,10853.88683243,E,5,08,1.0,378.110,M,-35.775,M,15.0,1001*57
$GPGGA,081721.30,3422.49853827,N,10853.88683252,E,5,08,1.0,378.112,M,-35.775,M,15.0,1001*5B
$GPGGA,081721.40,3422.49853901,N,10853.88683211,E,5,08,1.0,378.103,M,-35.775,M,15.0,1001*5E
$GPGGA,081721.50,3422.49853975,N,10853.88683203,E,5,08,1.0,378.108,M,-35.775,M,15.0,1001*54
$GPGGA,081721.60,3422.49854028,N,10853.88683284,E,5,08,1.0,378.099,M,-35.775,M,15.0,1001*57
$GPGGA,081721.70,3422.49853909,N,10853.88683337,E,5,08,1.0,378.101,M,-35.775,M,15.0,1001*52
$GPGGA,081721.80,3422.49853843,N,10853.88683401,E,5,08,1.0,378.107,M,-35.775,M,15.0,1001*56
$GPGGA,081721.90,3422.49853887,N,10853.88683317,E,5,08,1.0,378.105,M,-35.775,M,15.0,1001*5D
$GPGGA,081722.00,3422.49853875,N,10853.88683502,E,5,08,1.0,378.105,M,-35.775,M,16.0,1001*5B
$GPGGA,081722.10,3422.49853812,N,10853.88683338,E,5,08,1.0,378.104,M,-35.775,M,16.0,1001*55
$GPGGA,081722.20,3422.49853863,N,10853.88683426,E,5,08,1.0,378.111,M,-35.775,M,16.0,1001*5C
$GPGGA,081722.30,3422.49853949,N,10853.88683425,E,5,08,1.0,378.107,M,-35.775,M,16.0,1001*50
$GPGGA,081722.40,3422.49853875,N,10853.88683386,E,5,08,1.0,378.109,M,-35.775,M,16.0,1001*59
$GPGGA,081722.50,3422.49853913,N,10853.88683405,E,5,08,1.0,378.106,M,-35.775,M,16.0,1001*5A
$GPGGA,081722.60,3422.49853995,N,10853.88683418,E,5,08,1.0,378.109,M,-35.775,M,16.0,1001*54
$GPGGA,081722.70,3422.49853773,N,10853.88683435,E,5,08,1.0,378.107,M,-35.775,M,16.0,1001*52
$GPGGA,081722.80,3422.49853742,N,10853.88683331,E,5,08,1.0,378.107,M,-35.775,M,16.0,1001*5C
$GPGGA,081722.90,3422.49853767,N,10853.88683282,E,5,08,1.0,378.109,M,-35.775,M,16.0,1001*5D
$GPGGA,081723.00,3422.49853822,N,10853.88683204,E,5,08,1.0,378.102,M,-35.775,M,17.0,1001*5F
$GPGGA,081723.10,3422.49853991,N,10853.88683191,E,5,08,1.0,378.107,M,-35.775,M,17.0,1001*5D
$GPGGA,081723.20,3422.49853732,N,10853.88683301,E,5,08,1.0,378.115,M,-35.775,M,17.0,1001*51
$GPGGA,081723.30,3422.49853829,N,10853.88683183,E,5,08,1.0,378.117,M,-35.775,M,17.0,1001*5F
$GPGGA,081723.40,3422.49853992,N,10853.88683229,E,5,08,1.0,378.109,M,-35.775,M,17.0,1001*55
$GPGGA,081723.50,3422.49854073,N,10853.88683232,E,5,08,1.0,378.107,M,-35.775,M,17.0,1001*51
$GPGGA,081723.60,3422.49853931,N,10853.88683347,E,5,08,1.0,378.107,M,-35.775,M,17.0,1001*59
$GPGGA,081723.70,3422.49853996,N,10853.88683254,E,5,08,1.0,378.100,M,-35.775,M,17.0,1001*51
$GPGGA,081723.80,3422.49854097,N,10853.88683326,E,5,08,1.0,378.110,M,-35.775,M,17.0,1001*54
$GPGGA,081723.90,3422.49853905,N,10853.88683317,E,5,08,1.0,378.116,M,-35.775,M,17.0,1001*54
$GPGGA,081724.00,3422.49854061,N,10853.88683396,E,5,08,1.0,378.111,M,-35.775,M,18.0,1001*57
$GPGGA,081724.10,3422.49854072,N,10853.88683462,E,5,08,1.0,378.110,M,-35.775,M,18.0,1001*59
$GPGGA,081724.20,3422.49853997,N,10853.88683383,E,5,08,1.0,378.112,M,-35.775,M,18.0,1001*55
$GPGGA,081724.30,3422.49853897,N,10853.88683491,E,5,08,1.0,378.111,M,-35.775,M,18.0,1001*52
$GPGGA,081724.40,3422.49854087,N,10853.88683464,E,5,08,1.0,378.113,M,-35.775,M,18.0,1001*53
$GPGGA,081724.50,3422.49854083,N,10853.88683453,E,5,08,1.0,378.121,M,-35.775,M,18.0,1001*53
$GPGGA,081724.60,3422.49853951,N,10853.88683423,E,5,08,1.0,378.108,M,-35.775,M,18.0,1001*5D
$GPGGA,081724.70,3422.49853980,N,10853.88683379,E,5,08,1.0,378.115,M,-35.775,M,18.0,1001*54
$GPGGA,081724.80,3422.49854072,N,10853.88683469,E,5,08,1.0,378.112,M,-35.775,M,18.0,1001*59
$GPGGA,081724.90,3422.49854129,N,10853.88683481,E,5,08,1.0,378.112,M,-35.775,M,18.0,1001*51
$GPGGA,081725.00,3422.49854091,N,10853.88683373,E,5,08,1.0,378.117,M,-35.775,M,19.0,1001*55
$GPGGA,081725.10,3422.49854105,N,10853.88683356,E,5,08,1.0,378.119,M,-35.775,M,19.0,1001*51
$GPGGA,081725.20,3422.49854240,N,10853.88683216,E,5,08,1.0,378.113,M,-35.775,M,19.0,1001*5F
$GPGGA,081725.30,3422.49854156,N,10853.88683318,E,5,08,1.0,378.111,M,-35.775,M,19.0,1001*57
$GPGGA,081725.40,3422.49854366,N,10853.88683366,E,5,08,1.0,378.113,M,-35.775,M,19.0,1001*5A
$GPGGA,081725.50,3422.49854260,N,10853.88683378,E,5,08,1.0,378.109,M,-35.775,M,19.0,1001*58
$GPGGA,081725.60,3422.49854258,N,10853.88683378,E,5,08,1.0,378.112,M,-35.775,M,19.0,1001*5A
$GPGGA,081725.70,3422.49854140,N,10853.88683411,E,5,08,1.0,378.116,M,-35.775,M,19.0,1001*5D
$GPGGA,081725.80,3422.49854244,N,10853.88683355,E,5,08,1.0,378.109,M,-35.775,M,19.0,1001*5C
$GPGGA,081725.90,3422.49854176,N,10853.88683419,E,5,08,1.0,378.114,M,-35.775,M,19.0,1001*5C
$GPGGA,081726.00,3422.49848696,N,10853.88682890,E,5,08,1.0,378.021,M,-35.775,M,3.0,1001*62
$GPGGA,081726.10,3422.49848609,N,10853.88682988,E,5,08,1.0,378.015,M,-35.775,M,3.0,1001*6A
$GPGGA,081726.20,3422.49848945,N,10853.88682868,E,5,08,1.0,378.030,M,-35.775,M,3.0,1001*66
$GPGGA,081726.30,3422.49848859,N,10853.88682863,E,5,08,1.0,378.019,M,-35.775,M,3.0,1001*6B
$GPGGA,081726.40,3422.49848855,N,10853.88682908,E,5,08,1.0,378.021,M,-35.775,M,3.0,1001*67
$GPGGA,081726.50,3422.49848854,N,10853.88682850,E,5,08,1.0,378.016,M,-35.775,M,3.0,1001*6F
$GPGGA,081726.60,3422.49848727,N,10853.88682974,E,5,08,1.0,378.019,M,-35.775,M,3.0,1001*6F
$GPGGA,081726.70,3422.49848760,N,10853.88682814,E,5,08,1.0,378.015,M,-35.775,M,3.0,1001*66
$GPGGA,081726.80,3422.49848714,N,10853.88683028,E,5,08,1.0,378.016,M,-35.775,M,3.0,1001*6F
$GPGGA,081726.90,3422.49848746,N,10853.88682895,E,5,08,1.0,378.023,M,-35.775,M,3.0,1001*60
$GPGGA,081727.00,3422.49848758,N,10853.88682913,E,5,08,1.0,378.013,M,-35.775,M,4.0,1001*6C
$GPGGA,081727.10,3422.49848741,N,10853.88682896,E,5,08,1.0,378.017,M,-35.775,M,4.0,1001*6D
$GPGGA,081727.20,3422.49848813,N,10853.88682897,E,5,08,1.0,378.017,M,-35.775,M,4.0,1001*67
$GPGGA,081727.30,3422.49848799,N,10853.88682913,E,5,08,1.0,378.020,M,-35.775,M,4.0,1001*62
$GPGGA,081727.40,3422.49848650,N,10853.88682916,E,5,08,1.0,378.014,M,-35.775,M,4.0,1001*63
$GPGGA,081727.50,3422.49848565,N,10853.88682933,E,5,08,1.0,378.013,M,-35.775,M,4.0,1001*67
$GPGGA,081727.60,3422.49848728,N,10853.88682933,E,5,08,1.0,378.025,M,-35.775,M,4.0,1001*6A
$GPGGA,081727.70,3422.49848825,N,10853.88682871,E,5,08,1.0,378.021,M,-35.775,M,4.0,1001*6A
$GPGGA,081727.80,3422.49848684,N,10853.88682858,E,5,08,1.0,378.020,M,-35.775,M,4.0,1001*6A
$GPGGA,081727.90,3422.49848721,N,10853.88682944,E,5,08,1.0,378.018,M,-35.775,M,4.0,1001*62
$GPGGA,081728.00,3422.49848819,N,10853.88682924,E,5,08,1.0,378.022,M,-35.775,M,5.0,1001*6E
$GPGGA,081728.10,3422.49848769,N,10853.88682866,E,5,08,1.0,378.023,M,-35.775,M,5.0,1001*61
$GPGGA,081728.20,3422.49848802,N,10853.88683019,E,5,08,1.0,378.023,M,-35.775,M,5.0,1001*61
$GPGGA,081728.30,3422.49848851,N,10853.88682870,E,5,08,1.0,378.021,M,-35.775,M,5.0,1001*62
$GPGGA,081728.40,3422.49848688,N,10853.88682759,E,5,08,1.0,378.019,M,-35.775,M,5.0,1001*60
$GPGGA,081728.50,3422.49848827,N,10853.88682903,E,5,08,1.0,378.020,M,-35.775,M,5.0,1001*61
$GPGGA,081728.60,3422.49848889,N,10853.88682996,E,5,08,1.0,378.021,M,-35.775,M,5.0,1001*6B
$GPGGA,081728.70,3422.49848755,N,10853.88682921,E,5,08,1.0,378.020,M,-35.775,M,5.0,1001*69
$GPGGA,081728.80,3422.49848835,N,10853.88682819,E,5,08,1.0,378.021,M,-35.775,M,5.0,1001*64
$GPGGA,081728.90,3422.49848864,N,10853.88682790,E,5,08,1.0,378.018,M,-35.775,M,5.0,1001*65
$GPGGA,081729.00,3422.49848669,N,10853.88682791,E,5,08,1.0,378.023,M,-35.775,M,6.0,1001*64
$GPGGA,081729.10,3422.49848747,N,10853.88682924,E,5,08,1.0,378.016,M,-35.775,M,6.0,1001*6E
$GPGGA,081729.20,3422.49848817,N,10853.88682732,E,5,08,1.0,378.020,M,-35.775,M,6.0,1001*6B
$GPGGA,081729.30,3422.49848587,N,10853.88682829,E,5,08,1.0,378.012,M,-35.775,M,6.0,1001*6A
$GPGGA,081729.40,3422.49848753,N,10853.88682734,E,5,08,1.0,378.017,M,-35.775,M,6.0,1001*60
$GPGGA,081729.50,3422.49848728,N,10853.88682775,E,5,08,1.0,378.018,M,-35.775,M,6.0,1001*67
$GPGGA,081729.60,3422.49848785,N,10853.88682879,E,5,08,1.0,378.013,M,-35.775,M,6.0,1001*6B
$GPGGA,081729.70,3422.49848917,N,10853.88682780,E,5,08,1.0,378.013,M,-35.775,M,6.0,1001*66
$GPGGA,081729.80,3422.49848639,N,10853.88682793,E,5,08,1.0,378.008,M,-35.775,M,6.0,1001*62
$GPGGA,081729.90,3422.49848680,N,10853.88682760,E,5,08,1.0,378.010,M,-35.775,M,6.0,1001*64
$GPGGA,081730.00,3422.49848839,N,10853.88682803,E,5,08,1.0,378.014,M,-35.775,M,7.0,1001*66
$GPGGA,081730.10,3422.49848782,N,10853.88682821,E,5,08,1.0,378.008,M,-35.775,M,7.0,1001*65
$GPGGA,081730.20,3422.49848820,N,10853.88682872,E,5,08,1.0,378.012,M,-35.775,M,7.0,1001*6C
$GPGGA,081730.30,3422.49848782,N,10853.88682839,E,5,08,1.0,378.010,M,-35.775,M,7.0,1001*67
$GPGGA,081730.40,3422.49848775,N,10853.88682808,E,5,08,1.0,378.008,M,-35.775,M,7.0,1001*63
$GPGGA,081730.50,3422.49848725,N,10853.88682815,E,5,08,1.0,378.016,M,-35.775,M,7.0,1001*64
$GPGGA,081730.60,3422.49848686,N,10853.88682749,E,5,08,1.0,378.014,M,-35.775,M,7.0,1001*6B
$GPGGA,081730.70,3422.49848663,N,10853.88682722,E,5,08,1.0,378.012,M,-35.775,M,7.0,1001*6A
$GPGGA,081730.80,3422.49848399,N,10853.88682962,E,5,08,1.0,378.000,M,-35.775,M,7.0,1001*6C
$GPGGA,081730.90,3422.49848446,N,10853.88682930,E,5,08,1.0,378.007,M,-35.775,M,7.0,1001*68
$GPGGA,081731.00,3422.49848542,N,10853.88682738,E,5,08,1.0,378.002,M,-35.775,M,8.0,1001*69
$GPGGA,081731.10,3422.49848452,N,10853.88682701,E,5,08,1.0,378.003,M,-35.775,M,8.0,1001*63
$GPGGA,081731.20,3422.49848167,N,10853.88682792,E,5,08,1.0,378.006,M,-35.775,M,8.0,1001*6C
$GPGGA,081731.30,3422.49848628,N,10853.88682768,E,5,08,1.0,378.008,M,-35.775,M,8.0,1001*6A
$GPGGA,081731.40,3422.49848566,N,10853.88682821,E,5,08,1.0,378.006,M,-35.775,M,8.0,1001*68
$GPGGA,081731.50,3422.49848357,N,10853.88682708,E,5,08,1.0,378.007,M,-35.775,M,8.0,1001*68
$GPGGA,081731.60,3422.49848145,N,10853.88682736,E,5,08,1.0,377.999,M,-35.775,M,8.0,1001*66
$GPGGA,081731.70,3422.49848341,N,10853.88682656,E,5,08,1.0,378.000,M,-35.775,M,8.0,1001*60
$GPGGA,081731.80,3422.49848418,N,10853.88682730,E,5,08,1.0,378.001,M,-35.775,M,8.0,1001*64
$GPGGA,081731.90,3422.49848290,N,10853.88682760,E,5,08,1.0,378.005,M,-35.775,M,8.0,1001*62
$GPGGA,081732.00,3422.49848573,N,10853.88682845,E,5,08,1.0,378.004,M,-35.775,M,9.0,1001*6A
$GPGGA,081732.10,3422.49848556,N,10853.88682743,E,5,08,1.0,378.006,M,-35.775,M,9.0,1001*67
$GPGGA,081732.20,3422.49848386,N,10853.88682785,E,5,08,1.0,377.998,M,-35.775,M,9.0,1001*64
$GPGGA,081732.30,3422.49848250,N,10853.88682781,E,5,08,1.0,378.000,M,-35.775,M,9.0,1001*6C
$GPGGA,081732.40,3422.49848452,N,10853.88682664,E,5,08,1.0,377.998,M,-35.775,M,9.0,1001*62
$GPGGA,081732.50,3422.49848445,N,10853.88682682,E,5,08,1.0,378.000,M,-35.775,M,9.0,1001*6A
$GPGGA,081732.60,3422.49848275,N,10853.88682738,E,5,08,1.0,378.006,M,-35.775,M,9.0,1001*6A
$GPGGA,081732.70,3422.49848267,N,10853.88682779,E,5,08,1.0,377.998,M,-35.775,M,9.0,1001*6C
$GPGGA,081732.80,3422.49848278,N,10853.88682870,E,5,08,1.0,377.996,M,-35.775,M,9.0,1001*65
$GPGGA,081732.90,3422.49848403,N,10853.88682675,E,5,08,1.0,377.998,M,-35.775,M,9.0,1001*6B
$GPGGA,081733.00,3422.49848213,N,10853.88682701,E,5,08,1.0,378.005,M,-35.775,M,10.0,1001*5C
$GPGGA,081733.10,3422.49848122,N,10853.88682673,E,5,08,1.0,378.006,M,-35.775,M,10.0,1001*5B
$GPGGA,081733.20,3422.49848310,N,10853.88682557,E,5,08,1.0,378.002,M,-35.775,M,10.0,1001*5A
$GPGGA,081733.30,3422.49848257,N,10853.88682572,E,5,08,1.0,377.999,M,-35.775,M,10.0,1001*5A
$GPGGA,081733.40,3422.49848101,N,10853.88682693,E,5,08,1.0,377.997,M,-35.775,M,10.0,1001*5F
$GPGGA,081733.50,3422.49848177,N,10853.88682594,E,5,08,1.0,377.999,M,-35.775,M,10.0,1001*55
$GPGGA,081733.60,3422.49848124,N,10853.88682667,E,5,08,1.0,378.000,M,-35.775,M,10.0,1001*59
$GPGGA,081733.70,3422.49848144,N,10853.88682571,E,5,08,1.0,377.998,M,-35.775,M,10.0,1001*5D
$GPGGA,081733.80,3422.49848052,N,10853.88682587,E,5,08,1.0,377.997,M,-35.775,M,10.0,1001*52
$GPGGA,081733.90,3422.49848206,N,10853.88682554,E,5,08,1.0,377.998,M,-35.775,M,10.0,1001*51
$GPGGA,081734.00,3422.49848293,N,10853.88682536,E,5,08,1.0,378.005,M,-35.775,M,11.0,1001*54
$GPGGA,081734.10,3422.49848172,N,10853.88682693,E,5,08,1.0,378.003,M,-35.775,M,11.0,1001*53
$GPGGA,081734.20,3422.49848056,N,10853.88682691,E,5,08,1.0,377.995,M,-35.775,M,11.0,1001*5C
$GPGGA,081734.30,3422.49848199,N,10853.88682575,E,5,08,1.0,377.998,M,-35.775,M,11.0,1001*5B
$GPGGA,081734.40,3422.49848258,N,10853.88682551,E,5,08,1.0,377.992,M,-35.775,M,11.0,1001*5E
$GPGGA,081734.50,3422.49848176,N,10853.88682578,E,5,08,1.0,377.991,M,-35.775,M,11.0,1001*58
$GPGGA,081734.60,3422.49848015,N,10853.88682596,E,5,08,1.0,377.994,M,-35.775,M,11.0,1001*5A
$GPGGA,081734.70,3422.49848236,N,10853.88682660,E,5,08,1.0,377.993,M,-35.775,M,11.0,1001*55
$GPGGA,081734.80,3422.49848158,N,10853.88682446,E,5,08,1.0,377.999,M,-35.775,M,11.0,1001*5D
$GPGGA,081734.90,3422.49848165,N,10853.88682624,E,5,08,1.0,378.004,M,-35.775,M,11.0,1001*56
$GPGGA,081735.00,3422.49848272,N,10853.88682488,E,5,08,1.0,378.000,M,-35.775,M,12.0,1001*58
$GPGGA,081735.10,3422.49848355,N,10853.88682555,E,5,08,1.0,377.997,M,-35.775,M,12.0,1001*54
$GPGGA,081735.20,3422.49848219,N,10853.88682507,E,5,08,1.0,378.001,M,-35.775,M,12.0,1001*50
$GPGGA,081735.30,3422.49848360,N,10853.88682559,E,5,08,1.0,378.000,M,-35.775,M,12.0,1001*54
$GPGGA,081735.40,3422.49848198,N,10853.88682451,E,5,08,1.0,377.999,M,-35.775,M,12.0,1001*59
$GPGGA,081735.50,3422.49848246,N,10853.88682566,E,5,08,1.0,377.994,M,-35.775,M,12.0,1001*50
