$GNGGA,091123.80,3422.44034341,N,10853.99977778,E,1,18,0.8,376.670,M,-35.766,M,,*54
$GNGGA,091123.90,3422.44034329,N,10853.99977764,E,1,18,0.8,376.669,M,-35.766,M,,*5E
$GNGGA,091124.00,3422.44034316,N,10853.99977749,E,1,18,0.8,376.668,M,-35.766,M,,*52
$GNGGA,091124.10,3422.44034303,N,10853.99977734,E,1,18,0.8,376.668,M,-35.766,M,,*5D
$GNGGA,091124.20,3422.44034291,N,10853.99977719,E,1,18,0.8,376.667,M,-35.766,M,,*54
$GNGGA,091124.30,3422.44034278,N,10853.99977705,E,1,18,0.8,376.666,M,-35.766,M,,*5E
$GNGGA,091124.40,3422.44034266,N,10853.99977690,E,1,18,0.8,376.665,M,-35.766,M,,*58
$GNGGA,091124.50,3422.44034253,N,10853.99977675,E,1,18,0.8,376.665,M,-35.766,M,,*54
$GNGGA,091124.60,3422.44034240,N,10853.99977661,E,1,18,0.8,376.664,M,-35.766,M,,*51
$GNGGA,091124.70,3422.44034228,N,10853.99977646,E,1,18,0.8,376.663,M,-35.766,M,,*5C
$GNGGA,091124.80,3422.44034216,N,10853.99977631,E,1,18,0.8,376.662,M,-35.766,M,,*5F
$GNGGA,091124.90,3422.44034203,N,10853.99977617,E,1,18,0.8,376.662,M,-35.766,M,,*5E
$GNGGA,091125.00,3422.44034191,N,10853.99977602,E,1,18,0.8,376.661,M,-35.766,M,,*59
$GNGGA,091125.10,3422.44034178,N,10853.99977587,E,1,18,0.8,376.660,M,-35.766,M,,*50
$GNGGA,091125.20,3422.44034166,N,10853.99977573,E,1,18,0.8,376.659,M,-35.766,M,,*5D
$GNGGA,091125.30,3422.44034154,N,10853.99977558,E,1,18,0.8,376.659,M,-35.766,M,,*54
$GNGGA,091125.40,3422.44034142,N,10853.99977544,E,1,18,0.8,376.658,M,-35.766,M,,*58
$GNGGA,091125.50,3422.44034130,N,10853.99977529,E,1,18,0.8,376.657,M,-35.766,M,,*58
$GNGGA,091125.60,3422.44034118,N,10853.99977514,E,1,18,0.8,376.657,M,-35.766,M,,*5F
$GNGGA,091125.70,3422.44034106,N,10853.99977500,E,1,18,0.8,376.656,M,-35.766,M,,*55
$GNGGA,091125.80,3422.44034094,N,10853.99977485,E,1,18,0.8,376.655,M,-35.766,M,,*5F
$GNGGA,091125.90,3422.44034082,N,10853.99977471,E,1,18,0.8,376.654,M,-35.766,M,,*53
$GNGGA,091126.00,3422.44034069,N,10853.99977456,E,1,18,0.8,376.654,M,-35.766,M,,*59
$GNGGA,091126.10,3422.44034057,N,10853.99977442,E,1,18,0.8,376.653,M,-35.766,M,,*57
$GNGGA,091126.20,3422.44034045,N,10853.99977427,E,1,18,0.8,376.652,M,-35.766,M,,*55
$GNGGA,091126.30,3422.44034033,N,10853.99977412,E,1,18,0.8,376.651,M,-35.766,M,,*50
$GNGGA,091126.40,3422.44034021,N,10853.99977398,E,1,18,0.8,376.651,M,-35.766,M,,*51
$GNGGA,091126.50,3422.44034010,N,10853.99977383,E,1,18,0.8,376.650,M,-35.766,M,,*59
$GNGGA,091126.60,3422.44033997,N,10853.99977369,E,1,18,0.8,376.649,M,-35.766,M,,*57
$GNGGA,091126.70,3422.44033985,N,10853.99977354,E,1,18,0.8,376.648,M,-35.766,M,,*5A
$GNGGA,091126.80,3422.44033973,N,10853.99977340,E,1,18,0.8,376.648,M,-35.766,M,,*59
$GNGGA,091126.90,3422.44033961,N,10853.99977325,E,1,18,0.8,376.647,M,-35.766,M,,*57
$GNGGA,091127.00,3422.44033948,N,10853.99977311,E,1,18,0.8,376.646,M,-35.766,M,,*52
$GNGGA,091127.10,3422.44033936,N,10853.99977296,E,1,18,0.8,376.645,M,-35.766,M,,*57
$GNGGA,091127.20,3422.44033924,N,10853.99977281,E,1,18,0.8,376.645,M,-35.766,M,,*51
$GNGGA,091127.30,3422.44033912,N,10853.99977267,E,1,18,0.8,376.644,M,-35.766,M,,*5C
$GNGGA,091127.40,3422.44033901,N,10853.99977252,E,1,18,0.8,376.643,M,-35.766,M,,*58
$GNGGA,091127.50,3422.44033889,N,10853.99977237,E,1,18,0.8,376.642,M,-35.766,M,,*5A
$GNGGA,091127.60,3422.44033878,N,10853.99977223,E,1,18,0.8,376.642,M,-35.766,M,,*52
$GNGGA,091127.70,3422.44033866,N,10853.99977208,E,1,18,0.8,376.641,M,-35.766,M,,*56
$GNGGA,091127.80,3422.44033854,N,10853.99977194,E,1,18,0.8,376.640,M,-35.766,M,,*5F
$GNGGA,091127.90,3422.44033842,N,10853.99977179,E,1,18,0.8,376.639,M,-35.766,M,,*54
$GNGGA,091128.00,3422.44033831,N,10853.99977165,E,1,18,0.8,376.639,M,-35.766,M,,*5B
$GNGGA,091128.10,3422.44033820,N,10853.99977150,E,1,18,0.8,376.638,M,-35.766,M,,*5D
$GNGGA,091128.20,3422.44033809,N,10853.99977136,E,1,18,0.8,376.637,M,-35.766,M,,*5A
$GNGGA,091128.30,3422.44033797,N,10853.99977121,E,1,18,0.8,376.636,M,-35.766,M,,*54
$GNGGA,091128.40,3422.44033786,N,10853.99977107,E,1,18,0.8,376.636,M,-35.766,M,,*57
$GNGGA,091128.50,3422.44033775,N,10853.99977092,E,1,18,0.8,376.635,M,-35.766,M,,*54
$GNGGA,091128.60,3422.44033764,N,10853.99977078,E,1,18,0.8,376.634,M,-35.766,M,,*52
$GNGGA,091128.70,3422.44033752,N,10853.99977063,E,1,18,0.8,376.633,M,-35.766,M,,*5B
$GNGGA,091128.80,3422.44033740,N,10853.99977049,E,1,18,0.8,376.633,M,-35.766,M,,*5F
$GNGGA,091128.90,3422.44033729,N,10853.99977034,E,1,18,0.8,376.632,M,-35.766,M,,*5A
$GNGGA,091129.00,3422.44033718,N,10853.99977020,E,1,18,0.8,376.631,M,-35.766,M,,*56
$GNGGA,091129.10,3422.44033707,N,10853.99977006,E,1,18,0.8,376.630,M,-35.766,M,,*5C
$GNGGA,091129.20,3422.44033696,N,10853.99976992,E,1,18,0.8,376.630,M,-35.766,M,,*53
$GNGGA,091129.30,3422.44033685,N,10853.99976978,E,1,18,0.8,376.629,M,-35.766,M,,*5C
$GNGGA,091129.40,3422.44033674,N,10853.99976963,E,1,18,0.8,376.628,M,-35.766,M,,*5E
$GNGGA,091129.50,3422.44033663,N,10853.99976949,E,1,18,0.8,376.627,M,-35.766,M,,*5E
$GNGGA,091129.60,3422.44033652,N,10853.99976935,E,1,18,0.8,376.627,M,-35.766,M,,*54
$GNGGA,091129.70,3422.44033642,N,10853.99976921,E,1,18,0.8,376.626,M,-35.766,M,,*50
$GNGGA,091129.80,3422.44033631,N,10853.99976907,E,1,18,0.8,376.625,M,-35.766,M,,*5C
$GNGGA,091129.90,3422.44033620,N,10853.99976893,E,1,18,0.8,376.624,M,-35.766,M,,*50
$GNGGA,091130.00,3422.44033610,N,10853.99976879,E,1,18,0.8,376.624,M,-35.766,M,,*56
$GNGGA,091130.10,3422.44033599,N,10853.99976865,E,1,18,0.8,376.623,M,-35.766,M,,*5F
$GNGGA,091130.20,3422.44033588,N,10853.99976851,E,1,18,0.8,376.622,M,-35.766,M,,*5A
$GNGGA,091130.30,3422.44033578,N,10853.99976837,E,1,18,0.8,376.621,M,-35.766,M,,*57
$GNGGA,091130.40,3422.44033567,N,10853.99976823,E,1,18,0.8,376.621,M,-35.766,M,,*5B
$GNGGA,091130.50,3422.44033557,N,10853.99976809,E,1,18,0.8,376.620,M,-35.766,M,,*50
$GNGGA,091130.60,3422.44033546,N,10853.99976795,E,1,18,0.8,376.619,M,-35.766,M,,*53
$GNGGA,091130.70,3422.44033536,N,10853.99976781,E,1,18,0.8,376.618,M,-35.766,M,,*51
$GNGGA,091130.80,3422.44033525,N,10853.99976767,E,1,18,0.8,376.618,M,-35.766,M,,*54
$GNGGA,091130.90,3422.44033514,N,10853.99976753,E,1,18,0.8,376.617,M,-35.766,M,,*5F
$GNGGA,091131.00,3422.44033504,N,10853.99976739,E,1,18,0.8,376.616,M,-35.766,M,,*5B
$GNGGA,091131.10,3422.44033493,N,10853.99976725,E,1,18,0.8,376.615,M,-35.766,M,,*5B
$GNGGA,091131.20,3422.44033482,N,10853.99976711,E,1,18,0.8,376.615,M,-35.766,M,,*5F
$GNGGA,091131.30,3422.44033472,N,10853.99976697,E,1,18,0.8,376.614,M,-35.766,M,,*5F
$GNGGA,091131.40,3422.44033461,N,10853.99976683,E,1,18,0.8,376.613,M,-35.766,M,,*58
$GNGGA,091131.50,3422.44033450,N,10853.99976669,E,1,18,0.8,376.612,M,-35.766,M,,*5E
$GNGGA,091131.60,3422.44033440,N,10853.99976655,E,1,18,0.8,376.612,M,-35.766,M,,*53
$GNGGA,091131.70,3422.44033429,N,10853.99976641,E,1,18,0.8,376.611,M,-35.766,M,,*5B
$GNGGA,091131.80,3422.44033419,N,10853.99976627,E,1,18,0.8,376.610,M,-35.766,M,,*56
$GNGGA,091131.90,3422.44033408,N,10853.99976613,E,1,18,0.8,376.610,M,-35.766,M,,*50
$GNGGA,091132.00,3422.44033398,N,10853.99976599,E,1,18,0.8,376.609,M,-35.766,M,,*5D
$GNGGA,091132.10,3422.44033388,N,10853.99976585,E,1,18,0.8,376.608,M,-35.766,M,,*51
$GNGGA,091132.20,3422.44033377,N,10853.99976571,E,1,18,0.8,376.607,M,-35.766,M,,*56
$GNGGA,091132.30,3422.44033367,N,10853.99976557,E,1,18,0.8,376.607,M,-35.766,M,,*52
$GNGGA,091132.40,3422.44033357,N,10853.99976543,E,1,18,0.8,376.606,M,-35.766,M,,*52
$GNGGA,091132.50,3422.44033347,N,10853.99976529,E,1,18,0.8,376.605,M,-35.766,M,,*5D
$GNGGA,091132.60,3422.44033337,N,10853.99976516,E,1,18,0.8,376.604,M,-35.766,M,,*54
$GNGGA,091132.70,3422.44033327,N,10853.99976502,E,1,18,0.8,376.604,M,-35.766,M,,*51
$GNGGA,091132.80,3422.44033317,N,10853.99976488,E,1,18,0.8,376.603,M,-35.766,M,,*59
$GNGGA,091132.90,3422.44033307,N,10853.99976474,E,1,18,0.8,376.602,M,-35.766,M,,*5B
$GNGGA,091133.00,3422.44033297,N,10853.99976460,E,1,18,0.8,376.601,M,-35.766,M,,*5D
$GNGGA,091133.10,3422.44033287,N,10853.99976447,E,1,18,0.8,376.601,M,-35.766,M,,*58
$GNGGA,091133.20,3422.44033277,N,10853.99976433,E,1,18,0.8,376.600,M,-35.766,M,,*56
$GNGGA,091133.30,3422.44033267,N,10853.99976419,E,1,18,0.8,376.599,M,-35.766,M,,*5D
$GNGGA,091133.40,3422.44033258,N,10853.99976405,E,1,18,0.8,376.598,M,-35.766,M,,*5A
$GNGGA,091133.50,3422.44033250,N,10853.99976392,E,1,18,0.8,376.598,M,-35.766,M,,*5A
$GNGGA,091133.60,3422.44033241,N,10853.99976378,E,1,18,0.8,376.597,M,-35.766,M,,*52
$GNGGA,091133.70,3422.44033232,N,10853.99976364,E,1,18,0.8,376.596,M,-35.766,M,,*5B
$GNGGA,091133.80,3422.44033223,N,10853.99976350,E,1,18,0.8,376.596,M,-35.766,M,,*53
$GNGGA,091133.90,3422.44033215,N,10853.99976337,E,1,18,0.8,376.595,M,-35.766,M,,*55
$GNGGA,091134.00,3422.44033204,N,10853.99976323,E,1,18,0.8,376.594,M,-35.766,M,,*5F
$GNGGA,091134.10,3422.44033194,N,10853.99976309,E,1,18,0.8,376.593,M,-35.766,M,,*5B
$GNGGA,091134.20,3422.44033184,N,10853.99976296,E,1,18,0.8,376.593,M,-35.766,M,,*5E
$GNGGA,091134.30,3422.44033174,N,10853.99976282,E,1,18,0.8,376.592,M,-35.766,M,,*54
$GNGGA,091134.40,3422.44033164,N,10853.99976268,E,1,18,0.8,376.591,M,-35.766,M,,*55
$GNGGA,091134.50,3422.44033154,N,10853.99976254,E,1,18,0.8,376.590,M,-35.766,M,,*59
$GNGGA,091134.60,3422.44033144,N,10853.99976241,E,1,18,0.8,376.590,M,-35.766,M,,*5F
$GNGGA,091134.70,3422.44033134,N,10853.99976227,E,1,18,0.8,376.589,M,-35.766,M,,*51
$GNGGA,091134.80,3422.44033124,N,10853.99976214,E,1,18,0.8,376.588,M,-35.766,M,,*5E
$GNGGA,091134.90,3422.44033114,N,10853.99976200,E,1,18,0.8,376.588,M,-35.766,M,,*59
$GNGGA,091135.00,3422.44033104,N,10853.99976186,E,1,18,0.8,376.587,M,-35.766,M,,*52
$GNGGA,091135.10,3422.44033094,N,10853.99976173,E,1,18,0.8,376.586,M,-35.766,M,,*50
$GNGGA,091135.20,3422.44033084,N,10853.99976159,E,1,18,0.8,376.585,M,-35.766,M,,*59
$GNGGA,091135.30,3422.44033074,N,10853.99976146,E,1,18,0.8,376.585,M,-35.766,M,,*59
$GNGGA,091135.40,3422.44033065,N,10853.99976132,E,1,18,0.8,376.584,M,-35.766,M,,*5C
$GNGGA,091135.50,3422.44033056,N,10853.99976119,E,1,18,0.8,376.583,M,-35.766,M,,*53
$GNGGA,091135.60,3422.44033046,N,10853.99976105,E,1,18,0.8,376.582,M,-35.766,M,,*5D
$GNGGA,091135.70,3422.44033037,N,10853.99976092,E,1,18,0.8,376.582,M,-35.766,M,,*55
$GNGGA,091135.80,3422.44033027,N,10853.99976078,E,1,18,0.8,376.581,M,-35.766,M,,*5C
$GNGGA,091135.90,3422.44033018,N,10853.99976065,E,1,18,0.8,376.580,M,-35.766,M,,*5C
$GNGGA,091136.00,3422.44033008,N,10853.99976052,E,1,18,0.8,376.579,M,-35.766,M,,*55
$GNGGA,091136.10,3422.44032999,N,10853.99976038,E,1,18,0.8,376.579,M,-35.766,M,,*58
$GNGGA,091136.20,3422.44032990,N,10853.99976025,E,1,18,0.8,376.578,M,-35.766,M,,*5F
$GNGGA,091136.30,3422.44032980,N,10853.99976012,E,1,18,0.8,376.577,M,-35.766,M,,*54
$GNGGA,091136.40,3422.44032971,N,10853.99975999,E,1,18,0.8,376.577,M,-35.766,M,,*54
$GNGGA,091136.50,3422.44032961,N,10853.99975985,E,1,18,0.8,376.576,M,-35.766,M,,*58
$GNGGA,091136.60,3422.44032952,N,10853.99975972,E,1,18,0.8,376.575,M,-35.766,M,,*50
$GNGGA,091136.70,3422.44032943,N,10853.99975959,E,1,18,0.8,376.574,M,-35.766,M,,*59
$GNGGA,091136.80,3422.44032933,N,10853.99975946,E,1,18,0.8,376.574,M,-35.766,M,,*5F
$GNGGA,091136.90,3422.44032924,N,10853.99975933,E,1,18,0.8,376.573,M,-35.766,M,,*5D
$GNGGA,091137.00,3422.44032915,N,10853.99975920,E,1,18,0.8,376.572,M,-35.766,M,,*54
$GNGGA,091137.10,3422.44032905,N,10853.99975907,E,1,18,0.8,376.571,M,-35.766,M,,*52
$GNGGA,091137.20,3422.44032896,N,10853.99975894,E,1,18,0.8,376.571,M,-35.766,M,,*51
$GNGGA,091137.30,3422.44032887,N,10853.99975881,E,1,18,0.8,376.570,M,-35.766,M,,*55
$GNGGA,091137.40,3422.44032878,N,10853.99975868,E,1,18,0.8,376.569,M,-35.766,M,,*5D
$GNGGA,091137.50,3422.44032869,N,10853.99975855,E,1,18,0.8,376.568,M,-35.766,M,,*53
$GNGGA,091137.60,3422.44032860,N,10853.99975842,E,1,18,0.8,376.568,M,-35.766,M,,*5F
$GNGGA,091137.70,3422.44032851,N,10853.99975829,E,1,18,0.8,376.567,M,-35.766,M,,*5E
$GNGGA,091137.80,3422.44032843,N,10853.99975816,E,1,18,0.8,376.566,M,-35.766,M,,*5F
$GNGGA,091137.90,3422.44032834,N,10853.99975803,E,1,18,0.8,376.565,M,-35.766,M,,*59
$GNGGA,091138.00,3422.44032826,N,10853.99975791,E,1,18,0.8,376.565,M,-35.766,M,,*58
$GNGGA,091138.10,3422.44032818,N,10853.99975778,E,1,18,0.8,376.564,M,-35.766,M,,*52
$GNGGA,091138.20,3422.44032810,N,10853.99975765,E,1,18,0.8,376.563,M,-35.766,M,,*52
$GNGGA,091138.30,3422.44032802,N,10853.99975752,E,1,18,0.8,376.563,M,-35.766,M,,*54
$GNGGA,091138.40,3422.44032795,N,10853.99975739,E,1,18,0.8,376.562,M,-35.766,M,,*5E
$GNGGA,091138.50,3422.44032789,N,10853.99975725,E,1,18,0.8,376.561,M,-35.766,M,,*5C
$GNGGA,091138.60,3422.44032784,N,10853.99975712,E,1,18,0.8,376.561,M,-35.766,M,,*56
$GNGGA,091138.70,3422.44032780,N,10853.99975698,E,1,18,0.8,376.560,M,-35.766,M,,*51
$GNGGA,091138.80,3422.44032777,N,10853.99975684,E,1,18,0.8,376.559,M,-35.766,M,,*51
$GNGGA,091138.90,3422.44032774,N,10853.99975669,E,1,18,0.8,376.559,M,-35.766,M,,*50
$GNGGA,091139.00,3422.44027952,N,10853.99956573,E,1,18,0.8,375.695,M,-35.766,M,,*5F
$GNGGA,091139.10,3422.44034527,N,10853.99974770,E,1,18,0.8,376.559,M,-35.766,M,,*53
$GNGGA,091139.20,3422.44036640,N,10853.99972823,E,1,18,0.8,376.478,M,-35.766,M,,*5D
$GNGGA,091139.30,3422.44039002,N,10853.99971674,E,1,18,0.8,376.473,M,-35.766,M,,*57
$GNGGA,091139.40,3422.44041710,N,10853.99969501,E,1,18,0.8,376.400,M,-35.766,M,,*57
$GNGGA,091139.50,3422.44044522,N,10853.99968047,E,1,18,0.8,376.400,M,-35.766,M,,*56
$GNGGA,091139.60,3422.44047574,N,10853.99965595,E,1,18,0.8,376.333,M,-35.766,M,,*55
$GNGGA,091139.70,3422.44050901,N,10853.99964060,E,1,18,0.8,376.331,M,-35.766,M,,*50
$GNGGA,091139.80,3422.44055097,N,10853.99961209,E,1,18,0.8,376.273,M,-35.766,M,,*53
$GNGGA,091139.90,3422.44058743,N,10853.99959269,E,1,18,0.8,376.279,M,-35.766,M,,*56
$GNGGA,091140.00,3422.44061744,N,10853.99955373,E,1,18,0.8,376.236,M,-35.766,M,,*51
$GNGGA,091140.10,3422.44066046,N,10853.99953339,E,1,18,0.8,376.237,M,-35.766,M,,*5B
$GNGGA,091140.20,3422.44069716,N,10853.99949432,E,1,18,0.8,376.191,M,-35.766,M,,*5D
$GNGGA,091140.30,3422.44074312,N,10853.99947094,E,1,18,0.8,376.190,M,-35.766,M,,*57
$GNGGA,091140.40,3422.44079133,N,10853.99943778,E,1,18,0.8,376.137,M,-35.766,M,,*50
$GNGGA,091140.50,3422.44084285,N,10853.99941302,E,1,18,0.8,376.140,M,-35.766,M,,*56
$GNGGA,091140.60,3422.44089355,N,10853.99937667,E,1,18,0.8,376.087,M,-35.766,M,,*59
$GNGGA,091140.70,3422.44094987,N,10853.99935033,E,1,18,0.8,376.083,M,-35.766,M,,*50
$GNGGA,091140.80,3422.44100392,N,10853.99931269,E,1,18,0.8,376.035,M,-35.766,M,,*59
$GNGGA,091140.90,3422.44106252,N,10853.99928442,E,1,18,0.8,376.026,M,-35.766,M,,*56
$GNGGA,091141.00,3422.44112424,N,10853.99924477,E,1,18,0.8,375.982,M,-35.766,M,,*52
$GNGGA,091141.10,3422.44118748,N,10853.99921407,E,1,18,0.8,375.985,M,-35.766,M,,*55
$GNGGA,091141.20,3422.44125039,N,10853.99917449,E,1,18,0.8,375.951,M,-35.766,M,,*5F
$GNGGA,091141.30,3422.44131349,N,10853.99914301,E,1,18,0.8,375.945,M,-35.766,M,,*52
$GNGGA,091141.40,3422.44136734,N,10853.99909690,E,1,18,0.8,375.925,M,-35.766,M,,*5B
$GNGGA,091141.50,3422.44143289,N,10853.99906444,E,1,18,0.8,375.923,M,-35.766,M,,*59
$GNGGA,091141.60,3422.44148322,N,10853.99901544,E,1,18,0.8,375.910,M,-35.766,M,,*57
$GNGGA,091141.70,3422.44154973,N,10853.99898559,E,1,18,0.8,375.910,M,-35.766,M,,*58
$GNGGA,091141.80,3422.44160940,N,10853.99894624,E,1,19,0.7,375.899,M,-35.766,M,,*5B
$GNGGA,091141.90,3422.44167638,N,10853.99891448,E,1,19,0.7,375.899,M,-35.766,M,,*50
$GNGGA,091142.00,3422.44173817,N,10853.99887751,E,1,19,0.7,375.891,M,-35.766,M,,*58
$GNGGA,091142.10,3422.44180324,N,10853.99884634,E,1,19,0.7,375.889,M,-35.766,M,,*56
$GNGGA,091142.20,3422.44185845,N,10853.99880717,E,1,19,0.7,375.880,M,-35.766,M,,*51
$GNGGA,091142.30,3422.44192103,N,10853.99877876,E,1,19,0.7,375.881,M,-35.766,M,,*5C
$GNGGA,091142.40,3422.44197699,N,10853.99874752,E,1,19,0.7,375.872,M,-35.766,M,,*5C
$GNGGA,091142.50,3422.44203561,N,10853.99872171,E,1,19,0.7,375.872,M,-35.766,M,,*56
$GNGGA,091142.60,3422.44208768,N,10853.99869501,E,1,19,0.7,375.863,M,-35.766,M,,*5C
$GNGGA,091142.70,3422.44214218,N,10853.99867138,E,1,19,0.7,375.866,M,-35.766,M,,*57
$GNGGA,091142.80,3422.44219091,N,10853.99864881,E,1,19,0.7,375.857,M,-35.766,M,,*5C
$GNGGA,091142.90,3422.44223985,N,10853.99862980,E,1,19,0.7,375.855,M,-35.766,M,,*5C
$GNGGA,091143.00,3422.44228324,N,10853.99861198,E,1,19,0.7,375.850,M,-35.766,M,,*59
$GNGGA,091143.10,3422.44232582,N,10853.99859386,E,1,19,0.7,375.852,M,-35.766,M,,*5D
$GNGGA,091143.20,3422.44236336,N,10853.99858121,E,1,19,0.7,375.843,M,-35.766,M,,*5D
$GNGGA,091143.30,3422.44240054,N,10853.99856833,E,1,19,0.7,375.843,M,-35.766,M,,*5E
$GNGGA,091143.40,3422.44243269,N,10853.99855964,E,1,19,0.7,375.833,M,-35.766,M,,*51
$GNGGA,091143.50,3422.44246320,N,10853.99854918,E,1,19,0.7,375.827,M,-35.766,M,,*56
$GNGGA,091143.60,3422.44248908,N,10853.99854313,E,1,19,0.7,375.818,M,-35.766,M,,*56
$GNGGA,091143.70,3422.44251326,N,10853.99853570,E,1,19,0.7,375.820,M,-35.766,M,,*56
$GNGGA,091143.80,3422.44252979,N,10853.99853014,E,1,19,0.7,375.817,M,-35.766,M,,*59
$GNGGA,091143.90,3422.44254686,N,10853.99852565,E,1,19,0.7,375.818,M,-35.766,M,,*5C
$GNGGA,091144.00,3422.44255498,N,10853.99852230,E,1,19,0.7,375.817,M,-35.766,M,,*56
$GNGGA,091144.10,3422.44256479,N,10853.99851820,E,1,19,0.7,375.817,M,-35.766,M,,*53
$GNGGA,091144.20,3422.44256552,N,10853.99851647,E,1,19,0.7,375.812,M,-35.766,M,,*52
$GNGGA,091144.30,3422.44256758,N,10853.99851619,E,1,19,0.7,375.813,M,-35.766,M,,*51
$GNGGA,091144.40,3422.44255030,N,10853.99850749,E,1,19,0.7,375.818,M,-35.766,M,,*52
$GNGGA,091144.50,3422.44254987,N,10853.99850790,E,1,19,0.7,375.820,M,-35.766,M,,*58
$GNGGA,091144.60,3422.44253265,N,10853.99850120,E,1,19,0.7,375.827,M,-35.766,M,,*51
$GNGGA,091144.70,3422.44253177,N,10853.99850157,E,1,19,0.7,375.828,M,-35.766,M,,*5F
$GNGGA,091144.80,3422.44251901,N,10853.99849468,E,1,19,0.7,375.836,M,-35.766,M,,*55
$GNGGA,091144.90,3422.44251894,N,10853.99849473,E,1,19,0.7,375.834,M,-35.766,M,,*51
$GNGGA,091145.00,3422.44250883,N,10853.99848766,E,1,19,0.7,375.841,M,-35.766,M,,*5A
$GNGGA,091145.10,3422.44250837,N,10853.99848795,E,1,19,0.7,375.838,M,-35.766,M,,*56
$GNGGA,091145.20,3422.44249867,N,10853.99848175,E,1,19,0.7,375.845,M,-35.766,M,,*5A
$GNGGA,091145.30,3422.44249873,N,10853.99848139,E,1,19,0.7,375.841,M,-35.766,M,,*52
$GNGGA,091145.40,3422.44249008,N,10853.99847566,E,1,19,0.7,375.847,M,-35.766,M,,*56
$GNGGA,091145.50,3422.44249034,N,10853.99847578,E,1,19,0.7,375.848,M,-35.766,M,,*58
$GNGGA,091145.60,3422.44248288,N,10853.99847032,E,1,19,0.7,375.854,M,-35.766,M,,*59
$GNGGA,091145.70,3422.44248286,N,10853.99847090,E,1,19,0.7,375.854,M,-35.766,M,,*5E
$GNGGA,091145.80,3422.44247576,N,10853.99846607,E,1,19,0.7,375.861,M,-35.766,M,,*59
$GNGGA,091145.90,3422.44247640,N,10853.99846547,E,1,19,0.7,375.867,M,-35.766,M,,*5F
$GNGGA,091146.00,3422.44247008,N,10853.99846127,E,1,19,0.7,375.872,M,-35.766,M,,*59
$GNGGA,091146.10,3422.44247073,N,10853.99846144,E,1,19,0.7,375.872,M,-35.766,M,,*51
$GNGGA,091146.20,3422.44246520,N,10853.99845763,E,1,19,0.7,375.876,M,-35.766,M,,*54
$GNGGA,091146.30,3422.44246547,N,10853.99845746,E,1,19,0.7,375.878,M,-35.766,M,,*5D
$GNGGA,091146.40,3422.44246030,N,10853.99845405,E,1,19,0.7,375.883,M,-35.766,M,,*5F
$GNGGA,091146.50,3422.44246112,N,10853.99845363,E,1,19,0.7,375.883,M,-35.766,M,,*58
$GNGGA,091146.60,3422.44245660,N,10853.99845057,E,1,19,0.7,375.887,M,-35.766,M,,*5A
$GNGGA,091146.70,3422.44245750,N,10853.99845024,E,1,19,0.7,375.890,M,-35.766,M,,*5B
$GNGGA,091146.80,3422.44245399,N,10853.99844761,E,1,19,0.7,375.894,M,-35.766,M,,*56
$GNGGA,091146.90,3422.44245452,N,10853.99844828,E,1,19,0.7,375.897,M,-35.766,M,,*56
$GNGGA,091147.00,3422.44245150,N,10853.99844631,E,1,19,0.7,375.902,M,-35.766,M,,*52
$GNGGA,091147.10,3422.44245132,N,10853.99844670,E,1,19,0.7,375.902,M,-35.766,M,,*52
$GNGGA,091147.20,3422.44244764,N,10853.99844452,E,1,19,0.7,375.908,M,-35.766,M,,*5D
$GNGGA,091147.30,3422.44244743,N,10853.99844407,E,1,19,0.7,375.910,M,-35.766,M,,*50
$GNGGA,091147.40,3422.44244319,N,10853.99844204,E,1,19,0.7,375.914,M,-35.766,M,,*5D
$GNGGA,091147.50,3422.44244326,N,10853.99844239,E,1,19,0.7,375.919,M,-35.766,M,,*53
$GNGGA,091147.60,3422.44244021,N,10853.99844088,E,1,19,0.7,375.923,M,-35.766,M,,*55
$GNGGA,091147.70,3422.44244021,N,10853.99844057,E,1,19,0.7,375.925,M,-35.766,M,,*50
$GNGGA,091147.80,3422.44243851,N,10853.99843921,E,1,19,0.7,375.929,M,-35.766,M,,*54
$GNGGA,091147.90,3422.44243845,N,10853.99843918,E,1,19,0.7,375.930,M,-35.766,M,,*52
$GNGGA,091148.00,3422.44243684,N,10853.99843831,E,1,19,0.7,375.934,M,-35.766,M,,*59
$GNGGA,091148.10,3422.44243723,N,10853.99843790,E,1,19,0.7,375.932,M,-35.766,M,,*56
$GNGGA,091148.20,3422.44243544,N,10853.99843752,E,1,19,0.7,375.936,M,-35.766,M,,*5C
$GNGGA,091148.30,3422.44243545,N,10853.99843748,E,1,19,0.7,375.936,M,-35.766,M,,*57
$GNGGA,091148.40,3422.44243416,N,10853.99843701,E,1,19,0.7,375.938,M,-35.766,M,,*54
$GNGGA,091148.50,3422.44243479,N,10853.99843674,E,1,19,0.7,375.942,M,-35.766,M,,*52
$GNGGA,091148.60,3422.44243364,N,10853.99843612,E,1,19,0.7,375.944,M,-35.766,M,,*5C
$GNGGA,091148.70,3422.44243394,N,10853.99843599,E,1,19,0.7,375.944,M,-35.766,M,,*52
$GNGGA,091148.80,3422.44243283,N,10853.99843507,E,1,19,0.7,375.948,M,-35.766,M,,*51
$GNGGA,091148.90,3422.44243338,N,10853.99843529,E,1,19,0.7,375.948,M,-35.766,M,,*5D
$GNGGA,091149.00,3422.44243262,N,10853.99843501,E,1,19,0.7,375.950,M,-35.766,M,,*58
$GNGGA,091149.10,3422.44243336,N,10853.99843489,E,1,19,0.7,375.953,M,-35.766,M,,*5B
$GNGGA,091149.20,3422.44243269,N,10853.99843517,E,1,19,0.7,375.955,M,-35.766,M,,*53
$GNGGA,091149.30,3422.44243290,N,10853.99843442,E,1,19,0.7,375.955,M,-35.766,M,,*55
$GNGGA,091149.40,3422.44243226,N,10853.99843416,E,1,19,0.7,375.958,M,-35.766,M,,*53
$GNGGA,091149.50,3422.44243210,N,10853.99843443,E,1,19,0.7,375.959,M,-35.766,M,,*56
$GNGGA,091149.60,3422.44243189,N,10853.99843479,E,1,19,0.7,375.959,M,-35.766,M,,*5F
$GNGGA,091149.70,3422.44243150,N,10853.99843435,E,1,19,0.7,375.960,M,-35.766,M,,*58
$GNGGA,091149.80,3422.44243124,N,10853.99843489,E,1,19,0.7,375.961,M,-35.766,M,,*52
$GNGGA,091149.90,3422.44243192,N,10853.99843473,E,1,19,0.7,375.963,M,-35.766,M,,*59
$GNGGA,091150.00,3422.44243170,N,10853.99843475,E,1,19,0.7,375.964,M,-35.766,M,,*55
$GNGGA,091150.10,3422.44243188,N,10853.99843501,E,1,19,0.7,375.968,M,-35.766,M,,*5D
$GNGGA,091150.20,3422.44243173,N,10853.99843560,E,1,19,0.7,375.969,M,-35.766,M,,*5C
$GNGGA,091150.30,3422.44243147,N,10853.99843548,E,1,19,0.7,375.969,M,-35.766,M,,*50
$GNGGA,091150.40,3422.44243129,N,10853.99843613,E,1,19,0.7,375.970,M,-35.766,M,,*5A
$GNGGA,091150.50,3422.44243192,N,10853.99843583,E,1,19,0.7,375.973,M,-35.766,M,,*52
$GNGGA,091150.60,3422.44243199,N,10853.99843648,E,1,19,0.7,375.973,M,-35.766,M,,*5E
$GNGGA,091150.70,3422.44243167,N,10853.99843625,E,1,19,0.7,375.975,M,-35.766,M,,*53
$GNGGA,091150.80,3422.44243204,N,10853.99843690,E,1,19,0.7,375.975,M,-35.766,M,,*54
$GNGGA,091150.90,3422.44243217,N,10853.99843781,E,1,19,0.7,375.979,M,-35.766,M,,*5A
$GNGGA,091151.00,3422.44243248,N,10853.99843865,E,1,19,0.7,375.979,M,-35.766,M,,*5D
$GNGGA,091151.10,3422.44243285,N,10853.99843865,E,1,19,0.7,375.984,M,-35.766,M,,*5F
$GNGGA,091151.20,3422.44243300,N,10853.99843952,E,1,19,0.7,375.985,M,-35.766,M,,*54
$GNGGA,091151.30,3422.44243328,N,10853.99843899,E,1,19,0.7,375.984,M,-35.766,M,,*58
$GNGGA,091151.40,3422.44243348,N,10853.99843977,E,1,19,0.7,375.983,M,-35.766,M,,*5F
$GNGGA,091151.50,3422.44243344,N,10853.99844016,E,1,19,0.7,375.984,M,-35.766,M,,*5C
$GNGGA,091151.60,3422.44243361,N,10853.99844108,E,1,19,0.7,375.982,M,-35.766,M,,*50
$GNGGA,091151.70,3422.44243344,N,10853.99844078,E,1,19,0.7,375.982,M,-35.766,M,,*50
$GNGGA,091151.80,3422.44243383,N,10853.99844157,E,1,19,0.7,375.982,M,-35.766,M,,*58
$GNGGA,091151.90,3422.44243360,N,10853.99844150,E,1,19,0.7,375.979,M,-35.766,M,,*57
$GNGGA,091152.00,3422.44243411,N,10853.99844238,E,1,19,0.7,375.979,M,-35.766,M,,*51
$GNGGA,091152.10,3422.44243417,N,10853.99844155,E,1,19,0.7,375.980,M,-35.766,M,,*58
$GNGGA,091152.20,3422.44243458,N,10853.99844263,E,1,19,0.7,375.980,M,-35.766,M,,*56
$GNGGA,091152.30,3422.44243468,N,10853.99844214,E,1,19,0.7,375.983,M,-35.766,M,,*57
$GNGGA,091152.40,3422.44243537,N,10853.99844327,E,1,19,0.7,375.982,M,-35.766,M,,*5B
$GNGGA,091152.50,3422.44243510,N,10853.99844290,E,1,19,0.7,375.982,M,-35.766,M,,*52
$GNGGA,091152.60,3422.44243579,N,10853.99844420,E,1,19,0.7,375.982,M,-35.766,M,,*53
$GNGGA,091152.70,3422.44243638,N,10853.99844436,E,1,19,0.7,375.985,M,-35.766,M,,*54
$GNGGA,091152.80,3422.44243692,N,10853.99844544,E,1,19,0.7,375.984,M,-35.766,M,,*5E
$GNGGA,091152.90,3422.44243787,N,10853.99844510,E,1,19,0.7,375.985,M,-35.766,M,,*5A
$GNGGA,091153.00,3422.44243856,N,10853.99844584,E,1,19,0.7,375.985,M,-35.766,M,,*5C
$GNGGA,091153.10,3422.44243853,N,10853.99844521,E,1,19,0.7,375.984,M,-35.766,M,,*56
$GNGGA,091153.20,3422.44243928,N,10853.99844618,E,1,19,0.7,375.982,M,-35.766,M,,*57
$GNGGA,091153.30,3422.44243884,N,10853.99844618,E,1,19,0.7,375.980,M,-35.766,M,,*53
$GNGGA,091153.40,3422.44243961,N,10853.99844704,E,1,19,0.7,375.978,M,-35.766,M,,*55
$GNGGA,091153.50,3422.44244011,N,10853.99844653,E,1,19,0.7,375.978,M,-35.766,M,,*5E
$GNGGA,091153.60,3422.44244095,N,10853.99844757,E,1,19,0.7,375.978,M,-35.766,M,,*54
$GNGGA,091153.70,3422.44244116,N,10853.99844660,E,1,19,0.7,375.980,M,-35.766,M,,*5D
$GNGGA,091153.80,3422.44244189,N,10853.99844800,E,1,19,0.7,375.980,M,-35.766,M,,*5C
$GNGGA,091153.90,3422.44244153,N,10853.99844744,E,1,19,0.7,375.980,M,-35.766,M,,*55
$GNGGA,091154.00,3422.44244177,N,10853.99844855,E,1,19,0.7,375.978,M,-35.766,M,,*55
$GNGGA,091154.10,3422.44244155,N,10853.99844810,E,1,19,0.7,375.979,M,-35.766,M,,*54
$GNGGA,091154.20,3422.44244212,N,10853.99844936,E,1,19,0.7,375.978,M,-35.766,M,,*53
$GNGGA,091154.30,3422.44244207,N,10853.99844904,E,1,19,0.7,375.979,M,-35.766,M,,*56
$GNGGA,091154.40,3422.44244323,N,10853.99845039,E,1,19,0.7,375.977,M,-35.766,M,,*5E
$GNGGA,091154.50,3422.44244352,N,10853.99845020,E,1,19,0.7,375.981,M,-35.766,M,,*58
$GNGGA,091154.60,3422.44244439,N,10853.99845117,E,1,19,0.7,375.979,M,-35.766,M,,*53
$GNGGA,091154.70,3422.44244453,N,10853.99845065,E,1,19,0.7,375.979,M,-35.766,M,,*5A
$GNGGA,091154.80,3422.44244531,N,10853.99845182,E,1,19,0.7,375.979,M,-35.766,M,,*58
$GNGGA,091154.90,3422.44244505,N,10853.99845074,E,1,19,0.7,375.978,M,-35.766,M,,*57
$GNGGA,091155.00,3422.44244584,N,10853.99845175,E,1,19,0.7,375.977,M,-35.766,M,,*59
$GNGGA,091155.10,3422.44244554,N,10853.99845134,E,1,19,0.7,375.979,M,-35.766,M,,*5E
$GNGGA,091155.20,3422.44244636,N,10853.99845242,E,1,19,0.7,375.976,M,-35.766,M,,*57
$GNGGA,091155.30,3422.44244670,N,10853.99845240,E,1,19,0.7,375.978,M,-35.766,M,,*58
$GNGGA,091155.40,3422.44244734,N,10853.99845387,E,1,19,0.7,375.974,M,-35.766,M,,*58
$GNGGA,091155.50,3422.44244687,N,10853.99845319,E,1,19,0.7,375.978,M,-35.766,M,,*5B
$GNGGA,091155.60,3422.44244751,N,10853.99845405,E,1,19,0.7,375.976,M,-35.766,M,,*56
$GNGGA,091155.70,3422.44244751,N,10853.99845418,E,1,19,0.7,375.980,M,-35.766,M,,*52
$GNGGA,091155.80,3422.44244845,N,10853.99845521,E,1,19,0.7,375.980,M,-35.766,M,,*5C
$GNGGA,091155.90,3422.44244810,N,10853.99845523,E,1,19,0.7,375.982,M,-35.766,M,,*5D
$GNGGA,091156.00,3422.44244893,N,10853.99845674,E,1,19,0.7,375.980,M,-35.766,M,,*5F
$GNGGA,091156.10,3422.44244896,N,10853.99845613,E,1,19,0.7,375.982,M,-35.766,M,,*58
$GNGGA,091156.20,3422.44244960,N,10853.99845736,E,1,19,0.7,375.982,M,-35.766,M,,*55
$GNGGA,091156.30,3422.44244908,N,10853.99845671,E,1,19,0.7,375.979,M,-35.766,M,,*5C
$GNGGA,091156.40,3422.44244978,N,10853.99845772,E,1,19,0.7,375.978,M,-35.766,M,,*5F
$GNGGA,091156.50,3422.44245050,N,10853.99845815,E,1,19,0.7,375.980,M,-35.766,M,,*55
$GNGGA,091156.60,3422.44245131,N,10853.99845905,E,1,19,0.7,375.977,M,-35.766,M,,*58
$GNGGA,091156.70,3422.44245115,N,10853.99845898,E,1,19,0.7,375.980,M,-35.766,M,,*52
$GNGGA,091156.80,3422.44245168,N,10853.99846029,E,1,19,0.7,375.978,M,-35.766,M,,*51
$GNGGA,091156.90,3422.44245192,N,10853.99845962,E,1,19,0.7,375.981,M,-35.766,M,,*56
$GNGGA,091157.00,3422.44245243,N,10853.99846119,E,1,19,0.7,375.981,M,-35.766,M,,*56
$GNGGA,091157.10,3422.44245283,N,10853.99846118,E,1,19,0.7,375.985,M,-35.766,M,,*5E
$GNGGA,091157.20,3422.44245341,N,10853.99846242,E,1,19,0.7,375.984,M,-35.766,M,,*5F
$GNGGA,091157.30,3422.44245316,N,10853.99846214,E,1,19,0.7,375.982,M,-35.766,M,,*59
$GNGGA,091157.40,3422.44245363,N,10853.99846342,E,1,19,0.7,375.982,M,-35.766,M,,*5E
$GNGGA,091157.50,3422.44245324,N,10853.99846355,E,1,19,0.7,375.984,M,-35.766,M,,*5C
$GNGGA,091157.60,3422.44245365,N,10853.99846473,E,1,19,0.7,375.984,M,-35.766,M,,*59
$GNGGA,091157.70,3422.44245425,N,10853.99846558,E,1,19,0.7,375.988,M,-35.766,M,,*5F
$GNGGA,091157.80,3422.44245447,N,10853.99846665,E,1,19,0.7,375.986,M,-35.766,M,,*57
$GNGGA,091157.90,3422.44245440,N,10853.99846691,E,1,19,0.7,375.991,M,-35.766,M,,*5C
$GNGGA,091158.00,3422.44245460,N,10853.99846831,E,1,19,0.7,375.990,M,-35.766,M,,*5D
$GNGGA,091158.10,3422.44245490,N,10853.99846861,E,1,19,0.7,375.990,M,-35.766,M,,*56
$GNGGA,091158.20,3422.44245530,N,10853.99846969,E,1,19,0.7,375.989,M,-35.766,M,,*5F
$GNGGA,091158.30,3422.44245539,N,10853.99846990,E,1,19,0.7,375.990,M,-35.766,M,,*59
$GNGGA,091158.40,3422.44245555,N,10853.99847068,E,1,19,0.7,375.988,M,-35.766,M,,*52
$GNGGA,091158.50,3422.44245576,N,10853.99847148,E,1,19,0.7,375.991,M,-35.766,M,,*59
$GNGGA,091158.60,3422.44245609,N,10853.99847225,E,1,19,0.7,375.990,M,-35.766,M,,*58
$GNGGA,091158.70,3422.44245559,N,10853.99847228,E,1,19,0.7,375.990,M,-35.766,M,,*52
$GNGGA,091158.80,3422.44245595,N,10853.99847318,E,1,19,0.7,375.989,M,-35.766,M,,*57
$GNGGA,091158.90,3422.44245572,N,10853.99847249,E,1,19,0.7,375.991,M,-35.766,M,,*53
$GNGGA,091159.00,3422.44245580,N,10853.99847294,E,1,19,0.7,375.988,M,-35.766,M,,*5E
$GNGGA,091159.10,3422.44245603,N,10853.99847322,E,1,19,0.7,375.990,M,-35.766,M,,*52
$GNGGA,091159.20,3422.44245640,N,10853.99847394,E,1,19,0.7,375.988,M,-35.766,M,,*52
$GNGGA,091159.30,3422.44245603,N,10853.99847336,E,1,19,0.7,375.989,M,-35.766,M,,*5D
$GNGGA,091159.40,3422.44245633,N,10853.99847440,E,1,19,0.7,375.987,M,-35.766,M,,*51
$GNGGA,091159.50,3422.44245614,N,10853.99847411,E,1,19,0.7,375.988,M,-35.766,M,,*5E
$GNGGA,091159.60,3422.44245646,N,10853.99847518,E,1,19,0.7,375.986,M,-35.766,M,,*5C
$GNGGA,091159.70,3422.44245652,N,10853.99847496,E,1,19,0.7,375.985,M,-35.766,M,,*5C
$GNGGA,091159.80,3422.44245701,N,10853.99847550,E,1,19,0.7,375.984,M,-35.766,M,,*5E
$GNGGA,091159.90,3422.44245680,N,10853.99847548,E,1,19,0.7,375.983,M,-35.766,M,,*59
$GNGGA,091200.00,3422.44245697,N,10853.99847598,E,1,19,0.7,375.982,M,-35.766,M,,*55
$GNGGA,091200.10,3422.44245719,N,10853.99847567,E,1,19,0.7,375.984,M,-35.766,M,,*55
$GNGGA,091200.20,3422.44245758,N,10853.99847650,E,1,19,0.7,375.982,M,-35.766,M,,*52
$GNGGA,091200.30,3422.44245725,N,10853.99847576,E,1,19,0.7,375.979,M,-35.766,M,,*5A
$GNGGA,091200.40,3422.44245763,N,10853.99847674,E,1,19,0.7,375.977,M,-35.766,M,,*50
$GNGGA,091200.50,3422.44245751,N,10853.99847631,E,1,19,0.7,375.977,M,-35.766,M,,*51
$GNGGA,091200.60,3422.44245758,N,10853.99847754,E,1,19,0.7,375.975,M,-35.766,M,,*5B
$GNGGA,091200.70,3422.44245828,N,10853.99847792,E,1,19,0.7,375.976,M,-35.766,M,,*5B
$GNGGA,091200.80,3422.44245876,N,10853.99847884,E,1,19,0.7,375.972,M,-35.766,M,,*53
$GNGGA,091200.90,3422.44245885,N,10853.99847887,E,1,19,0.7,375.977,M,-35.766,M,,*58
$GNGGA,091201.00,3422.44245942,N,10853.99847965,E,1,19,0.7,375.975,M,-35.766,M,,*55
$GNGGA,091201.10,3422.44246007,N,10853.99847899,E,1,19,0.7,375.973,M,-35.766,M,,*5B
$GNGGA,091201.20,3422.44246065,N,10853.99847977,E,1,19,0.7,375.972,M,-35.766,M,,*5C
$GNGGA,091201.30,3422.44246055,N,10853.99847937,E,1,19,0.7,375.969,M,-35.766,M,,*50
$GNGGA,091201.40,3422.44246151,N,10853.99848013,E,1,19,0.7,375.966,M,-35.766,M,,*5D
$GNGGA,091201.50,3422.44246119,N,10853.99847985,E,1,19,0.7,375.969,M,-35.766,M,,*56
$GNGGA,091201.60,3422.44246187,N,10853.99848039,E,1,19,0.7,375.966,M,-35.766,M,,*5C
$GNGGA,091201.70,3422.44246124,N,10853.99848038,E,1,19,0.7,375.967,M,-35.766,M,,*54
$GNGGA,091201.80,3422.44246126,N,10853.99848127,E,1,19,0.7,375.964,M,-35.766,M,,*55
$GNGGA,091201.90,3422.44246140,N,10853.99848100,E,1,19,0.7,375.967,M,-35.766,M,,*52
$GNGGA,091202.00,3422.44246198,N,10853.99848196,E,1,19,0.7,375.964,M,-35.766,M,,*51
$GNGGA,091202.10,3422.44246119,N,10853.99848153,E,1,19,0.7,375.961,M,-35.766,M,,*55
$GNGGA,091202.20,3422.44246213,N,10853.99848229,E,1,19,0.7,375.958,M,-35.766,M,,*5B
$GNGGA,091202.30,3422.44246216,N,10853.99848280,E,1,19,0.7,375.960,M,-35.766,M,,*57
$GNGGA,091202.40,3422.44246265,N,10853.99848357,E,1,19,0.7,375.957,M,-35.766,M,,*5B
$GNGGA,091202.50,3422.44246258,N,10853.99848362,E,1,19,0.7,375.958,M,-35.766,M,,*5D
$GNGGA,091202.60,3422.44246312,N,10853.99848460,E,1,19,0.7,375.956,M,-35.766,M,,*5A
$GNGGA,091202.70,3422.44246322,N,10853.99848528,E,1,19,0.7,375.956,M,-35.766,M,,*55
$GNGGA,091202.80,3422.44246391,N,10853.99848594,E,1,19,0.7,375.955,M,-35.766,M,,*56
$GNGGA,091202.90,3422.44246412,N,10853.99848641,E,1,19,0.7,375.954,M,-35.766,M,,*51
$GNGGA,091203.00,3422.44246494,N,10853.99848675,E,1,19,0.7,375.950,M,-35.766,M,,*54
$GNGGA,091203.10,3422.44246562,N,10853.99848747,E,1,19,0.7,375.949,M,-35.766,M,,*55
$GNGGA,091203.20,3422.44246719,N,10853.99848833,E,1,19,0.7,375.943,M,-35.766,M,,*5E
$GNGGA,091203.30,3422.44246729,N,10853.99848733,E,1,19,0.7,375.942,M,-35.766,M,,*52
$GNGGA,091203.40,3422.44246865,N,10853.99848783,E,1,19,0.7,375.940,M,-35.766,M,,*5B
$GNGGA,091203.50,3422.44246861,N,10853.99848839,E,1,19,0.7,375.943,M,-35.766,M,,*53
$GNGGA,091203.60,3422.44246863,N,10853.99848883,E,1,19,0.7,375.942,M,-35.766,M,,*52
$GNGGA,091203.70,3422.44246885,N,10853.99848880,E,1,19,0.7,375.946,M,-35.766,M,,*5C
$GNGGA,091203.80,3422.44246901,N,10853.99848942,E,1,19,0.7,375.945,M,-35.766,M,,*52
$GNGGA,091203.90,3422.44246903,N,10853.99848997,E,1,19,0.7,375.948,M,-35.766,M,,*54
$GNGGA,091204.00,3422.44246978,N,10853.99849044,E,1,19,0.7,375.946,M,-35.766,M,,*5E
$GNGGA,091204.10,3422.44246956,N,10853.99849007,E,1,19,0.7,375.947,M,-35.766,M,,*55
$GNGGA,091204.20,3422.44247010,N,10853.99849072,E,1,19,0.7,375.944,M,-35.766,M,,*5D
$GNGGA,091204.30,3422.44247013,N,10853.99849123,E,1,19,0.7,375.946,M,-35.766,M,,*58
$GNGGA,091204.40,3422.44247048,N,10853.99849177,E,1,19,0.7,375.943,M,-35.766,M,,*55
$GNGGA,091204.50,3422.44247026,N,10853.99849215,E,1,19,0.7,375.943,M,-35.766,M,,*5B
$GNGGA,091204.60,3422.44247079,N,10853.99849263,E,1,19,0.7,375.941,M,-35.766,M,,*51
$GNGGA,091204.70,3422.44247068,N,10853.99849212,E,1,19,0.7,375.938,M,-35.766,M,,*58
$GNGGA,091204.80,3422.44247132,N,10853.99849255,E,1,19,0.7,375.935,M,-35.766,M,,*57
$GNGGA,091204.90,3422.44247090,N,10853.99849188,E,1,19,0.7,375.934,M,-35.766,M,,*5D
$GNGGA,091205.00,3422.44247131,N,10853.99849185,E,1,19,0.7,375.931,M,-35.766,M,,*57
$GNGGA,091205.10,3422.44247181,N,10853.99849119,E,1,19,0.7,375.933,M,-35.766,M,,*5A
$GNGGA,091205.20,3422.44247216,N,10853.99849121,E,1,19,0.7,375.932,M,-35.766,M,,*5E
$GNGGA,091205.30,3422.44247207,N,10853.99849145,E,1,19,0.7,375.932,M,-35.766,M,,*5D
$GNGGA,091205.40,3422.44247263,N,10853.99849209,E,1,19,0.7,375.930,M,-35.766,M,,*51
$GNGGA,091205.50,3422.44247261,N,10853.99849141,E,1,19,0.7,375.930,M,-35.766,M,,*5D
$GNGGA,091205.60,3422.44247303,N,10853.99849212,E,1,19,0.7,375.927,M,-35.766,M,,*58
$GNGGA,091205.70,3422.44247330,N,10853.99849216,E,1,19,0.7,375.927,M,-35.766,M,,*5D
$GNGGA,091205.80,3422.44247409,N,10853.99849263,E,1,19,0.7,375.926,M,-35.766,M,,*5C
$GNGGA,091205.90,3422.44247441,N,10853.99849195,E,1,19,0.7,375.926,M,-35.766,M,,*5B
$GNGGA,091206.00,3422.44247502,N,10853.99849262,E,1,19,0.7,375.923,M,-35.766,M,,*59
$GNGGA,091206.10,3422.44247523,N,10853.99849258,E,1,19,0.7,375.925,M,-35.766,M,,*54
$GNGGA,091206.20,3422.44247505,N,10853.99849321,E,1,19,0.7,375.922,M,-35.766,M,,*5B
$GNGGA,091206.30,3422.44247523,N,10853.99849214,E,1,19,0.7,375.921,M,-35.766,M,,*5A
$GNGGA,091206.40,3422.44247521,N,10853.99849248,E,1,19,0.7,375.918,M,-35.766,M,,*5C
$GNGGA,091206.50,3422.44247581,N,10853.99849267,E,1,19,0.7,375.922,M,-35.766,M,,*53
$GNGGA,091206.60,3422.44247612,N,10853.99849369,E,1,19,0.7,375.920,M,-35.766,M,,*54
$GNGGA,091206.70,3422.44247604,N,10853.99849284,E,1,19,0.7,375.919,M,-35.766,M,,*5A
$GNGGA,091206.80,3422.44247636,N,10853.99849347,E,1,19,0.7,375.918,M,-35.766,M,,*5B
$GNGGA,091206.90,3422.44247668,N,10853.99849394,E,1,19,0.7,375.917,M,-35.766,M,,*50
$GNGGA,091207.00,3422.44247690,N,10853.99849406,E,1,19,0.7,375.914,M,-35.766,M,,*50
$GNGGA,091207.10,3422.44247688,N,10853.99849358,E,1,19,0.7,375.916,M,-35.766,M,,*56
$GNGGA,091207.20,3422.44247683,N,10853.99849445,E,1,19,0.7,375.912,M,-35.766,M,,*51
$GNGGA,091207.30,3422.44247687,N,10853.99849455,E,1,19,0.7,375.911,M,-35.766,M,,*56
$GNGGA,091207.40,3422.44247675,N,10853.99849557,E,1,19,0.7,375.909,M,-35.766,M,,*56
$GNGGA,091207.50,3422.44247658,N,10853.99849522,E,1,19,0.7,375.907,M,-35.766,M,,*54
$GNGGA,091207.60,3422.44247689,N,10853.99849595,E,1,19,0.7,375.905,M,-35.766,M,,*55
$GNGGA,091207.70,3422.44247678,N,10853.99849606,E,1,19,0.7,375.905,M,-35.766,M,,*53
$GNGGA,091207.80,3422.44247716,N,10853.99849706,E,1,19,0.7,375.901,M,-35.766,M,,*50
$GNGGA,091207.90,3422.44247679,N,10853.99849689,E,1,19,0.7,375.901,M,-35.766,M,,*5F
$GNGGA,091208.00,3422.44247685,N,10853.99849755,E,1,19,0.7,375.899,M,-35.766,M,,*5A
$GNGGA,091208.10,3422.44247564,N,10853.99849789,E,1,19,0.7,375.901,M,-35.766,M,,*56
$GNGGA,091208.20,3422.44247479,N,10853.99849898,E,1,19,0.7,375.898,M,-35.766,M,,*56
$GNGGA,091208.30,3422.44247215,N,10853.99849842,E,1,19,0.7,375.899,M,-35.766,M,,*5D
$GNGGA,091208.40,3422.44246864,N,10853.99850055,E,1,19,0.7,375.895,M,-35.766,M,,*5D
$GNGGA,091208.50,3422.44246413,N,10853.99850060,E,1,19,0.7,375.896,M,-35.766,M,,*55
$GNGGA,091208.60,3422.44245679,N,10853.99850279,E,1,19,0.7,375.893,M,-35.766,M,,*54
$GNGGA,091208.70,3422.44244780,N,10853.99850469,E,1,19,0.7,375.894,M,-35.766,M,,*53
$GNGGA,091208.80,3422.44243594,N,10853.99850739,E,1,19,0.7,375.891,M,-35.766,M,,*5F
$GNGGA,091208.90,3422.44242173,N,10853.99850998,E,1,19,0.7,375.894,M,-35.766,M,,*52
$GNGGA,091209.00,3422.44240307,N,10853.99851421,E,1,19,0.7,375.891,M,-35.766,M,,*52
$GNGGA,091209.10,3422.44238230,N,10853.99851657,E,1,19,0.7,375.893,M,-35.766,M,,*58
$GNGGA,091209.20,3422.44235518,N,10853.99852152,E,1,19,0.7,375.892,M,-35.766,M,,*5B
$GNGGA,091209.30,3422.44232759,N,10853.99852518,E,1,19,0.7,375.890,M,-35.766,M,,*52
$GNGGA,091209.40,3422.44229367,N,10853.99852991,E,1,19,0.7,375.886,M,-35.766,M,,*5C
$GNGGA,091209.50,3422.44226007,N,10853.99853492,E,1,19,0.7,375.892,M,-35.766,M,,*5D
$GNGGA,091209.60,3422.44222033,N,10853.99854038,E,1,19,0.7,375.893,M,-35.766,M,,*5F
$GNGGA,091209.70,3422.44217896,N,10853.99854541,E,1,19,0.7,375.899,M,-35.766,M,,*5E
$GNGGA,091209.80,3422.44213145,N,10853.99854978,E,1,19,0.7,375.902,M,-35.766,M,,*57
$GNGGA,091209.90,3422.44208317,N,10853.99855053,E,1,19,0.7,375.906,M,-35.766,M,,*5C
$GNGGA,091210.00,3422.44202843,N,10853.99855225,E,1,19,0.7,375.903,M,-35.766,M,,*5B
$GNGGA,091210.10,3422.44197617,N,10853.99855379,E,1,19,0.7,375.899,M,-35.766,M,,*50
$GNGGA,091210.20,3422.44191800,N,10853.99855287,E,1,19,0.7,375.892,M,-35.766,M,,*56
$GNGGA,091210.30,3422.44186074,N,10853.99854821,E,1,19,0.7,375.895,M,-35.766,M,,*5A
$GNGGA,091210.40,3422.44180003,N,10853.99854256,E,1,19,0.7,375.892,M,-35.766,M,,*56
$GNGGA,091210.50,3422.44173876,N,10853.99853615,E,1,19,0.7,375.893,M,-35.766,M,,*54
$GNGGA,091210.60,3422.44167450,N,10853.99852699,E,1,19,0.7,375.894,M,-35.766,M,,*58
$GNGGA,091210.70,3422.44161015,N,10853.99851251,E,1,19,0.7,375.897,M,-35.766,M,,*5A
$GNGGA,091210.80,3422.44154302,N,10853.99849846,E,1,19,0.7,375.895,M,-35.766,M,,*51
$GNGGA,091210.90,3422.44147664,N,10853.99848003,E,1,19,0.7,375.889,M,-35.766,M,,*52
$GNGGA,091211.00,3422.44140656,N,10853.99845803,E,1,19,0.7,375.888,M,-35.766,M,,*58
$GNGGA,091211.10,3422.44133814,N,10853.99843867,E,1,19,0.7,375.886,M,-35.766,M,,*5F
$GNGGA,091211.20,3422.44126521,N,10853.99841155,E,1,19,0.7,375.884,M,-35.766,M,,*5B
$GNGGA,091211.30,3422.44119332,N,10853.99838235,E,1,19,0.7,375.892,M,-35.766,M,,*5E
$GNGGA,091211.40,3422.44111804,N,10853.99834769,E,1,19,0.7,375.889,M,-35.766,M,,*55
$GNGGA,091211.50,3422.44104382,N,10853.99830891,E,1,19,0.7,375.894,M,-35.766,M,,*55
$GNGGA,091211.60,3422.44096601,N,10853.99826371,E,1,19,0.7,375.895,M,-35.766,M,,*51
$GNGGA,091211.70,3422.44088883,N,10853.99821372,E,1,19,0.7,375.897,M,-35.766,M,,*5D
$GNGGA,091211.80,3422.44080794,N,10853.99815704,E,1,19,0.7,375.898,M,-35.766,M,,*5E
$GNGGA,091211.90,3422.44072867,N,10853.99809963,E,1,19,0.7,375.897,M,-35.766,M,,*5C
$GNGGA,091212.00,3422.44064637,N,10853.99803202,E,1,19,0.7,375.893,M,-35.766,M,,*58
$GNGGA,091212.10,3422.44056551,N,10853.99796357,E,1,19,0.7,375.898,M,-35.766,M,,*52
$GNGGA,091212.20,3422.44048410,N,10853.99788622,E,1,19,0.7,375.894,M,-35.766,M,,*5E
$GNGGA,091212.30,3422.44040329,N,10853.99780484,E,1,19,0.7,375.885,M,-35.766,M,,*5C
$GNGGA,091212.40,3422.44032272,N,10853.99771542,E,1,19,0.7,375.882,M,-35.766,M,,*53
$GNGGA,091212.50,3422.44024105,N,10853.99762314,E,1,19,0.7,375.889,M,-35.766,M,,*5A
$GNGGA,091212.60,3422.44016013,N,10853.99752058,E,1,19,0.7,375.887,M,-35.766,M,,*58
$GNGGA,091212.70,3422.44008027,N,10853.99741436,E,1,19,0.7,375.878,M,-35.766,M,,*5F
$GNGGA,091212.80,3422.44000069,N,10853.99729757,E,1,19,0.7,375.875,M,-35.766,M,,*55
$GNGGA,091212.90,3422.43992247,N,10853.99717898,E,1,19,0.7,375.883,M,-35.766,M,,*57
$GNGGA,091213.00,3422.43984459,N,10853.99704762,E,1,19,0.7,375.883,M,-35.766,M,,*59
$GNGGA,091213.10,3422.43976821,N,10853.99691621,E,1,19,0.7,375.879,M,-35.766,M,,*58
$GNGGA,091213.20,3422.43969283,N,10853.99677252,E,1,19,0.7,375.880,M,-35.766,M,,*59
$GNGGA,091213.30,3422.43962183,N,10853.99662586,E,1,19,0.7,375.880,M,-35.766,M,,*5A
$GNGGA,091213.40,3422.43955267,N,10853.99646744,E,1,19,0.7,375.877,M,-35.766,M,,*52
$GNGGA,091213.50,3422.43948429,N,10853.99631001,E,1,19,0.7,375.886,M,-35.766,M,,*5B
$GNGGA,091213.60,3422.43941957,N,10853.99613746,E,1,19,0.7,375.886,M,-35.766,M,,*51
$GNGGA,091213.70,3422.43935514,N,10853.99596786,E,1,19,0.7,375.890,M,-35.766,M,,*5D
$GNGGA,091213.80,3422.43929343,N,10853.99578495,E,1,19,0.7,375.888,M,-35.766,M,,*53
$GNGGA,091213.90,3422.43923369,N,10853.99560197,E,1,19,0.7,375.892,M,-35.766,M,,*55
$GNGGA,091214.00,3422.43917586,N,10853.99540785,E,1,19,0.7,375.893,M,-35.766,M,,*5D
$GNGGA,091214.10,3422.43911758,N,10853.99521404,E,1,19,0.7,375.890,M,-35.766,M,,*55
$GNGGA,091214.20,3422.43906273,N,10853.99500838,E,1,19,0.7,375.891,M,-35.766,M,,*5D
$GNGGA,091214.30,3422.43900398,N,10853.99480147,E,1,19,0.7,375.883,M,-35.766,M,,*55
$GNGGA,091214.40,3422.43894778,N,10853.99458521,E,1,19,0.7,375.875,M,-35.766,M,,*5C
$GNGGA,091214.50,3422.43889097,N,10853.99437083,E,1,19,0.7,375.879,M,-35.766,M,,*5F
$GNGGA,091214.60,3422.43883296,N,10853.99414610,E,1,19,0.7,375.874,M,-35.766,M,,*55
$GNGGA,091214.70,3422.43877336,N,10853.99392554,E,1,19,0.7,375.874,M,-35.766,M,,*5E
$GNGGA,091214.80,3422.43871465,N,10853.99369958,E,1,19,0.7,375.881,M,-35.766,M,,*58
$GNGGA,091214.90,3422.43865548,N,10853.99347876,E,1,19,0.7,375.878,M,-35.766,M,,*55
$GNGGA,091215.00,3422.43859568,N,10853.99325540,E,1,19,0.7,375.878,M,-35.766,M,,*5C
$GNGGA,091215.10,3422.43853682,N,10853.99303427,E,1,19,0.7,375.877,M,-35.766,M,,*5B
$GNGGA,091215.20,3422.43847731,N,10853.99281131,E,1,19,0.7,375.865,M,-35.766,M,,*5E
$GNGGA,091215.30,3422.43841979,N,10853.99258775,E,1,19,0.7,375.870,M,-35.766,M,,*5D
$GNGGA,091215.40,3422.43836216,N,10853.99236441,E,1,19,0.7,375.868,M,-35.766,M,,*5D
$GNGGA,091215.50,3422.43830608,N,10853.99214072,E,1,19,0.7,375.873,M,-35.766,M,,*5F
$GNGGA,091215.60,3422.43824975,N,10853.99191753,E,1,19,0.7,375.878,M,-35.766,M,,*5D
$GNGGA,091215.70,3422.43819218,N,10853.99169491,E,1,19,0.7,375.879,M,-35.766,M,,*59
$GNGGA,091215.80,3422.43813521,N,10853.99147039,E,1,19,0.7,375.876,M,-35.766,M,,*54
$GNGGA,091215.90,3422.43808098,N,10853.99124138,E,1,19,0.7,375.874,M,-35.766,M,,*5F
$GNGGA,091216.00,3422.43802466,N,10853.99101196,E,1,19,0.7,375.871,M,-35.766,M,,*5C
$GNGGA,091216.10,3422.43796906,N,10853.99078065,E,1,19,0.7,375.864,M,-35.766,M,,*52
$GNGGA,091216.20,3422.43791338,N,10853.99054534,E,1,19,0.7,375.858,M,-35.766,M,,*51
$GNGGA,091216.30,3422.43785898,N,10853.99030798,E,1,19,0.7,375.854,M,-35.766,M,,*5E
$GNGGA,091216.40,3422.43780235,N,10853.99006801,E,1,19,0.7,375.848,M,-35.766,M,,*56
$GNGGA,091216.50,3422.43774512,N,10853.98983240,E,1,19,0.7,375.859,M,-35.766,M,,*54
$GNGGA,091216.60,3422.43768769,N,10853.98959099,E,1,19,0.7,375.861,M,-35.766,M,,*5E
$GNGGA,091216.70,3422.43763236,N,10853.98934904,E,1,19,0.7,375.859,M,-35.766,M,,*56
$GNGGA,091216.80,3422.43757595,N,10853.98910422,E,1,19,0.7,375.856,M,-35.766,M,,*50
$GNGGA,091216.90,3422.43751731,N,10853.98885911,E,1,19,0.7,375.861,M,-35.766,M,,*5F
$GNGGA,091217.00,3422.43746072,N,10853.98860915,E,1,19,0.7,375.854,M,-35.766,M,,*58
$GNGGA,091217.10,3422.43740564,N,10853.98835869,E,1,19,0.7,375.846,M,-35.766,M,,*54
$GNGGA,091217.20,3422.43734859,N,10853.98810600,E,1,19,0.7,375.845,M,-35.766,M,,*52
$GNGGA,091217.30,3422.43729374,N,10853.98785387,E,1,19,0.7,375.855,M,-35.766,M,,*53
$GNGGA,091217.40,3422.43723829,N,10853.98759637,E,1,19,0.7,375.852,M,-35.766,M,,*55
$GNGGA,091217.50,3422.43718327,N,10853.98733993,E,1,19,0.7,375.854,M,-35.766,M,,*52
$GNGGA,091217.60,3422.43712672,N,10853.98707777,E,1,19,0.7,375.849,M,-35.766,M,,*51
$GNGGA,091217.70,3422.43707063,N,10853.98681734,E,1,19,0.7,375.843,M,-35.766,M,,*50
$GNGGA,091217.80,3422.43701213,N,10853.98655225,E,1,19,0.7,375.841,M,-35.766,M,,*52
$GNGGA,091217.90,3422.43695689,N,10853.98628711,E,1,19,0.7,375.835,M,-35.766,M,,*53
$GNGGA,091218.00,3422.43689939,N,10853.98601814,E,1,19,0.7,375.832,M,-35.766,M,,*5A
$GNGGA,091218.10,3422.43684416,N,10853.98574866,E,1,19,0.7,375.829,M,-35.766,M,,*58
$GNGGA,091218.20,3422.43678873,N,10853.98547622,E,1,19,0.7,375.826,M,-35.766,M,,*56
$GNGGA,091218.30,3422.43673342,N,10853.98520582,E,1,19,0.7,375.821,M,-35.766,M,,*5A
$GNGGA,091218.40,3422.43667833,N,10853.98493393,E,1,19,0.7,375.816,M,-35.766,M,,*5E
$GNGGA,091218.50,3422.43662300,N,10853.98466128,E,1,19,0.7,375.811,M,-35.766,M,,*5E
$GNGGA,091218.60,3422.43656662,N,10853.98438767,E,1,19,0.7,375.806,M,-35.766,M,,*5B
$GNGGA,091218.70,3422.43651104,N,10853.98411373,E,1,19,0.7,375.805,M,-35.766,M,,*53
$GNGGA,091218.80,3422.43645624,N,10853.98383910,E,1,19,0.7,375.801,M,-35.766,M,,*5B
$GNGGA,091218.90,3422.43640101,N,10853.98356169,E,1,19,0.7,375.799,M,-35.766,M,,*5F
$GNGGA,091219.00,3422.43634500,N,10853.98328414,E,1,19,0.7,375.793,M,-35.766,M,,*5D
$GNGGA,091219.10,3422.43628901,N,10853.98300342,E,1,19,0.7,375.795,M,-35.766,M,,*54
$GNGGA,091219.20,3422.43623054,N,10853.98272128,E,1,19,0.7,375.794,M,-35.766,M,,*5E
$GNGGA,091219.30,3422.43617218,N,10853.98243673,E,1,19,0.7,375.798,M,-35.766,M,,*55
$GNGGA,091219.40,3422.43611193,N,10853.98215078,E,1,19,0.7,375.802,M,-35.766,M,,*56
$GNGGA,091219.50,3422.43605269,N,10853.98186422,E,1,19,0.7,375.806,M,-35.766,M,,*52
$GNGGA,091219.60,3422.43599143,N,10853.98157506,E,1,19,0.7,375.808,M,-35.766,M,,*59
$GNGGA,091219.70,3422.43593076,N,10853.98128486,E,1,19,0.7,375.813,M,-35.766,M,,*5E
$GNGGA,091219.80,3422.43587380,N,10853.98099598,E,1,19,0.7,375.810,M,-35.766,M,,*58
$GNGGA,091219.90,3422.43581261,N,10853.98070270,E,1,19,0.7,375.815,M,-35.766,M,,*52
$GNGGA,091220.00,3422.43575481,N,10853.98041021,E,1,19,0.7,375.807,M,-35.766,M,,*55
$GNGGA,091220.10,3422.43569334,N,10853.98011287,E,1,19,0.7,375.812,M,-35.766,M,,*5F
$GNGGA,091220.20,3422.43563399,N,10853.97981814,E,1,19,0.7,375.804,M,-35.766,M,,*59
$GNGGA,091220.30,3422.43557314,N,10853.97952230,E,1,19,0.7,375.803,M,-35.766,M,,*5F
$GNGGA,091220.40,3422.43551335,N,10853.97922756,E,1,19,0.7,375.793,M,-35.766,M,,*59
$GNGGA,091220.50,3422.43544976,N,10853.97892949,E,1,19,0.7,375.796,M,-35.766,M,,*5E
$GNGGA,091220.60,3422.43538887,N,10853.97863399,E,1,19,0.7,375.785,M,-35.766,M,,*52
$GNGGA,091220.70,3422.43532570,N,10853.97833307,E,1,19,0.7,375.786,M,-35.766,M,,*5D
$GNGGA,091220.80,3422.43526321,N,10853.97803383,E,1,19,0.7,375.781,M,-35.766,M,,*5D
$GNGGA,091220.90,3422.43519822,N,10853.97773200,E,1,19,0.7,375.783,M,-35.766,M,,*58
$GNGGA,091221.00,3422.43513536,N,10853.97743049,E,1,19,0.7,375.780,M,-35.766,M,,*5D
$GNGGA,091221.10,3422.43507009,N,10853.97712769,E,1,19,0.7,375.780,M,-35.766,M,,*51
$GNGGA,091221.20,3422.43500568,N,10853.97682614,E,1,19,0.7,375.772,M,-35.766,M,,*59
$GNGGA,091221.30,3422.43494068,N,10853.97652012,E,1,19,0.7,375.769,M,-35.766,M,,*56
$GNGGA,091221.40,3422.43487604,N,10853.97621626,E,1,19,0.7,375.757,M,-35.766,M,,*57
$GNGGA,091221.50,3422.43480925,N,10853.97591085,E,1,19,0.7,375.752,M,-35.766,M,,*5F
$GNGGA,091221.60,3422.43474486,N,10853.97560424,E,1,19,0.7,375.739,M,-35.766,M,,*5F
$GNGGA,091221.70,3422.43467702,N,10853.97529941,E,1,19,0.7,375.744,M,-35.766,M,,*5A
$GNGGA,091221.80,3422.43461037,N,10853.97499332,E,1,19,0.7,375.734,M,-35.766,M,,*51
$GNGGA,091221.90,3422.43454310,N,10853.97468496,E,1,19,0.7,375.732,M,-35.766,M,,*51
$GNGGA,091222.00,3422.43447496,N,10853.97437748,E,1,19,0.7,375.727,M,-35.766,M,,*5E
$GNGGA,091222.10,3422.43440649,N,10853.97406655,E,1,19,0.7,375.724,M,-35.766,M,,*54
$GNGGA,091222.20,3422.43433695,N,10853.97375385,E,1,19,0.7,375.717,M,-35.766,M,,*59
$GNGGA,091222.30,3422.43426724,N,10853.97343935,E,1,19,0.7,375.718,M,-35.766,M,,*5C
$GNGGA,091222.40,3422.43419559,N,10853.97312218,E,1,19,0.7,375.711,M,-35.766,M,,*56
$GNGGA,091222.50,3422.43412443,N,10853.97280546,E,1,19,0.7,375.707,M,-35.766,M,,*57
$GNGGA,091222.60,3422.43405077,N,10853.97248336,E,1,19,0.7,375.702,M,-35.766,M,,*51
$GNGGA,091222.70,3422.43397755,N,10853.97216163,E,1,19,0.7,375.703,M,-35.766,M,,*53
$GNGGA,091222.80,3422.43390101,N,10853.97183471,E,1,19,0.7,375.703,M,-35.766,M,,*55
$GNGGA,091222.90,3422.43382772,N,10853.97150963,E,1,19,0.7,375.697,M,-35.766,M,,*59
$GNGGA,091223.00,3422.43374932,N,10853.97117845,E,1,19,0.7,375.692,M,-35.766,M,,*51
$GNGGA,091223.10,3422.43367459,N,10853.97084814,E,1,19,0.7,375.692,M,-35.766,M,,*5D
$GNGGA,091223.20,3422.43359627,N,10853.97051418,E,1,19,0.7,375.686,M,-35.766,M,,*55
$GNGGA,091223.30,3422.43352016,N,10853.97018221,E,1,19,0.7,375.682,M,-35.766,M,,*5E
$GNGGA,091223.40,3422.43344456,N,10853.96984730,E,1,19,0.7,375.679,M,-35.766,M,,*52
$GNGGA,091223.50,3422.43336698,N,10853.96951036,E,1,19,0.7,375.678,M,-35.766,M,,*5E
$GNGGA,091223.60,3422.43328922,N,10853.96917078,E,1,19,0.7,375.673,M,-35.766,M,,*5F
$GNGGA,091223.70,3422.43321130,N,10853.96883100,E,1,19,0.7,375.671,M,-35.766,M,,*5C
$GNGGA,091223.80,3422.43313158,N,10853.96848725,E,1,19,0.7,375.663,M,-35.766,M,,*59
$GNGGA,091223.90,3422.43305224,N,10853.96814038,E,1,19,0.7,375.662,M,-35.766,M,,*54
$GNGGA,091224.00,3422.43296459,N,10853.96778762,E,1,19,0.7,375.664,M,-35.766,M,,*56
$GNGGA,091224.10,3422.43288352,N,10853.96743937,E,1,19,0.7,375.674,M,-35.766,M,,*53
$GNGGA,091224.20,3422.43279816,N,10853.96708535,E,1,19,0.7,375.678,M,-35.766,M,,*58
$GNGGA,091224.30,3422.43271405,N,10853.96673271,E,1,19,0.7,375.684,M,-35.766,M,,*56
$GNGGA,091224.40,3422.43262081,N,10853.96637538,E,1,19,0.7,375.678,M,-35.766,M,,*52
$GNGGA,091224.50,3422.43253302,N,10853.96601956,E,1,19,0.7,375.685,M,-35.766,M,,*5A
$GNGGA,091224.60,3422.43243435,N,10853.96566303,E,1,19,0.7,375.676,M,-35.766,M,,*5F
$GNGGA,091224.70,3422.43234771,N,10853.96529929,E,1,19,0.7,375.677,M,-35.766,M,,*55
$GNGGA,091224.80,3422.43224923,N,10853.96493864,E,1,19,0.7,375.678,M,-35.766,M,,*55
$GNGGA,091224.90,3422.43216523,N,10853.96456847,E,1,19,0.7,375.675,M,-35.766,M,,*5C
$GNGGA,091225.00,3422.43207100,N,10853.96420106,E,1,19,0.7,375.673,M,-35.766,M,,*5A
$GNGGA,091225.10,3422.43198120,N,10853.96383110,E,1,19,0.7,375.664,M,-35.766,M,,*53
$GNGGA,091225.20,3422.43188819,N,10853.96346086,E,1,19,0.7,375.649,M,-35.766,M,,*5A
$GNGGA,091225.30,3422.43180081,N,10853.96308745,E,1,19,0.7,375.652,M,-35.766,M,,*52
$GNGGA,091225.40,3422.43171354,N,10853.96271291,E,1,19,0.7,375.637,M,-35.766,M,,*50
$GNGGA,091225.50,3422.43162095,N,10853.96233287,E,1,19,0.7,375.635,M,-35.766,M,,*5E
$GNGGA,091225.60,3422.43153451,N,10853.96195358,E,1,19,0.7,375.631,M,-35.766,M,,*5B
$GNGGA,091225.70,3422.43144107,N,10853.96157582,E,1,19,0.7,375.615,M,-35.766,M,,*53
$GNGGA,091225.80,3422.43134762,N,10853.96119560,E,1,19,0.7,375.613,M,-35.766,M,,*5E
$GNGGA,091225.90,3422.43125120,N,10853.96081470,E,1,19,0.7,375.608,M,-35.766,M,,*55
$GNGGA,091226.00,3422.43114426,N,10853.96043958,E,1,19,0.7,375.601,M,-35.766,M,,*5E
$GNGGA,091226.10,3422.43104629,N,10853.96005233,E,1,19,0.7,375.591,M,-35.766,M,,*5D
$GNGGA,091226.20,3422.43094032,N,10853.95967204,E,1,19,0.7,375.584,M,-35.766,M,,*54
$GNGGA,091226.30,3422.43084091,N,10853.95928588,E,1,19,0.7,375.568,M,-35.766,M,,*57
$GNGGA,091226.40,3422.43074103,N,10853.95889874,E,1,19,0.7,375.564,M,-35.766,M,,*5D
$GNGGA,091226.50,3422.43064100,N,10853.95850597,E,1,19,0.7,375.574,M,-35.766,M,,*5B
$GNGGA,091226.60,3422.43053858,N,10853.95811160,E,1,19,0.7,375.578,M,-35.766,M,,*5D
$GNGGA,091226.70,3422.43043771,N,10853.95771313,E,1,19,0.7,375.571,M,-35.766,M,,*5F
$GNGGA,091226.80,3422.43034126,N,10853.95730426,E,1,19,0.7,375.580,M,-35.766,M,,*5E
$GNGGA,091226.90,3422.43023573,N,10853.95689960,E,1,19,0.7,375.591,M,-35.766,M,,*51
$GNGGA,091227.00,3422.43013495,N,10853.95648347,E,1,19,0.7,375.587,M,-35.766,M,,*56
$GNGGA,091227.10,3422.43002835,N,10853.95606511,E,1,19,0.7,375.591,M,-35.766,M,,*59
$GNGGA,091227.20,3422.42991869,N,10853.95564081,E,1,19,0.7,375.600,M,-35.766,M,,*51
$GNGGA,091227.30,3422.42980903,N,10853.95521387,E,1,19,0.7,375.603,M,-35.766,M,,*5A
$GNGGA,091227.40,3422.42969484,N,10853.95477777,E,1,19,0.7,375.606,M,-35.766,M,,*54
$GNGGA,091227.50,3422.42957974,N,10853.95434504,E,1,19,0.7,375.611,M,-35.766,M,,*5D
$GNGGA,091227.60,3422.42946519,N,10853.95390202,E,1,19,0.7,375.611,M,-35.766,M,,*51
$GNGGA,091227.70,3422.42934829,N,10853.95345859,E,1,19,0.7,375.613,M,-35.766,M,,*55
$GNGGA,091227.80,3422.42922427,N,10853.95301615,E,1,19,0.7,375.612,M,-35.766,M,,*58
$GNGGA,091227.90,3422.42910562,N,10853.95256809,E,1,19,0.7,375.618,M,-35.766,M,,*52
$GNGGA,091228.00,3422.42898949,N,10853.95211179,E,1,19,0.7,375.620,M,-35.766,M,,*56
$GNGGA,091228.10,3422.42887333,N,10853.95165792,E,1,19,0.7,375.620,M,-35.766,M,,*5D
$GNGGA,091228.20,3422.42875831,N,10853.95119777,E,1,19,0.7,375.627,M,-35.766,M,,*5D
$GNGGA,091228.30,3422.42864003,N,10853.95074209,E,1,19,0.7,375.643,M,-35.766,M,,*51
$GNGGA,091228.40,3422.42852357,N,10853.95028176,E,1,19,0.7,375.658,M,-35.766,M,,*59
$GNGGA,091228.50,3422.42840089,N,10853.94982020,E,1,19,0.7,375.658,M,-35.766,M,,*51
$GNGGA,091228.60,3422.42827517,N,10853.94935957,E,1,19,0.7,375.660,M,-35.766,M,,*5F
$GNGGA,091228.70,3422.42815142,N,10853.94889288,E,1,19,0.7,375.658,M,-35.766,M,,*5F
$GNGGA,091228.80,3422.42802096,N,10853.94842373,E,1,19,0.7,375.645,M,-35.766,M,,*50
$GNGGA,091228.90,3422.42788873,N,10853.94795555,E,1,19,0.7,375.641,M,-35.766,M,,*5C
$GNGGA,091229.00,3422.42775178,N,10853.94748243,E,1,19,0.7,375.634,M,-35.766,M,,*56
$GNGGA,091229.10,3422.42762167,N,10853.94701445,E,1,19,0.7,375.634,M,-35.766,M,,*52
$GNGGA,091229.20,3422.42748695,N,10853.94654038,E,1,19,0.7,375.628,M,-35.766,M,,*51
$GNGGA,091229.30,3422.42735422,N,10853.94606364,E,1,19,0.7,375.609,M,-35.766,M,,*5A
$GNGGA,091229.40,3422.42721259,N,10853.94558313,E,1,19,0.7,375.598,M,-35.766,M,,*51
$GNGGA,091229.50,3422.42707256,N,10853.94510362,E,1,19,0.7,375.615,M,-35.766,M,,*57
$GNGGA,091229.60,3422.42692158,N,10853.94461716,E,1,19,0.7,375.616,M,-35.766,M,,*57
$GNGGA,091229.70,3422.42678205,N,10853.94412773,E,1,19,0.7,375.621,M,-35.766,M,,*5A
$GNGGA,091229.80,3422.42662997,N,10853.94363532,E,1,19,0.7,375.632,M,-35.766,M,,*5A
$GNGGA,091229.90,3422.42648932,N,10853.94314085,E,1,19,0.7,375.631,M,-35.766,M,,*56
$GNGGA,091230.00,3422.42634116,N,10853.94263966,E,1,19,0.7,375.616,M,-35.766,M,,*52
$GNGGA,091230.10,3422.42619497,N,10853.94213568,E,1,19,0.7,375.632,M,-35.766,M,,*53
$GNGGA,091230.20,3422.42604292,N,10853.94162893,E,1,19,0.7,375.626,M,-35.766,M,,*56
$GNGGA,091230.30,3422.42589964,N,10853.94111653,E,1,19,0.7,375.632,M,-35.766,M,,*50
$GNGGA,091230.40,3422.42574768,N,10853.94060962,E,1,19,0.7,375.653,M,-35.766,M,,*5A
$GNGGA,091230.50,3422.42559404,N,10853.94009727,E,1,19,0.7,375.658,M,-35.766,M,,*56
$GNGGA,091230.60,3422.42543523,N,10853.93959187,E,1,19,0.7,375.655,M,-35.766,M,,*50
$GNGGA,091230.70,3422.42527956,N,10853.93907356,E,1,19,0.7,375.648,M,-35.766,M,,*54
$GNGGA,091230.80,3422.42511898,N,10853.93855702,E,1,19,0.7,375.622,M,-35.766,M,,*52
$GNGGA,091230.90,3422.42495798,N,10853.93803676,E,1,19,0.7,375.618,M,-35.766,M,,*59
$GNGGA,091231.00,3422.42479782,N,10853.93750433,E,1,19,0.7,375.578,M,-35.766,M,,*57
$GNGGA,091231.10,3422.42463110,N,10853.93697695,E,1,19,0.7,375.571,M,-35.766,M,,*5D
$GNGGA,091231.20,3422.42446338,N,10853.93644461,E,1,19,0.7,375.564,M,-35.766,M,,*52
$GNGGA,091231.30,3422.42429280,N,10853.93591076,E,1,19,0.7,375.555,M,-35.766,M,,*53
$GNGGA,091231.40,3422.42411991,N,10853.93537135,E,1,19,0.7,375.558,M,-35.766,M,,*53
$GNGGA,091231.50,3422.42394253,N,10853.93483435,E,1,19,0.7,375.559,M,-35.766,M,,*57
$GNGGA,091231.60,3422.42375966,N,10853.93428913,E,1,19,0.7,375.553,M,-35.766,M,,*54
$GNGGA,091231.70,3422.42357810,N,10853.93375056,E,1,19,0.7,375.561,M,-35.766,M,,*53
$GNGGA,091231.80,3422.42338637,N,10853.93320548,E,1,19,0.7,375.568,M,-35.766,M,,*5D
$GNGGA,091231.90,3422.42319887,N,10853.93265805,E,1,19,0.7,375.568,M,-35.766,M,,*5E
$GNGGA,091232.00,3422.42300684,N,10853.93210211,E,1,19,0.7,375.561,M,-35.766,M,,*55
$GNGGA,091232.10,3422.42281801,N,10853.93155163,E,1,19,0.7,375.553,M,-35.766,M,,*5A
$GNGGA,091232.20,3422.42262602,N,10853.93099061,E,1,19,0.7,375.535,M,-35.766,M,,*5B
$GNGGA,091232.30,3422.42243451,N,10853.93042083,E,1,19,0.7,375.536,M,-35.766,M,,*54
$GNGGA,091232.40,3422.42223683,N,10853.92985357,E,1,19,0.7,375.533,M,-35.766,M,,*54
$GNGGA,091232.50,3422.42204343,N,10853.92928095,E,1,19,0.7,375.526,M,-35.766,M,,*57
$GNGGA,091232.60,3422.42183691,N,10853.92871262,E,1,19,0.7,375.543,M,-35.766,M,,*56
$GNGGA,091232.70,3422.42163692,N,10853.92812847,E,1,19,0.7,375.553,M,-35.766,M,,*53
$GNGGA,091232.80,3422.42143112,N,10853.92755300,E,1,19,0.7,375.555,M,-35.766,M,,*53
$GNGGA,091232.90,3422.42122944,N,10853.92696414,E,1,19,0.7,375.562,M,-35.766,M,,*56
$GNGGA,091233.00,3422.42103056,N,10853.92637348,E,1,19,0.7,375.549,M,-35.766,M,,*5B
$GNGGA,091233.10,3422.42083056,N,10853.92577068,E,1,19,0.7,375.547,M,-35.766,M,,*5B
$GNGGA,091233.20,3422.42062774,N,10853.92517014,E,1,19,0.7,375.526,M,-35.766,M,,*5A
$GNGGA,091233.30,3422.42042112,N,10853.92457200,E,1,19,0.7,375.539,M,-35.766,M,,*53
$GNGGA,091233.40,3422.42021229,N,10853.92396768,E,1,19,0.7,375.529,M,-35.766,M,,*5A
$GNGGA,091233.50,3422.42000246,N,10853.92335693,E,1,19,0.7,375.524,M,-35.766,M,,*50
$GNGGA,091233.60,3422.41978906,N,10853.92274299,E,1,19,0.7,375.512,M,-35.766,M,,*56
$GNGGA,091233.70,3422.41958139,N,10853.92212791,E,1,19,0.7,375.515,M,-35.766,M,,*5B
$GNGGA,091233.80,3422.41937530,N,10853.92149742,E,1,19,0.7,375.514,M,-35.766,M,,*52
$GNGGA,091233.90,3422.41916520,N,10853.92087526,E,1,19,0.7,375.535,M,-35.766,M,,*51
$GNGGA,091234.00,3422.41895146,N,10853.92024220,E,1,19,0.7,375.526,M,-35.766,M,,*5B
$GNGGA,091234.10,3422.41873105,N,10853.91962042,E,1,19,0.7,375.525,M,-35.766,M,,*58
$GNGGA,091234.20,3422.41850802,N,10853.91898714,E,1,19,0.7,375.520,M,-35.766,M,,*51
$GNGGA,091234.30,3422.41829086,N,10853.91834596,E,1,19,0.7,375.515,M,-35.766,M,,*52
$GNGGA,091234.40,3422.41806995,N,10853.91770743,E,1,19,0.7,375.517,M,-35.766,M,,*54
$GNGGA,091234.50,3422.41784402,N,10853.91707060,E,1,19,0.7,375.546,M,-35.766,M,,*51
$GNGGA,091234.60,3422.41762141,N,10853.91641511,E,1,19,0.7,375.554,M,-35.766,M,,*5B
$GNGGA,091234.70,3422.41740210,N,10853.91576292,E,1,19,0.7,375.589,M,-35.766,M,,*56
$GNGGA,091234.80,3422.41717331,N,10853.91510324,E,1,19,0.7,375.612,M,-35.766,M,,*54
$GNGGA,091234.90,3422.41694195,N,10853.91444721,E,1,19,0.7,375.596,M,-35.766,M,,*5D
$GNGGA,091235.00,3422.41671386,N,10853.91377437,E,1,19,0.7,375.582,M,-35.766,M,,*58
$GNGGA,091235.10,3422.41648313,N,10853.91311293,E,1,19,0.7,375.586,M,-35.766,M,,*53
