$GPGGA,094144.80,3422.50330554,N,10853.91373093,E,2,08,1.3,372.578,M,-35.774,M,3.8,0100*6A
$GPGGA,094144.90,3422.50330630,N,10853.91373203,E,2,08,1.3,372.574,M,-35.774,M,3.9,0100*6C
$GPGGA,094145.00,3422.50330670,N,10853.91372931,E,2,08,1.3,372.567,M,-35.774,M,4.0,0100*67
$GPGGA,094145.10,3422.50330673,N,10853.91373097,E,2,08,1.3,372.575,M,-35.774,M,4.1,0100*63
$GPGGA,094145.20,3422.50330442,N,10853.91373065,E,2,08,1.3,372.582,M,-35.774,M,4.2,0100*66
$GPGGA,094145.30,3422.50330693,N,10853.91372934,E,2,08,1.3,372.568,M,-35.774,M,4.3,0100*60
$GPGGA,094145.40,3422.50330588,N,10853.91372743,E,2,08,1.3,372.572,M,-35.774,M,4.4,0100*6C
$GPGGA,094145.50,3422.50330514,N,10853.91372885,E,2,08,1.3,372.579,M,-35.774,M,4.5,0100*67
$GPGGA,094145.60,3422.50330573,N,10853.91372740,E,2,08,1.3,372.570,M,-35.774,M,4.6,0100*69
$GPGGA,094145.70,3422.50330432,N,10853.91372789,E,2,08,1.3,372.580,M,-35.774,M,4.7,0100*67
$GPGGA,094145.80,3422.50330119,N,10853.91372925,E,2,08,1.3,372.587,M,-35.774,M,4.8,0100*64
$GPGGA,094145.90,3422.50330351,N,10853.91372844,E,2,08,1.3,372.582,M,-35.774,M,4.9,0100*69
$GPGGA,094146.00,3422.50330298,N,10853.91372799,E,2,08,1.3,372.578,M,-35.774,M,5.0,0100*65
$GPGGA,094146.10,3422.50330328,N,10853.91372696,E,2,08,1.3,372.576,M,-35.774,M,5.1,0100*6F
$GPGGA,094146.20,3422.50330219,N,10853.91372710,E,2,08,1.3,372.580,M,-35.774,M,5.2,0100*6A
$GPGGA,094146.30,3422.50330254,N,10853.91372669,E,2,08,1.3,372.585,M,-35.774,M,5.3,0100*69
$GPGGA,094146.40,3422.50330242,N,10853.91372681,E,2,08,1.3,372.580,M,-35.774,M,5.4,0100*6D
$GPGGA,094146.50,3422.50330379,N,10853.91372486,E,2,08,1.3,372.582,M,-35.774,M,5.5,0100*63
$GPGGA,094146.60,3422.50330281,N,10853.91372193,E,2,08,1.3,372.583,M,-35.774,M,5.6,0100*65
$GPGGA,094146.70,3422.50330246,N,10853.91372260,E,2,08,1.3,372.587,M,-35.774,M,5.7,0100*65
$GPGGA,094146.80,3422.50330373,N,10853.91372350,E,2,08,1.3,372.579,M,-35.774,M,5.8,0100*61
$GPGGA,094146.90,3422.50330234,N,10853.91372361,E,2,08,1.3,372.585,M,-35.774,M,5.9,0100*62
$GPGGA,094147.00,3422.50330137,N,10853.91372353,E,2,08,1.3,372.589,M,-35.774,M,6.0,0100*6D
$GPGGA,094147.10,3422.50330476,N,10853.91372072,E,2,08,1.3,372.580,M,-35.774,M,6.1,0100*64
$GPGGA,094147.20,3422.50330155,N,10853.91372184,E,2,08,1.3,372.592,M,-35.774,M,6.2,0100*6B
$GPGGA,094147.30,3422.50330303,N,10853.91372519,E,2,08,1.3,372.584,M,-35.774,M,6.3,0100*6D
$GPGGA,094147.40,3422.50330146,N,10853.91372284,E,2,08,1.3,372.592,M,-35.774,M,6.4,0100*6A
$GPGGA,094147.50,3422.50330218,N,10853.91372347,E,2,08,1.3,372.586,M,-35.774,M,6.5,0100*69
$GPGGA,094147.60,3422.50330185,N,10853.91372107,E,2,08,1.3,372.580,M,-35.774,M,6.6,0100*6E
$GPGGA,094147.70,3422.50330272,N,10853.91372134,E,2,08,1.3,372.587,M,-35.774,M,6.7,0100*62
$GPGGA,094147.80,3422.50330160,N,10853.91372073,E,2,08,1.3,372.585,M,-35.774,M,6.8,0100*62
$GPGGA,094147.90,3422.50330118,N,10853.91372203,E,2,08,1.3,372.590,M,-35.774,M,6.9,0100*6C
$GPGGA,094148.00,3422.50330135,N,10853.91372191,E,2,08,1.3,372.593,M,-35.774,M,7.0,0100*66
$GPGGA,094148.10,3422.50330000,N,10853.91372130,E,2,08,1.3,372.593,M,-35.774,M,7.1,0100*6A
$GPGGA,094148.20,3422.50330111,N,10853.91372056,E,2,08,1.3,372.590,M,-35.774,M,7.2,0100*69
$GPGGA,094148.30,3422.50330178,N,10853.91372027,E,2,08,1.3,372.599,M,-35.774,M,7.3,0100*69
$GPGGA,094148.40,3422.50330226,N,10853.91371816,E,2,08,1.3,372.586,M,-35.774,M,7.4,0100*66
$GPGGA,094148.50,3422.50330108,N,10853.91371894,E,2,08,1.3,372.598,M,-35.774,M,7.5,0100*6C
$GPGGA,094148.60,3422.50330071,N,10853.91371926,E,2,08,1.3,372.589,M,-35.774,M,7.6,0100*6B
$GPGGA,094148.70,3422.50330149,N,10853.91371935,E,2,08,1.3,372.597,M,-35.774,M,7.7,0100*6C
$GPGGA,094148.80,3422.50330101,N,10853.91371852,E,2,08,1.3,372.594,M,-35.774,M,7.8,0100*63
$GPGGA,094148.90,3422.50330158,N,10853.91371640,E,2,08,1.3,372.587,M,-35.774,M,7.9,0100*60
$GPGGA,094149.00,3422.50330147,N,10853.91371769,E,2,08,1.3,372.590,M,-35.774,M,8.0,0100*6C
$GPGGA,094149.10,3422.50330126,N,10853.91371527,E,2,08,1.3,372.594,M,-35.774,M,8.1,0100*67
$GPGGA,094149.20,3422.50330193,N,10853.91371786,E,2,08,1.3,372.589,M,-35.774,M,8.2,0100*6C
$GPGGA,094149.30,3422.50330101,N,10853.91371700,E,2,08,1.3,372.588,M,-35.774,M,8.3,0100*68
$GPGGA,094149.40,3422.50330027,N,10853.91371708,E,2,08,1.3,372.593,M,-35.774,M,8.4,0100*6F
$GPGGA,094149.50,3422.50330198,N,10853.91371481,E,2,08,1.3,372.588,M,-35.774,M,8.5,0100*62
$GPGGA,094149.60,3422.50329881,N,10853.91371596,E,2,08,1.3,372.597,M,-35.774,M,8.6,0100*62
$GPGGA,094149.70,3422.50329947,N,10853.91371609,E,2,08,1.3,372.598,M,-35.774,M,8.7,0100*63
$GPGGA,094149.80,3422.50329985,N,10853.91371560,E,2,08,1.3,372.593,M,-35.774,M,8.8,0100*6A
$GPGGA,094149.90,3422.50330046,N,10853.91371574,E,2,08,1.3,372.592,M,-35.774,M,8.9,0100*60
$GPGGA,094150.00,3422.50329918,N,10853.91371301,E,2,08,1.3,372.598,M,-35.774,M,9.0,0100*6D
$GPGGA,094150.10,3422.50330020,N,10853.91371531,E,2,08,1.3,372.590,M,-35.774,M,9.1,0100*6A
$GPGGA,094150.20,3422.50329939,N,10853.91371559,E,2,08,1.3,372.594,M,-35.774,M,9.2,0100*69
$GPGGA,094150.30,3422.50329966,N,10853.91371424,E,2,08,1.3,372.595,M,-35.774,M,9.3,0100*69
$GPGGA,094150.40,3422.50329970,N,10853.91371163,E,2,08,1.3,372.587,M,-35.774,M,9.4,0100*6B
$GPGGA,094150.50,3422.50329899,N,10853.91371459,E,2,08,1.3,372.603,M,-35.774,M,9.5,0100*6E
$GPGGA,094150.60,3422.50329815,N,10853.91371441,E,2,08,1.3,372.604,M,-35.774,M,9.6,0100*64
$GPGGA,094150.70,3422.50329940,N,10853.91371423,E,2,08,1.3,372.597,M,-35.774,M,9.7,0100*68
$GPGGA,094150.80,3422.50329888,N,10853.91371319,E,2,08,1.3,372.598,M,-35.774,M,9.8,0100*6C
$GPGGA,094150.90,3422.50329888,N,10853.91371335,E,2,08,1.3,372.598,M,-35.774,M,9.9,0100*62
$GPGGA,094151.00,3422.50329811,N,10853.91371608,E,2,08,1.3,372.603,M,-35.774,M,10.0,0100*51
$GPGGA,094151.10,3422.50329880,N,10853.91371316,E,2,08,1.3,372.602,M,-35.774,M,10.1,0100*52
$GPGGA,094151.20,3422.50329726,N,10853.91371443,E,2,08,1.3,372.605,M,-35.774,M,10.2,0100*51
$GPGGA,094151.30,3422.50329715,N,10853.91371261,E,2,08,1.3,372.609,M,-35.774,M,10.3,0100*5B
$GPGGA,094151.40,3422.50329830,N,10853.91371463,E,2,08,1.3,372.602,M,-35.774,M,10.4,0100*5C
$GPGGA,094151.50,3422.50329746,N,10853.91371488,E,2,08,1.3,372.609,M,-35.774,M,10.5,0100*5C
$GPGGA,094151.60,3422.50329706,N,10853.91371422,E,2,08,1.3,372.612,M,-35.774,M,10.6,0100*52
$GPGGA,094151.70,3422.50329677,N,10853.91371391,E,2,08,1.3,372.609,M,-35.774,M,10.7,0100*50
$GPGGA,094151.80,3422.50329710,N,10853.91371115,E,2,08,1.3,372.609,M,-35.774,M,10.8,0100*5E
$GPGGA,094151.90,3422.50329799,N,10853.91371304,E,2,08,1.3,372.609,M,-35.774,M,10.9,0100*5D
$GPGGA,094152.00,3422.50329762,N,10853.91371384,E,2,08,1.3,372.608,M,-35.774,M,4.6,0100*60
$GPGGA,094152.10,3422.50329656,N,10853.91371362,E,2,08,1.3,372.617,M,-35.774,M,4.7,0100*60
$GPGGA,094152.20,3422.50330265,N,10853.91370686,E,2,08,1.3,372.608,M,-35.774,M,4.8,0100*60
$GPGGA,094152.30,3422.50330386,N,10853.91370798,E,2,08,1.3,372.609,M,-35.774,M,4.9,0100*63
$GPGGA,094152.40,3422.50330453,N,10853.91370757,E,2,08,1.3,372.615,M,-35.774,M,5.0,0100*6D
$GPGGA,094152.50,3422.50330356,N,10853.91370783,E,2,08,1.3,372.615,M,-35.774,M,5.1,0100*66
$GPGGA,094152.60,3422.50330315,N,10853.91370771,E,2,08,1.3,372.615,M,-35.774,M,5.2,0100*6C
$GPGGA,094152.70,3422.50330248,N,10853.91370808,E,2,08,1.3,372.619,M,-35.774,M,5.3,0100*68
$GPGGA,094152.80,3422.50330239,N,10853.91370841,E,2,08,1.3,372.619,M,-35.774,M,5.4,0100*6B
$GPGGA,094152.90,3422.50330190,N,10853.91370892,E,2,08,1.3,372.622,M,-35.774,M,5.5,0100*6D
$GPGGA,094153.00,3422.50330285,N,10853.91370686,E,2,08,1.3,372.619,M,-35.774,M,5.6,0100*62
$GPGGA,094153.10,3422.50330196,N,10853.91371107,E,2,08,1.3,372.626,M,-35.774,M,5.7,0100*60
$GPGGA,094153.20,3422.50330278,N,10853.91370820,E,2,08,1.3,372.618,M,-35.774,M,5.8,0100*6F
$GPGGA,094153.30,3422.50330082,N,10853.91370910,E,2,08,1.3,372.620,M,-35.774,M,5.9,0100*61
$GPGGA,094153.40,3422.50330121,N,10853.91371038,E,2,08,1.3,372.626,M,-35.774,M,6.0,0100*60
$GPGGA,094153.50,3422.50330093,N,10853.91370961,E,2,08,1.3,372.621,M,-35.774,M,6.1,0100*6B
$GPGGA,094153.60,3422.50329985,N,10853.91370974,E,2,08,1.3,372.623,M,-35.774,M,6.2,0100*6B
$GPGGA,094153.70,3422.50330240,N,10853.91370819,E,2,08,1.3,372.618,M,-35.774,M,6.3,0100*63
$GPGGA,094153.80,3422.50330031,N,10853.91371124,E,2,08,1.3,372.618,M,-35.774,M,6.4,0100*69
$GPGGA,094153.90,3422.50330077,N,10853.91370970,E,2,08,1.3,372.630,M,-35.774,M,6.5,0100*69
$GPGGA,094154.00,3422.50330190,N,10853.91370796,E,2,08,1.3,372.619,M,-35.774,M,6.6,0100*61
$GPGGA,094154.10,3422.50330054,N,10853.91370924,E,2,08,1.3,372.621,M,-35.774,M,6.7,0100*64
$GPGGA,094154.20,3422.50330031,N,10853.91371100,E,2,08,1.3,372.622,M,-35.774,M,6.8,0100*67
$GPGGA,094154.30,3422.50330170,N,10853.91370748,E,2,08,1.3,372.625,M,-35.774,M,6.9,0100*6F
$GPGGA,094154.40,3422.50329929,N,10853.91371196,E,2,08,1.3,372.626,M,-35.774,M,7.0,0100*6B
$GPGGA,094154.50,3422.50330054,N,10853.91370968,E,2,08,1.3,372.621,M,-35.774,M,7.1,0100*6F
$GPGGA,094154.60,3422.50330148,N,10853.91370880,E,2,08,1.3,372.618,M,-35.774,M,7.2,0100*6E
$GPGGA,094154.70,3422.50329871,N,10853.91371068,E,2,08,1.3,372.624,M,-35.774,M,7.3,0100*65
$GPGGA,094154.80,3422.50330010,N,10853.91370919,E,2,08,1.3,372.623,M,-35.774,M,7.4,0100*63
$GPGGA,094154.90,3422.50330025,N,10853.91370903,E,2,08,1.3,372.620,M,-35.774,M,7.5,0100*6D
$GPGGA,094155.00,3422.50330023,N,10853.91370812,E,2,08,1.3,372.617,M,-35.774,M,7.6,0100*65
$GPGGA,094155.10,3422.50329816,N,10853.91370912,E,2,08,1.3,372.628,M,-35.774,M,7.7,0100*6E
$GPGGA,094155.20,3422.50330049,N,10853.91370826,E,2,08,1.3,372.613,M,-35.774,M,7.8,0100*66
$GPGGA,094155.30,3422.50329766,N,10853.91370879,E,2,08,1.3,372.621,M,-35.774,M,7.9,0100*6F
$GPGGA,094155.40,3422.50329963,N,10853.91371019,E,2,08,1.3,372.619,M,-35.774,M,8.0,0100*61
$GPGGA,094155.50,3422.50329908,N,10853.91370799,E,2,08,1.3,372.622,M,-35.774,M,8.1,0100*6A
$GPGGA,094155.60,3422.50329732,N,10853.91370937,E,2,08,1.3,372.623,M,-35.774,M,8.2,0100*66
$GPGGA,094155.70,3422.50329865,N,10853.91371009,E,2,08,1.3,372.624,M,-35.774,M,8.3,0100*69
$GPGGA,094155.80,3422.50329637,N,10853.91371011,E,2,08,1.3,372.617,M,-35.774,M,8.4,0100*61
$GPGGA,094155.90,3422.50329513,N,10853.91371436,E,2,08,1.3,372.617,M,-35.774,M,8.5,0100*65
$GPGGA,094156.00,3422.50329633,N,10853.91371144,E,2,08,1.3,372.615,M,-35.774,M,8.6,0100*6F
$GPGGA,094156.10,3422.50329654,N,10853.91370951,E,2,08,1.3,372.614,M,-35.774,M,8.7,0100*62
$GPGGA,094156.20,3422.50329589,N,10853.91371067,E,2,08,1.3,372.612,M,-35.774,M,8.8,0100*66
$GPGGA,094156.30,3422.50329548,N,10853.91371062,E,2,08,1.3,372.612,M,-35.774,M,8.9,0100*6E
$GPGGA,094156.40,3422.50329400,N,10853.91371316,E,2,08,1.3,372.604,M,-35.774,M,9.0,0100*6B
$GPGGA,094156.50,3422.50329448,N,10853.91371001,E,2,08,1.3,372.609,M,-35.774,M,9.1,0100*6F
$GPGGA,094156.60,3422.50329531,N,10853.91371042,E,2,08,1.3,372.606,M,-35.774,M,9.2,0100*68
$GPGGA,094156.70,3422.50329445,N,10853.91370980,E,2,08,1.3,372.606,M,-35.774,M,9.3,0100*6C
$GPGGA,094156.80,3422.50329350,N,10853.91371277,E,2,08,1.3,372.607,M,-35.774,M,9.4,0100*64
$GPGGA,094156.90,3422.50329261,N,10853.91371106,E,2,08,1.3,372.615,M,-35.774,M,9.5,0100*61
$GPGGA,094157.00,3422.50329392,N,10853.91371104,E,2,08,1.3,372.605,M,-35.774,M,9.6,0100*64
$GPGGA,094157.10,3422.50329470,N,10853.91370919,E,2,08,1.3,372.603,M,-35.774,M,9.7,0100*6C
$GPGGA,094157.20,3422.50329335,N,10853.91371211,E,2,08,1.3,372.610,M,-35.774,M,9.8,0100*66
$GPGGA,094157.30,3422.50329444,N,10853.91371025,E,2,08,1.3,372.604,M,-35.774,M,9.9,0100*67
$GPGGA,094157.40,3422.50329344,N,10853.91370936,E,2,08,1.3,372.604,M,-35.774,M,10.0,0100*5C
$GPGGA,094157.50,3422.50329347,N,10853.91371157,E,2,08,1.3,372.604,M,-35.774,M,10.1,0100*51
$GPGGA,094157.60,3422.50329306,N,10853.91370968,E,2,08,1.3,372.601,M,-35.774,M,10.2,0100*54
$GPGGA,094157.70,3422.50329242,N,10853.91370897,E,2,08,1.3,372.606,M,-35.774,M,10.3,0100*53
$GPGGA,094157.80,3422.50329324,N,10853.91371156,E,2,08,1.3,372.599,M,-35.774,M,10.4,0100*5A
$GPGGA,094157.90,3422.50329073,N,10853.91370985,E,2,08,1.3,372.618,M,-35.774,M,10.5,0100*56
$GPGGA,094158.00,3422.50329190,N,10853.91371054,E,2,08,1.3,372.602,M,-35.774,M,10.6,0100*50
$GPGGA,094158.10,3422.50329082,N,10853.91370785,E,2,08,1.3,372.603,M,-35.774,M,10.7,0100*59
$GPGGA,094158.20,3422.50329058,N,10853.91371038,E,2,08,1.3,372.608,M,-35.774,M,10.8,0100*59
$GPGGA,094158.30,3422.50329153,N,10853.91371271,E,2,08,1.3,372.597,M,-35.774,M,10.9,0100*59
$GPGGA,094158.40,3422.50329165,N,10853.91371009,E,2,08,1.3,372.603,M,-35.774,M,11.0,0100*50
$GPGGA,094158.50,3422.50329038,N,10853.91370876,E,2,08,1.3,372.607,M,-35.774,M,11.1,0100*5C
$GPGGA,094158.60,3422.50329018,N,10853.91370892,E,2,08,1.3,372.603,M,-35.774,M,11.2,0100*50
$GPGGA,094158.70,3422.50328922,N,10853.91370656,E,2,08,1.3,372.610,M,-35.774,M,11.3,0100*55
$GPGGA,094158.80,3422.50328985,N,10853.91369992,E,2,08,1.3,372.589,M,-35.774,M,11.4,0100*5C
$GPGGA,094158.90,3422.50328655,N,10853.91368819,E,2,08,1.3,372.596,M,-35.774,M,11.5,0100*53
$GPGGA,094159.00,3422.50328121,N,10853.91367786,E,2,08,1.3,372.602,M,-35.774,M,11.6,0100*54
$GPGGA,094159.10,3422.50327858,N,10853.91365938,E,2,08,1.3,372.590,M,-35.774,M,11.7,0100*5D
$GPGGA,094159.20,3422.50327047,N,10853.91364346,E,2,08,1.3,372.598,M,-35.774,M,11.8,0100*5D
$GPGGA,094159.30,3422.50326633,N,10853.91361949,E,2,08,1.3,372.593,M,-35.774,M,11.9,0100*52
$GPGGA,094159.40,3422.50325845,N,10853.91359341,E,2,08,1.3,372.600,M,-35.774,M,12.0,0100*53
$GPGGA,094159.50,3422.50325051,N,10853.91355698,E,2,08,1.3,372.596,M,-35.774,M,12.1,0100*5F
$GPGGA,094159.60,3422.50323577,N,10853.91351907,E,2,08,1.3,372.600,M,-35.774,M,12.2,0100*59
$GPGGA,094159.70,3422.50322483,N,10853.91347112,E,2,08,1.3,372.596,M,-35.774,M,12.3,0100*55
$GPGGA,094159.80,3422.50320523,N,10853.91340904,E,2,08,1.3,372.601,M,-35.774,M,12.4,0100*51
$GPGGA,094159.90,3422.50318595,N,10853.91333611,E,2,08,1.3,372.589,M,-35.774,M,12.5,0100*5B
$GPGGA,094200.00,3422.50315826,N,10853.91324613,E,2,08,1.3,372.585,M,-35.774,M,6.2,0100*6F
$GPGGA,094200.10,3422.50313271,N,10853.91315101,E,2,08,1.3,372.594,M,-35.774,M,6.3,0100*67
$GPGGA,094200.20,3422.50309299,N,10853.91305058,E,2,08,1.3,372.562,M,-35.774,M,6.4,0100*6B
$GPGGA,094200.30,3422.50306190,N,10853.91292840,E,2,08,1.3,372.548,M,-35.774,M,6.5,0100*68
$GPGGA,094200.40,3422.50302586,N,10853.91280194,E,2,08,1.3,372.553,M,-35.774,M,6.6,0100*62
$GPGGA,094200.50,3422.50299204,N,10853.91266524,E,2,08,1.3,372.547,M,-35.774,M,6.7,0100*6E
$GPGGA,094200.60,3422.50295042,N,10853.91252866,E,2,08,1.3,372.546,M,-35.774,M,6.8,0100*63
$GPGGA,094200.70,3422.50291029,N,10853.91238486,E,2,08,1.3,372.540,M,-35.774,M,6.9,0100*62
$GPGGA,094200.80,3422.50287060,N,10853.91224430,E,2,08,1.3,372.544,M,-35.774,M,7.0,0100*6B
$GPGGA,094200.90,3422.50283275,N,10853.91209433,E,2,08,1.3,372.538,M,-35.774,M,7.1,0100*6E
$GPGGA,094201.00,3422.50279017,N,10853.91195049,E,2,08,1.3,372.556,M,-35.774,M,7.2,0100*61
$GPGGA,094201.10,3422.50274576,N,10853.91179796,E,2,08,1.3,372.540,M,-35.774,M,7.3,0100*6E
$GPGGA,094201.20,3422.50270602,N,10853.91165006,E,2,08,1.3,372.544,M,-35.774,M,7.4,0100*69
$GPGGA,094201.30,3422.50266545,N,10853.91149626,E,2,08,1.3,372.537,M,-35.774,M,7.5,0100*60
$GPGGA,094201.40,3422.50262221,N,10853.91134134,E,2,08,1.3,372.545,M,-35.774,M,7.6,0100*6E
$GPGGA,094201.50,3422.50258120,N,10853.91119546,E,2,08,1.3,372.541,M,-35.774,M,7.7,0100*6F
$GPGGA,094201.60,3422.50253930,N,10853.91105034,E,2,08,1.3,372.539,M,-35.774,M,7.8,0100*63
$GPGGA,094201.70,3422.50249571,N,10853.91090264,E,2,08,1.3,372.545,M,-35.774,M,7.9,0100*60
$GPGGA,094201.80,3422.50245587,N,10853.91076126,E,2,08,1.3,372.538,M,-35.774,M,8.0,0100*6B
$GPGGA,094201.90,3422.50241916,N,10853.91061922,E,2,08,1.3,372.536,M,-35.774,M,8.1,0100*6F
$GPGGA,094202.00,3422.50238428,N,10853.91047389,E,2,08,1.3,372.521,M,-35.774,M,8.2,0100*61
$GPGGA,094202.10,3422.50233778,N,10853.91032174,E,2,08,1.3,372.538,M,-35.774,M,8.3,0100*66
$GPGGA,094202.20,3422.50229847,N,10853.91016949,E,2,08,1.3,372.526,M,-35.774,M,8.4,0100*65
$GPGGA,094202.30,3422.50225183,N,10853.91001528,E,2,08,1.3,372.534,M,-35.774,M,8.5,0100*66
$GPGGA,094202.40,3422.50221086,N,10853.90985467,E,2,08,1.3,372.519,M,-35.774,M,8.6,0100*63
$GPGGA,094202.50,3422.50216636,N,10853.90969357,E,2,08,1.3,372.543,M,-35.774,M,8.7,0100*63
$GPGGA,094202.60,3422.50211868,N,10853.90953228,E,2,08,1.3,372.544,M,-35.774,M,8.8,0100*6A
$GPGGA,094202.70,3422.50207639,N,10853.90936273,E,2,08,1.3,372.518,M,-35.774,M,8.9,0100*63
$GPGGA,094202.80,3422.50202459,N,10853.90919588,E,2,08,1.3,372.535,M,-35.774,M,9.0,0100*64
$GPGGA,094202.90,3422.50198410,N,10853.90902381,E,2,08,1.3,372.515,M,-35.774,M,9.1,0100*6E
$GPGGA,094203.00,3422.50192968,N,10853.90885447,E,2,08,1.3,372.546,M,-35.774,M,9.2,0100*68
$GPGGA,094203.10,3422.50188387,N,10853.90867843,E,2,08,1.3,372.531,M,-35.774,M,9.3,0100*6C
$GPGGA,094203.20,3422.50183747,N,10853.90849853,E,2,08,1.3,372.526,M,-35.774,M,9.4,0100*60
$GPGGA,094203.30,3422.50178965,N,10853.90831578,E,2,08,1.3,372.517,M,-35.774,M,9.5,0100*63
$GPGGA,094203.40,3422.50173954,N,10853.90813015,E,2,08,1.3,372.519,M,-35.774,M,9.6,0100*6E
$GPGGA,094203.50,3422.50168900,N,10853.90794430,E,2,08,1.3,372.518,M,-35.774,M,9.7,0100*67
$GPGGA,094203.60,3422.50163445,N,10853.90775187,E,2,08,1.3,372.525,M,-35.774,M,9.8,0100*64
$GPGGA,094203.70,3422.50158367,N,10853.90756035,E,2,08,1.3,372.514,M,-35.774,M,9.9,0100*60
$GPGGA,094203.80,3422.50153042,N,10853.90736317,E,2,08,1.3,372.523,M,-35.774,M,10.0,0100*50
$GPGGA,094203.90,3422.50147571,N,10853.90716438,E,2,08,1.3,372.524,M,-35.774,M,10.1,0100*5F
$GPGGA,094204.00,3422.50142299,N,10853.90696314,E,2,08,1.3,372.513,M,-35.774,M,10.2,0100*52
$GPGGA,094204.10,3422.50136967,N,10853.90676222,E,2,08,1.3,372.526,M,-35.774,M,10.3,0100*57
$GPGGA,094204.20,3422.50131237,N,10853.90655266,E,2,08,1.3,372.524,M,-35.774,M,10.4,0100*59
$GPGGA,094204.30,3422.50125856,N,10853.90634667,E,2,08,1.3,372.517,M,-35.774,M,10.5,0100*53
$GPGGA,094204.40,3422.50120365,N,10853.90613593,E,2,08,1.3,372.512,M,-35.774,M,10.6,0100*51
$GPGGA,094204.50,3422.50114271,N,10853.90592018,E,2,08,1.3,372.525,M,-35.774,M,10.7,0100*5A
$GPGGA,094204.60,3422.50108739,N,10853.90569818,E,2,08,1.3,372.513,M,-35.774,M,10.8,0100*5B
$GPGGA,094204.70,3422.50102824,N,10853.90546588,E,2,08,1.3,372.506,M,-35.774,M,10.9,0100*5F
$GPGGA,094204.80,3422.50096183,N,10853.90522768,E,2,08,1.3,372.515,M,-35.774,M,11.0,0100*5C
$GPGGA,094204.90,3422.50089720,N,10853.90497879,E,2,08,1.3,372.511,M,-35.774,M,11.1,0100*59
$GPGGA,094205.00,3422.50082962,N,10853.90472754,E,2,08,1.3,372.500,M,-35.774,M,11.2,0100*5A
$GPGGA,094205.10,3422.50076545,N,10853.90447626,E,2,08,1.3,372.501,M,-35.774,M,11.3,0100*5B
$GPGGA,094205.20,3422.50069270,N,10853.90421916,E,2,08,1.3,372.517,M,-35.774,M,11.4,0100*5B
$GPGGA,094205.30,3422.50062197,N,10853.90395978,E,2,08,1.3,372.509,M,-35.774,M,11.5,0100*55
$GPGGA,094205.40,3422.50054982,N,10853.90369938,E,2,08,1.3,372.499,M,-35.774,M,11.6,0100*57
$GPGGA,094205.50,3422.50047958,N,10853.90343482,E,2,08,1.3,372.509,M,-35.774,M,11.7,0100*5E
$GPGGA,094205.60,3422.50040922,N,10853.90317306,E,2,08,1.3,372.496,M,-35.774,M,11.8,0100*55
$GPGGA,094205.70,3422.50033223,N,10853.90290566,E,2,08,1.3,372.499,M,-35.774,M,11.9,0100*5A
$GPGGA,094205.80,3422.50025832,N,10853.90263870,E,2,08,1.3,372.504,M,-35.774,M,12.0,0100*51
$GPGGA,094205.90,3422.50018772,N,10853.90237355,E,2,08,1.3,372.494,M,-35.774,M,12.1,0100*51
$GPGGA,094206.00,3422.50011310,N,10853.90210272,E,2,08,1.3,372.489,M,-35.774,M,12.2,0100*5C
$GPGGA,094206.10,3422.50004137,N,10853.90183380,E,2,08,1.3,372.470,M,-35.774,M,12.3,0100*5C
$GPGGA,094206.20,3422.49996499,N,10853.90156567,E,2,08,1.3,372.491,M,-35.774,M,12.4,0100*5B
$GPGGA,094206.30,3422.49989010,N,10853.90129310,E,2,08,1.3,372.478,M,-35.774,M,12.5,0100*59
$GPGGA,094206.40,3422.49981295,N,10853.90102068,E,2,08,1.3,372.477,M,-35.774,M,12.6,0100*50
$GPGGA,094206.50,3422.49974083,N,10853.90074394,E,2,08,1.3,372.472,M,-35.774,M,12.7,0100*5A
$GPGGA,094206.60,3422.49966273,N,10853.90047111,E,2,08,1.3,372.478,M,-35.774,M,12.8,0100*5D
$GPGGA,094206.70,3422.49958290,N,10853.90019814,E,2,08,1.3,372.481,M,-35.774,M,12.9,0100*5C
$GPGGA,094206.80,3422.49950925,N,10853.89991018,E,2,08,1.3,372.459,M,-35.774,M,13.0,0100*56
$GPGGA,094206.90,3422.49943202,N,10853.89963200,E,2,08,1.3,372.465,M,-35.774,M,13.1,0100*53
$GPGGA,094207.00,3422.49934966,N,10853.89935383,E,2,08,1.3,372.462,M,-35.774,M,13.2,0100*5F
$GPGGA,094207.10,3422.49926880,N,10853.89906729,E,2,08,1.3,372.464,M,-35.774,M,13.3,0100*57
$GPGGA,094207.20,3422.49918741,N,10853.89878014,E,2,08,1.3,372.466,M,-35.774,M,13.4,0100*5F
$GPGGA,094207.30,3422.49911020,N,10853.89848501,E,2,08,1.3,372.444,M,-35.774,M,13.5,0100*54
$GPGGA,094207.40,3422.49902882,N,10853.89819891,E,2,08,1.3,372.448,M,-35.774,M,13.6,0100*5E
$GPGGA,094207.50,3422.49893970,N,10853.89791172,E,2,08,1.3,372.468,M,-35.774,M,13.7,0100*52
$GPGGA,094207.60,3422.49886301,N,10853.89761400,E,2,08,1.3,372.419,M,-35.774,M,13.8,0100*5F
$GPGGA,094207.70,3422.49878163,N,10853.89732341,E,2,08,1.3,372.438,M,-35.774,M,13.9,0100*5F
$GPGGA,094207.80,3422.49869839,N,10853.89703611,E,2,08,1.3,372.454,M,-35.774,M,14.0,0100*50
$GPGGA,094207.90,3422.49861489,N,10853.89674378,E,2,08,1.3,372.441,M,-35.774,M,14.1,0100*50
$GPGGA,094208.00,3422.49853316,N,10853.89645165,E,2,08,1.3,372.434,M,-35.774,M,3.2,0100*6D
$GPGGA,094208.10,3422.49845109,N,10853.89616401,E,2,08,1.3,372.445,M,-35.774,M,3.3,0100*61
$GPGGA,094208.20,3422.49836554,N,10853.89590289,E,2,08,1.3,372.417,M,-35.774,M,3.4,0100*61
$GPGGA,094208.30,3422.49828238,N,10853.89561535,E,2,08,1.3,372.429,M,-35.774,M,3.5,0100*60
$GPGGA,094208.40,3422.49820307,N,10853.89532055,E,2,08,1.3,372.421,M,-35.774,M,3.6,0100*6C
$GPGGA,094208.50,3422.49811708,N,10853.89503160,E,2,08,1.3,372.418,M,-35.774,M,3.7,0100*6A
$GPGGA,094208.60,3422.49803450,N,10853.89473993,E,2,08,1.3,372.415,M,-35.774,M,3.8,0100*64
$GPGGA,094208.70,3422.49794858,N,10853.89443909,E,2,08,1.3,372.406,M,-35.774,M,3.9,0100*63
$GPGGA,094208.80,3422.49786516,N,10853.89414184,E,2,08,1.3,372.402,M,-35.774,M,4.0,0100*6D
$GPGGA,094208.90,3422.49777635,N,10853.89384185,E,2,08,1.3,372.426,M,-35.774,M,4.1,0100*68
$GPGGA,094209.00,3422.49769579,N,10853.89353134,E,2,08,1.3,372.405,M,-35.774,M,4.2,0100*66
$GPGGA,094209.10,3422.49760412,N,10853.89322433,E,2,08,1.3,372.401,M,-35.774,M,4.3,0100*63
$GPGGA,094209.20,3422.49751830,N,10853.89291325,E,2,08,1.3,372.401,M,-35.774,M,4.4,0100*60
$GPGGA,094209.30,3422.49742725,N,10853.89259547,E,2,08,1.3,372.412,M,-35.774,M,4.5,0100*6D
$GPGGA,094209.40,3422.49733629,N,10853.89227661,E,2,08,1.3,372.409,M,-35.774,M,4.6,0100*66
$GPGGA,094209.50,3422.49724600,N,10853.89195075,E,2,08,1.3,372.398,M,-35.774,M,4.7,0100*6D
$GPGGA,094209.60,3422.49715416,N,10853.89162091,E,2,08,1.3,372.404,M,-35.774,M,4.8,0100*66
$GPGGA,094209.70,3422.49706414,N,10853.89129021,E,2,08,1.3,372.400,M,-35.774,M,4.9,0100*66
$GPGGA,094209.80,3422.49697110,N,10853.89095558,E,2,08,1.3,372.405,M,-35.774,M,5.0,0100*61
$GPGGA,094209.90,3422.49687570,N,10853.89061148,E,2,08,1.3,372.395,M,-35.774,M,5.1,0100*62
$GPGGA,094210.00,3422.49677943,N,10853.89027024,E,2,08,1.3,372.399,M,-35.774,M,5.2,0100*66
$GPGGA,094210.10,3422.49668271,N,10853.88991996,E,2,08,1.3,372.404,M,-35.774,M,5.3,0100*64
$GPGGA,094210.20,3422.49658470,N,10853.88956465,E,2,08,1.3,372.381,M,-35.774,M,5.4,0100*64
$GPGGA,094210.30,3422.49648642,N,10853.88920933,E,2,08,1.3,372.394,M,-35.774,M,5.5,0100*6D
$GPGGA,094210.40,3422.49638901,N,10853.88885450,E,2,08,1.3,372.398,M,-35.774,M,5.6,0100*6C
$GPGGA,094210.50,3422.49629176,N,10853.88849691,E,2,08,1.3,372.390,M,-35.774,M,5.7,0100*63
$GPGGA,094210.60,3422.49619427,N,10853.88813496,E,2,08,1.3,372.380,M,-35.774,M,5.8,0100*66
$GPGGA,094210.70,3422.49609396,N,10853.88778530,E,2,08,1.3,372.387,M,-35.774,M,5.9,0100*62
$GPGGA,094210.80,3422.49599389,N,10853.88742997,E,2,08,1.3,372.380,M,-35.774,M,6.0,0100*6C
$GPGGA,094210.90,3422.49589944,N,10853.88707800,E,2,08,1.3,372.395,M,-35.774,M,6.1,0100*6C
$GPGGA,094211.00,3422.49580611,N,10853.88673591,E,2,08,1.3,372.379,M,-35.774,M,6.2,0100*64
$GPGGA,094211.10,3422.49571332,N,10853.88639215,E,2,08,1.3,372.379,M,-35.774,M,6.3,0100*6B
$GPGGA,094211.20,3422.49561792,N,10853.88604727,E,2,08,1.3,372.372,M,-35.774,M,6.4,0100*61
$GPGGA,094211.30,3422.49552530,N,10853.88570737,E,2,08,1.3,372.376,M,-35.774,M,6.5,0100*6E
$GPGGA,094211.40,3422.49543245,N,10853.88537680,E,2,08,1.3,372.369,M,-35.774,M,6.6,0100*6F
$GPGGA,094211.50,3422.49534024,N,10853.88504789,E,2,08,1.3,372.379,M,-35.774,M,6.7,0100*63
$GPGGA,094211.60,3422.49525115,N,10853.88471083,E,2,08,1.3,372.357,M,-35.774,M,6.8,0100*6E
$GPGGA,094211.70,3422.49516078,N,10853.88438559,E,2,08,1.3,372.366,M,-35.774,M,6.9,0100*69
$GPGGA,094211.80,3422.49507445,N,10853.88406305,E,2,08,1.3,372.360,M,-35.774,M,7.0,0100*60
$GPGGA,094211.90,3422.49498533,N,10853.88374157,E,2,08,1.3,372.364,M,-35.774,M,7.1,0100*64
$GPGGA,094212.00,3422.49489758,N,10853.88342759,E,2,08,1.3,372.363,M,-35.774,M,7.2,0100*68
$GPGGA,094212.10,3422.49481619,N,10853.88311041,E,2,08,1.3,372.344,M,-35.774,M,7.3,0100*69
$GPGGA,094212.20,3422.49472769,N,10853.88280150,E,2,08,1.3,372.351,M,-35.774,M,7.4,0100*6B
$GPGGA,094212.30,3422.49464605,N,10853.88249329,E,2,08,1.3,372.347,M,-35.774,M,7.5,0100*69
$GPGGA,094212.40,3422.49456346,N,10853.88218885,E,2,08,1.3,372.355,M,-35.774,M,7.6,0100*64
$GPGGA,094212.50,3422.49448452,N,10853.88188432,E,2,08,1.3,372.346,M,-35.774,M,7.7,0100*61
$GPGGA,094212.60,3422.49440405,N,10853.88158757,E,2,08,1.3,372.348,M,-35.774,M,7.8,0100*64
$GPGGA,094212.70,3422.49432674,N,10853.88129230,E,2,08,1.3,372.333,M,-35.774,M,7.9,0100*6B
$GPGGA,094212.80,3422.49424880,N,10853.88099977,E,2,08,1.3,372.342,M,-35.774,M,8.0,0100*64
$GPGGA,094212.90,3422.49417055,N,10853.88071556,E,2,08,1.3,372.341,M,-35.774,M,8.1,0100*6E
$GPGGA,094213.00,3422.49409381,N,10853.88041852,E,2,08,1.3,372.327,M,-35.774,M,8.2,0100*6A
$GPGGA,094213.10,3422.49401796,N,10853.88013180,E,2,08,1.3,372.337,M,-35.774,M,8.3,0100*60
$GPGGA,094213.20,3422.49394187,N,10853.87983720,E,2,08,1.3,372.333,M,-35.774,M,8.4,0100*6E
$GPGGA,094213.30,3422.49386430,N,10853.87954481,E,2,08,1.3,372.328,M,-35.774,M,8.5,0100*6C
$GPGGA,094213.40,3422.49378753,N,10853.87925800,E,2,08,1.3,372.328,M,-35.774,M,8.6,0100*6C
$GPGGA,094213.50,3422.49371334,N,10853.87896547,E,2,08,1.3,372.332,M,-35.774,M,8.7,0100*6C
$GPGGA,094213.60,3422.49363738,N,10853.87868020,E,2,08,1.3,372.324,M,-35.774,M,8.8,0100*69
$GPGGA,094213.70,3422.49356319,N,10853.87839697,E,2,08,1.3,372.328,M,-35.774,M,8.9,0100*6A
$GPGGA,094213.80,3422.49349013,N,10853.87810794,E,2,08,1.3,372.328,M,-35.774,M,9.0,0100*63
$GPGGA,094213.90,3422.49341651,N,10853.87781804,E,2,08,1.3,372.326,M,-35.774,M,9.1,0100*64
$GPGGA,094214.00,3422.49334250,N,10853.87753812,E,2,08,1.3,372.324,M,-35.774,M,9.2,0100*64
$GPGGA,094214.10,3422.49326760,N,10853.87725320,E,2,08,1.3,372.324,M,-35.774,M,9.3,0100*6A
$GPGGA,094214.20,3422.49319457,N,10853.87696672,E,2,08,1.3,372.313,M,-35.774,M,9.4,0100*6A
$GPGGA,094214.30,3422.49312615,N,10853.87668511,E,2,08,1.3,372.319,M,-35.774,M,9.5,0100*68
$GPGGA,094214.40,3422.49305077,N,10853.87640196,E,2,08,1.3,372.332,M,-35.774,M,9.6,0100*60
$GPGGA,094214.50,3422.49298047,N,10853.87611917,E,2,08,1.3,372.314,M,-35.774,M,9.7,0100*67
$GPGGA,094214.60,3422.49290833,N,10853.87584106,E,2,08,1.3,372.315,M,-35.774,M,9.8,0100*6E
$GPGGA,094214.70,3422.49283905,N,10853.87555875,E,2,08,1.3,372.310,M,-35.774,M,9.9,0100*6C
$GPGGA,094214.80,3422.49276788,N,10853.87528691,E,2,08,1.3,372.328,M,-35.774,M,10.0,0100*56
$GPGGA,094214.90,3422.49269873,N,10853.87500339,E,2,08,1.3,372.319,M,-35.774,M,10.1,0100*5C
$GPGGA,094215.00,3422.49263245,N,10853.87472941,E,2,08,1.3,372.297,M,-35.774,M,10.2,0100*54
$GPGGA,094215.10,3422.49255922,N,10853.87445955,E,2,08,1.3,372.311,M,-35.774,M,10.3,0100*55
$GPGGA,094215.20,3422.49249185,N,10853.87418797,E,2,08,1.3,372.304,M,-35.774,M,10.4,0100*55
$GPGGA,094215.30,3422.49242532,N,10853.87391355,E,2,08,1.3,372.299,M,-35.774,M,10.5,0100*5F
$GPGGA,094215.40,3422.49235662,N,10853.87364294,E,2,08,1.3,372.299,M,-35.774,M,10.6,0100*5B
$GPGGA,094215.50,3422.49228298,N,10853.87337472,E,2,08,1.3,372.300,M,-35.774,M,10.7,0100*5F
$GPGGA,094215.60,3422.49221710,N,10853.87310161,E,2,08,1.3,372.301,M,-35.774,M,10.8,0100*5C
$GPGGA,094215.70,3422.49215060,N,10853.87283540,E,2,08,1.3,372.293,M,-35.774,M,10.9,0100*5D
$GPGGA,094215.80,3422.49207907,N,10853.87256982,E,2,08,1.3,372.287,M,-35.774,M,11.0,0100*5E
$GPGGA,094215.90,3422.49201462,N,10853.87230549,E,2,08,1.3,372.289,M,-35.774,M,11.1,0100*53
$GPGGA,094216.00,3422.49194404,N,10853.87203385,E,2,08,1.3,372.271,M,-35.774,M,4.8,0100*6A
$GPGGA,094216.10,3422.49187820,N,10853.87176717,E,2,08,1.3,372.277,M,-35.774,M,4.9,0100*6A
$GPGGA,094216.20,3422.49181418,N,10853.87151729,E,2,08,1.3,372.338,M,-35.774,M,5.0,0100*62
$GPGGA,094216.30,3422.49174604,N,10853.87124822,E,2,08,1.3,372.324,M,-35.774,M,5.1,0100*6C
$GPGGA,094216.40,3422.49167600,N,10853.87098445,E,2,08,1.3,372.331,M,-35.774,M,5.2,0100*61
$GPGGA,094216.50,3422.49161347,N,10853.87072234,E,2,08,1.3,372.313,M,-35.774,M,5.3,0100*65
$GPGGA,094216.60,3422.49154416,N,10853.87045884,E,2,08,1.3,372.326,M,-35.774,M,5.4,0100*67
$GPGGA,094216.70,3422.49147620,N,10853.87019439,E,2,08,1.3,372.332,M,-35.774,M,5.5,0100*64
$GPGGA,094216.80,3422.49140959,N,10853.86993281,E,2,08,1.3,372.331,M,-35.774,M,5.6,0100*62
$GPGGA,094216.90,3422.49134504,N,10853.86966656,E,2,08,1.3,372.319,M,-35.774,M,5.7,0100*6B
$GPGGA,094217.00,3422.49127518,N,10853.86940812,E,2,08,1.3,372.322,M,-35.774,M,5.8,0100*61
$GPGGA,094217.10,3422.49120990,N,10853.86914447,E,2,08,1.3,372.317,M,-35.774,M,5.9,0100*61
$GPGGA,094217.20,3422.49114231,N,10853.86888135,E,2,08,1.3,372.312,M,-35.774,M,6.0,0100*6E
$GPGGA,094217.30,3422.49107608,N,10853.86861354,E,2,08,1.3,372.312,M,-35.774,M,6.1,0100*60
$GPGGA,094217.40,3422.49100900,N,10853.86834671,E,2,08,1.3,372.301,M,-35.774,M,6.2,0100*64
$GPGGA,094217.50,3422.49094047,N,10853.86807550,E,2,08,1.3,372.305,M,-35.774,M,6.3,0100*66
$GPGGA,094217.60,3422.49086922,N,10853.86780427,E,2,08,1.3,372.324,M,-35.774,M,6.4,0100*69
$GPGGA,094217.70,3422.49080176,N,10853.86752750,E,2,08,1.3,372.323,M,-35.774,M,6.5,0100*6D
$GPGGA,094217.80,3422.49073128,N,10853.86724774,E,2,08,1.3,372.332,M,-35.774,M,6.6,0100*61
$GPGGA,094217.90,3422.49066068,N,10853.86696663,E,2,08,1.3,372.334,M,-35.774,M,6.7,0100*69
$GPGGA,094218.00,3422.49058836,N,10853.86668493,E,2,08,1.3,372.325,M,-35.774,M,6.8,0100*62
$GPGGA,094218.10,3422.49051415,N,10853.86639961,E,2,08,1.3,372.334,M,-35.774,M,6.9,0100*62
$GPGGA,094218.20,3422.49044433,N,10853.86610456,E,2,08,1.3,372.327,M,-35.774,M,7.0,0100*69
$GPGGA,094218.30,3422.49037008,N,10853.86581991,E,2,08,1.3,372.337,M,-35.774,M,7.1,0100*6D
$GPGGA,094218.40,3422.49029903,N,10853.86552872,E,2,08,1.3,372.315,M,-35.774,M,7.2,0100*66
$GPGGA,094218.50,3422.49022597,N,10853.86524455,E,2,08,1.3,372.321,M,-35.774,M,7.3,0100*63
$GPGGA,094218.60,3422.49015280,N,10853.86495579,E,2,08,1.3,372.335,M,-35.774,M,7.4,0100*63
$GPGGA,094218.70,3422.49007968,N,10853.86467356,E,2,08,1.3,372.319,M,-35.774,M,7.5,0100*65
$GPGGA,094218.80,3422.49000561,N,10853.86438441,E,2,08,1.3,372.330,M,-35.774,M,7.6,0100*6B
$GPGGA,094218.90,3422.48993709,N,10853.86409653,E,2,08,1.3,372.312,M,-35.774,M,7.7,0100*66
$GPGGA,094219.00,3422.48986391,N,10853.86380926,E,2,08,1.3,372.312,M,-35.774,M,7.8,0100*6B
$GPGGA,094219.10,3422.48978924,N,10853.86352551,E,2,08,1.3,372.335,M,-35.774,M,7.9,0100*68
$GPGGA,094219.20,3422.48971579,N,10853.86323345,E,2,08,1.3,372.325,M,-35.774,M,8.0,0100*64
$GPGGA,094219.30,3422.48964279,N,10853.86293668,E,2,08,1.3,372.318,M,-35.774,M,8.1,0100*69
$GPGGA,094219.40,3422.48956671,N,10853.86263575,E,2,08,1.3,372.304,M,-35.774,M,8.2,0100*6D
$GPGGA,094219.50,3422.48948966,N,10853.86233244,E,2,08,1.3,372.304,M,-35.774,M,8.3,0100*6B
$GPGGA,094219.60,3422.48941031,N,10853.86201865,E,2,08,1.3,372.308,M,-35.774,M,8.4,0100*69
$GPGGA,094219.70,3422.48932620,N,10853.86169429,E,2,08,1.3,372.307,M,-35.774,M,8.5,0100*6D
$GPGGA,094219.80,3422.48924780,N,10853.86136617,E,2,08,1.3,372.302,M,-35.774,M,8.6,0100*6D
$GPGGA,094219.90,3422.48916476,N,10853.86104388,E,2,08,1.3,372.335,M,-35.774,M,8.7,0100*60
$GPGGA,094220.00,3422.48907758,N,10853.86070766,E,2,08,1.3,372.313,M,-35.774,M,8.8,0100*61
$GPGGA,094220.10,3422.48899457,N,10853.86037302,E,2,08,1.3,372.307,M,-35.774,M,8.9,0100*6B
$GPGGA,094220.20,3422.48891331,N,10853.86003688,E,2,08,1.3,372.304,M,-35.774,M,9.0,0100*6C
$GPGGA,094220.30,3422.48882676,N,10853.85970272,E,2,08,1.3,372.303,M,-35.774,M,9.1,0100*60
$GPGGA,094220.40,3422.48874081,N,10853.85936657,E,2,08,1.3,372.317,M,-35.774,M,9.2,0100*67
$GPGGA,094220.50,3422.48865837,N,10853.85902713,E,2,08,1.3,372.310,M,-35.774,M,9.3,0100*63
$GPGGA,094220.60,3422.48857532,N,10853.85870013,E,2,08,1.3,372.314,M,-35.774,M,9.4,0100*69
$GPGGA,094220.70,3422.48849356,N,10853.85837312,E,2,08,1.3,372.299,M,-35.774,M,9.5,0100*67
$GPGGA,094220.80,3422.48840948,N,10853.85804399,E,2,08,1.3,372.302,M,-35.774,M,9.6,0100*67
$GPGGA,094220.90,3422.48832890,N,10853.85771912,E,2,08,1.3,372.298,M,-35.774,M,9.7,0100*60
$GPGGA,094221.00,3422.48824450,N,10853.85739843,E,2,08,1.3,372.302,M,-35.774,M,9.8,0100*6B
$GPGGA,094221.10,3422.48816141,N,10853.85706843,E,2,08,1.3,372.283,M,-35.774,M,9.9,0100*6B
$GPGGA,094221.20,3422.48807892,N,10853.85674107,E,2,08,1.3,372.315,M,-35.774,M,10.0,0100*5D
$GPGGA,094221.30,3422.48799222,N,10853.85640801,E,2,08,1.3,372.310,M,-35.774,M,10.1,0100*59
$GPGGA,094221.40,3422.48790889,N,10853.85606490,E,2,08,1.3,372.287,M,-35.774,M,10.2,0100*56
$GPGGA,094221.50,3422.48781902,N,10853.85572026,E,2,08,1.3,372.288,M,-35.774,M,10.3,0100*52
$GPGGA,094221.60,3422.48773362,N,10853.85536815,E,2,08,1.3,372.276,M,-35.774,M,10.4,0100*5E
$GPGGA,094221.70,3422.48763767,N,10853.85500683,E,2,08,1.3,372.299,M,-35.774,M,10.5,0100*5B
$GPGGA,094221.80,3422.48754241,N,10853.85463214,E,2,08,1.3,372.290,M,-35.774,M,10.6,0100*55
$GPGGA,094221.90,3422.48745020,N,10853.85425319,E,2,08,1.3,372.287,M,-35.774,M,10.7,0100*58
$GPGGA,094222.00,3422.48735302,N,10853.85387653,E,2,08,1.3,372.290,M,-35.774,M,10.8,0100*5B
$GPGGA,094222.10,3422.48725935,N,10853.85348982,E,2,08,1.3,372.273,M,-35.774,M,10.9,0100*59
$GPGGA,094222.20,3422.48715645,N,10853.85310384,E,2,08,1.3,372.287,M,-35.774,M,11.0,0100*53
$GPGGA,094222.30,3422.48705953,N,10853.85271689,E,2,08,1.3,372.289,M,-35.774,M,11.1,0100*5A
$GPGGA,094222.40,3422.48696297,N,10853.85232085,E,2,08,1.3,372.286,M,-35.774,M,11.2,0100*54
$GPGGA,094222.50,3422.48686066,N,10853.85193124,E,2,08,1.3,372.277,M,-35.774,M,11.3,0100*55
$GPGGA,094222.60,3422.48676166,N,10853.85154242,E,2,08,1.3,372.283,M,-35.774,M,11.4,0100*5C
$GPGGA,094222.70,3422.48666334,N,10853.85115142,E,2,08,1.3,372.288,M,-35.774,M,11.5,0100*55
$GPGGA,094222.80,3422.48656832,N,10853.85075311,E,2,08,1.3,372.273,M,-35.774,M,11.6,0100*50
$GPGGA,094222.90,3422.48646853,N,10853.85036479,E,2,08,1.3,372.280,M,-35.774,M,11.7,0100*54
$GPGGA,094223.00,3422.48636357,N,10853.84997561,E,2,08,1.3,372.278,M,-35.774,M,11.8,0100*57
$GPGGA,094223.10,3422.48626980,N,10853.84958028,E,2,08,1.3,372.274,M,-35.774,M,11.9,0100*51
$GPGGA,094223.20,3422.48616696,N,10853.84919683,E,2,08,1.3,372.271,M,-35.774,M,12.0,0100*54
$GPGGA,094223.30,3422.48606830,N,10853.84880513,E,2,08,1.3,372.275,M,-35.774,M,12.1,0100*58
$GPGGA,094223.40,3422.48597068,N,10853.84841172,E,2,08,1.3,372.255,M,-35.774,M,12.2,0100*5E
$GPGGA,094223.50,3422.48586826,N,10853.84802890,E,2,08,1.3,372.272,M,-35.774,M,12.3,0100*5B
$GPGGA,094223.60,3422.48577290,N,10853.84764435,E,2,08,1.3,372.270,M,-35.774,M,12.4,0100*58
$GPGGA,094223.70,3422.48567442,N,10853.84726356,E,2,08,1.3,372.265,M,-35.774,M,12.5,0100*50
$GPGGA,094223.80,3422.48558547,N,10853.84688033,E,2,08,1.3,372.259,M,-35.774,M,12.6,0100*5E
$GPGGA,094223.90,3422.48548215,N,10853.84651560,E,2,08,1.3,372.277,M,-35.774,M,12.7,0100*54
$GPGGA,094224.00,3422.48539071,N,10853.84613552,E,2,08,1.3,372.257,M,-35.774,M,3.6,0100*68
$GPGGA,094224.10,3422.48529536,N,10853.84576782,E,2,08,1.3,372.264,M,-35.774,M,3.7,0100*60
$GPGGA,094224.20,3422.48519727,N,10853.84543215,E,2,08,1.3,372.318,M,-35.774,M,3.8,0100*6A
$GPGGA,094224.30,3422.48510213,N,10853.84506090,E,2,08,1.3,372.322,M,-35.774,M,3.9,0100*66
$GPGGA,094224.40,3422.48501301,N,10853.84469604,E,2,08,1.3,372.325,M,-35.774,M,4.0,0100*69
$GPGGA,094224.50,3422.48491414,N,10853.84433700,E,2,08,1.3,372.341,M,-35.774,M,4.1,0100*6A
$GPGGA,094224.60,3422.48483122,N,10853.84397109,E,2,08,1.3,372.303,M,-35.774,M,4.2,0100*69
$GPGGA,094224.70,3422.48473174,N,10853.84362002,E,2,08,1.3,372.328,M,-35.774,M,4.3,0100*6C
$GPGGA,094224.80,3422.48463944,N,10853.84326297,E,2,08,1.3,372.329,M,-35.774,M,4.4,0100*61
$GPGGA,094224.90,3422.48454910,N,10853.84289896,E,2,08,1.3,372.335,M,-35.774,M,4.5,0100*66
$GPGGA,094225.00,3422.48488639,N,10853.84253889,E,2,08,1.3,370.114,M,-35.774,M,4.6,0100*62
$GPGGA,094225.10,3422.48479707,N,10853.84218180,E,2,08,1.3,370.079,M,-35.774,M,4.7,0100*65
$GPGGA,094225.20,3422.48467150,N,10853.84183140,E,2,08,1.3,370.288,M,-35.774,M,4.8,0100*63
$GPGGA,094225.30,3422.48458191,N,10853.84147302,E,2,08,1.3,370.240,M,-35.774,M,4.9,0100*6A
$GPGGA,094225.40,3422.48427497,N,10853.84112056,E,2,08,1.3,371.377,M,-35.774,M,5.0,0100*68
$GPGGA,094225.50,3422.48418744,N,10853.84075684,E,2,08,1.3,371.366,M,-35.774,M,5.1,0100*60
$GPGGA,094225.60,3422.48407284,N,10853.84040343,E,2,08,1.3,371.466,M,-35.774,M,5.2,0100*68
$GPGGA,094225.70,3422.48398329,N,10853.84005223,E,2,08,1.3,371.461,M,-35.774,M,5.3,0100*6E
$GPGGA,094225.80,3422.48396064,N,10853.83969596,E,2,08,1.3,371.104,M,-35.774,M,5.4,0100*69
$GPGGA,094225.90,3422.48385954,N,10853.83934204,E,2,08,1.3,371.165,M,-35.774,M,5.5,0100*62
$GPGGA,094226.00,3422.48395382,N,10853.83898643,E,2,08,1.3,370.184,M,-35.774,M,5.6,0100*65
$GPGGA,094226.10,3422.48387351,N,10853.83863773,E,2,08,1.3,370.160,M,-35.774,M,5.7,0100*64
$GPGGA,094226.20,3422.48374315,N,10853.83828806,E,2,08,1.3,370.352,M,-35.774,M,5.8,0100*65
$GPGGA,094226.30,3422.48365262,N,10853.83793596,E,2,08,1.3,370.363,M,-35.774,M,5.9,0100*6D
$GPGGA,094226.40,3422.48343569,N,10853.83758490,E,2,08,1.3,371.016,M,-35.774,M,6.0,0100*68
$GPGGA,094226.50,3422.48334656,N,10853.83723881,E,2,08,1.3,371.009,M,-35.774,M,6.1,0100*69
$GPGGA,094226.60,3422.48346385,N,10853.83689360,E,2,08,1.3,369.929,M,-35.774,M,6.2,0100*60
$GPGGA,094226.70,3422.48337589,N,10853.83654383,E,2,08,1.3,369.923,M,-35.774,M,6.3,0100*6B
$GPGGA,094226.80,3422.48328800,N,10853.83620544,E,2,08,1.3,369.916,M,-35.774,M,6.4,0100*69
$GPGGA,094226.90,3422.48319750,N,10853.83585582,E,2,08,1.3,369.917,M,-35.774,M,6.5,0100*66
$GPGGA,094227.00,3422.48292743,N,10853.83552768,E,2,08,1.3,370.865,M,-35.774,M,6.6,0100*6D
$GPGGA,094227.10,3422.48283876,N,10853.83518794,E,2,08,1.3,370.891,M,-35.774,M,6.7,0100*62
$GPGGA,094227.20,3422.48299590,N,10853.83485260,E,2,08,1.3,369.602,M,-35.774,M,6.8,0100*67
$GPGGA,094227.30,3422.48290975,N,10853.83452546,E,2,08,1.3,369.625,M,-35.774,M,6.9,0100*65
$GPGGA,094227.40,3422.48282868,N,10853.83419592,E,2,08,1.3,369.606,M,-35.774,M,7.0,0100*63
$GPGGA,094227.50,3422.48274571,N,10853.83387231,E,2,08,1.3,369.602,M,-35.774,M,7.1,0100*65
$GPGGA,094227.60,3422.48265912,N,10853.83354665,E,2,08,1.3,369.620,M,-35.774,M,7.2,0100*67
$GPGGA,094227.70,3422.48256998,N,10853.83323152,E,2,08,1.3,369.648,M,-35.774,M,7.3,0100*68
$GPGGA,094227.80,3422.48221396,N,10853.83291294,E,2,08,1.3,371.071,M,-35.774,M,7.4,0100*60
$GPGGA,094227.90,3422.48211862,N,10853.83259974,E,2,08,1.3,371.138,M,-35.774,M,7.5,0100*6E
$GPGGA,094228.00,3422.48206592,N,10853.83228605,E,2,08,1.3,370.994,M,-35.774,M,7.6,0100*6F
$GPGGA,094228.10,3422.48199959,N,10853.83197605,E,2,08,1.3,370.925,M,-35.774,M,7.7,0100*6C
$GPGGA,094228.20,3422.48211270,N,10853.83166932,E,2,08,1.3,369.906,M,-35.774,M,7.8,0100*6F
$GPGGA,094228.30,3422.48203450,N,10853.83135858,E,2,08,1.3,369.907,M,-35.774,M,7.9,0100*62
$GPGGA,094228.40,3422.48169016,N,10853.83106234,E,2,08,1.3,371.285,M,-35.774,M,8.0,0100*62
$GPGGA,094228.50,3422.48161724,N,10853.83076148,E,2,08,1.3,371.270,M,-35.774,M,8.1,0100*68
$GPGGA,094228.60,3422.48153661,N,10853.83047969,E,2,08,1.3,371.288,M,-35.774,M,8.2,0100*67
$GPGGA,094228.70,3422.48146614,N,10853.83017358,E,2,08,1.3,371.259,M,-35.774,M,8.3,0100*60
$GPGGA,094228.80,3422.48168283,N,10853.82988036,E,2,08,1.3,369.741,M,-35.774,M,8.4,0100*6E
$GPGGA,094228.90,3422.48160819,N,10853.82959292,E,2,08,1.3,369.735,M,-35.774,M,8.5,0100*6C
$GPGGA,094229.00,3422.48132780,N,10853.82931310,E,2,08,1.3,370.796,M,-35.774,M,8.6,0100*6B
$GPGGA,094229.10,3422.48125614,N,10853.82903165,E,2,08,1.3,370.779,M,-35.774,M,8.7,0100*61
$GPGGA,094229.20,3422.48136568,N,10853.82875205,E,2,08,1.3,369.850,M,-35.774,M,8.8,0100*6E
$GPGGA,094229.30,3422.48129746,N,10853.82847039,E,2,08,1.3,369.817,M,-35.774,M,8.9,0100*61
$GPGGA,094229.40,3422.48112261,N,10853.82820667,E,2,08,1.3,370.356,M,-35.774,M,9.0,0100*6C
$GPGGA,094229.50,3422.48105770,N,10853.82792922,E,2,08,1.3,370.316,M,-35.774,M,9.1,0100*63
$GPGGA,094229.60,3422.48101041,N,10853.82766625,E,2,08,1.3,370.203,M,-35.774,M,9.2,0100*64
$GPGGA,094229.70,3422.48093855,N,10853.82739360,E,2,08,1.3,370.194,M,-35.774,M,9.3,0100*60
$GPGGA,094229.80,3422.48056338,N,10853.82712117,E,2,08,1.3,371.794,M,-35.774,M,9.4,0100*6D
$GPGGA,094229.90,3422.48048866,N,10853.82684991,E,2,08,1.3,371.812,M,-35.774,M,9.5,0100*6B
$GPGGA,094230.00,3422.48072980,N,10853.82657189,E,2,08,1.3,370.171,M,-35.774,M,9.6,0100*6B
$GPGGA,094230.10,3422.48065957,N,10853.82630291,E,2,08,1.3,370.181,M,-35.774,M,9.7,0100*63
$GPGGA,094230.20,3422.48034009,N,10853.82603490,E,2,08,1.3,371.475,M,-35.774,M,9.8,0100*61
$GPGGA,094230.30,3422.48026830,N,10853.82576076,E,2,08,1.3,371.465,M,-35.774,M,9.9,0100*6C
$GPGGA,094230.40,3422.48046025,N,10853.82548491,E,2,08,1.3,370.111,M,-35.774,M,10.0,0100*57
$GPGGA,094230.50,3422.48038610,N,10853.82521210,E,2,08,1.3,370.138,M,-35.774,M,10.1,0100*55
$GPGGA,094230.60,3422.48027060,N,10853.82494805,E,2,08,1.3,370.356,M,-35.774,M,10.2,0100*51
$GPGGA,094230.70,3422.48020677,N,10853.82466190,E,2,08,1.3,370.353,M,-35.774,M,10.3,0100*5B
$GPGGA,094230.80,3422.47977166,N,10853.82439779,E,2,08,1.3,372.213,M,-35.774,M,10.4,0100*5C
$GPGGA,094230.90,3422.47970078,N,10853.82412718,E,2,08,1.3,372.241,M,-35.774,M,10.5,0100*5C
$GPGGA,094231.00,3422.47971933,N,10853.82384600,E,2,08,1.3,371.771,M,-35.774,M,10.6,0100*55
$GPGGA,094231.10,3422.47965002,N,10853.82357082,E,2,08,1.3,371.777,M,-35.774,M,10.7,0100*5F
$GPGGA,094231.20,3422.47966404,N,10853.82329615,E,2,08,1.3,371.358,M,-35.774,M,10.8,0100*5A
$GPGGA,094231.30,3422.47958857,N,10853.82302196,E,2,08,1.3,371.399,M,-35.774,M,10.9,0100*55
$GPGGA,094231.40,3422.47976593,N,10853.82274307,E,2,08,1.3,370.125,M,-35.774,M,11.0,0100*5D
$GPGGA,094231.50,3422.47970410,N,10853.82246685,E,2,08,1.3,370.086,M,-35.774,M,11.1,0100*57
$GPGGA,094231.60,3422.47961518,N,10853.82219362,E,2,08,1.3,370.192,M,-35.774,M,11.2,0100*5C
$GPGGA,094231.70,3422.47953886,N,10853.82191570,E,2,08,1.3,370.216,M,-35.774,M,11.3,0100*5E
$GPGGA,094231.80,3422.47925037,N,10853.82163941,E,2,08,1.3,371.372,M,-35.774,M,11.4,0100*54
$GPGGA,094231.90,3422.47917741,N,10853.82136447,E,2,08,1.3,371.381,M,-35.774,M,11.5,0100*54
$GPGGA,094232.00,3422.47929264,N,10853.82108464,E,2,08,1.3,370.421,M,-35.774,M,5.2,0100*63
$GPGGA,094232.10,3422.47922277,N,10853.82080213,E,2,08,1.3,370.429,M,-35.774,M,5.3,0100*65
$GPGGA,094232.20,3422.47872158,N,10853.82052582,E,2,08,1.3,372.666,M,-35.774,M,5.4,0100*60
$GPGGA,094232.30,3422.47864428,N,10853.82024846,E,2,08,1.3,372.699,M,-35.774,M,5.5,0100*61
$GPGGA,094232.40,3422.47910638,N,10853.81996809,E,2,08,1.3,369.938,M,-35.774,M,5.6,0100*62
$GPGGA,094232.50,3422.47904239,N,10853.81968159,E,2,08,1.3,369.892,M,-35.774,M,5.7,0100*6E
$GPGGA,094232.60,3422.47900627,N,10853.81940188,E,2,08,1.3,369.735,M,-35.774,M,5.8,0100*69
$GPGGA,094232.70,3422.47893559,N,10853.81912492,E,2,08,1.3,369.734,M,-35.774,M,5.9,0100*60
$GPGGA,094232.80,3422.47884119,N,10853.81884374,E,2,08,1.3,369.857,M,-35.774,M,6.0,0100*68
$GPGGA,094232.90,3422.47877435,N,10853.81855957,E,2,08,1.3,369.829,M,-35.774,M,6.1,0100*61
$GPGGA,094233.00,3422.47865492,N,10853.81828181,E,2,08,1.3,370.082,M,-35.774,M,6.2,0100*6C
$GPGGA,094233.10,3422.47857965,N,10853.81799632,E,2,08,1.3,370.104,M,-35.774,M,6.3,0100*6D
$GPGGA,094233.20,3422.47856414,N,10853.81771530,E,2,08,1.3,369.819,M,-35.774,M,6.4,0100*69
$GPGGA,094233.30,3422.47849653,N,10853.81742992,E,2,08,1.3,369.787,M,-35.774,M,6.5,0100*6A
$GPGGA,094233.40,3422.47794852,N,10853.81715180,E,2,08,1.3,372.280,M,-35.774,M,6.6,0100*6F
$GPGGA,094233.50,3422.47787113,N,10853.81686759,E,2,08,1.3,372.294,M,-35.774,M,6.7,0100*6D
$GPGGA,094233.60,3422.47779414,N,10853.81658746,E,2,08,1.3,372.330,M,-35.774,M,6.8,0100*60
$GPGGA,094233.70,3422.47771071,N,10853.81630672,E,2,08,1.3,372.385,M,-35.774,M,6.9,0100*69
$GPGGA,094233.80,3422.47805119,N,10853.81601420,E,2,08,1.3,370.243,M,-35.774,M,7.0,0100*63
$GPGGA,094233.90,3422.47797827,N,10853.81573157,E,2,08,1.3,370.252,M,-35.774,M,7.1,0100*60
$GPGGA,094234.00,3422.47796541,N,10853.81544773,E,2,08,1.3,369.947,M,-35.774,M,7.2,0100*62
$GPGGA,094234.10,3422.47789593,N,10853.81515814,E,2,08,1.3,369.921,M,-35.774,M,7.3,0100*69
$GPGGA,094234.20,3422.47779071,N,10853.81487177,E,2,08,1.3,370.096,M,-35.774,M,7.4,0100*60
$GPGGA,094234.30,3422.47771764,N,10853.81458481,E,2,08,1.3,370.107,M,-35.774,M,7.5,0100*6C
$GPGGA,094234.40,3422.47773630,N,10853.81429774,E,2,08,1.3,369.625,M,-35.774,M,7.6,0100*6A
$GPGGA,094234.50,3422.47766133,N,10853.81400253,E,2,08,1.3,369.622,M,-35.774,M,7.7,0100*66
$GPGGA,094234.60,3422.47758230,N,10853.81370863,E,2,08,1.3,369.642,M,-35.774,M,7.8,0100*68
$GPGGA,094234.70,3422.47751537,N,10853.81341728,E,2,08,1.3,369.628,M,-35.774,M,7.9,0100*6F
$GPGGA,094234.80,3422.47743389,N,10853.81312254,E,2,08,1.3,369.646,M,-35.774,M,8.0,0100*66
$GPGGA,094234.90,3422.47735994,N,10853.81282269,E,2,08,1.3,369.641,M,-35.774,M,8.1,0100*60
$GPGGA,094235.00,3422.47728596,N,10853.81252522,E,2,08,1.3,369.631,M,-35.774,M,8.2,0100*6B
$GPGGA,094235.10,3422.47720821,N,10853.81222282,E,2,08,1.3,369.640,M,-35.774,M,8.3,0100*6E
$GPGGA,094235.20,3422.47713413,N,10853.81191883,E,2,08,1.3,369.626,M,-35.774,M,8.4,0100*67
$GPGGA,094235.30,3422.47705682,N,10853.81160885,E,2,08,1.3,369.613,M,-35.774,M,8.5,0100*64
$GPGGA,094235.40,3422.47693802,N,10853.81129742,E,2,08,1.3,369.846,M,-35.774,M,8.6,0100*6F
$GPGGA,094235.50,3422.47686245,N,10853.81098324,E,2,08,1.3,369.843,M,-35.774,M,8.7,0100*68
$GPGGA,094235.60,3422.47681362,N,10853.81067043,E,2,08,1.3,369.686,M,-35.774,M,8.8,0100*62
$GPGGA,094235.70,3422.47673542,N,10853.81035566,E,2,08,1.3,369.712,M,-35.774,M,8.9,0100*62
$GPGGA,094235.80,3422.47666895,N,10853.81003556,E,2,08,1.3,369.665,M,-35.774,M,9.0,0100*61
$GPGGA,094235.90,3422.47659177,N,10853.80972261,E,2,08,1.3,369.680,M,-35.774,M,9.1,0100*6E
$GPGGA,094236.00,3422.47651514,N,10853.80940509,E,2,08,1.3,369.683,M,-35.774,M,9.2,0100*65
$GPGGA,094236.10,3422.47644451,N,10853.80908885,E,2,08,1.3,369.683,M,-35.774,M,9.3,0100*64
$GPGGA,094236.20,3422.47637376,N,10853.80877120,E,2,08,1.3,369.672,M,-35.774,M,9.4,0100*67
$GPGGA,094236.30,3422.47629972,N,10853.80845265,E,2,08,1.3,369.658,M,-35.774,M,9.5,0100*6D
$GPGGA,094236.40,3422.47622243,N,10853.80813703,E,2,08,1.3,369.680,M,-35.774,M,9.6,0100*68
$GPGGA,094236.50,3422.47614866,N,10853.80782204,E,2,08,1.3,369.681,M,-35.774,M,9.7,0100*64
$GPGGA,094236.60,3422.47595639,N,10853.80750824,E,2,08,1.3,370.341,M,-35.774,M,9.8,0100*60
$GPGGA,094236.70,3422.47588166,N,10853.80719490,E,2,08,1.3,370.352,M,-35.774,M,9.9,0100*6D
$GPGGA,094236.80,3422.47544619,N,10853.80688322,E,2,08,1.3,372.226,M,-35.774,M,10.0,0100*5B
$GPGGA,094236.90,3422.47537969,N,10853.80657582,E,2,08,1.3,372.201,M,-35.774,M,10.1,0100*5C
$GPGGA,094237.00,3422.47534494,N,10853.80626196,E,2,08,1.3,371.998,M,-35.774,M,10.2,0100*54
$GPGGA,094237.10,3422.47527012,N,10853.80594602,E,2,08,1.3,372.014,M,-35.774,M,10.3,0100*52
$GPGGA,094237.20,3422.47526296,N,10853.80562830,E,2,08,1.3,371.674,M,-35.774,M,10.4,0100*5C
$GPGGA,094237.30,3422.47519154,N,10853.80530331,E,2,08,1.3,371.653,M,-35.774,M,10.5,0100*55
$GPGGA,094237.40,3422.47505176,N,10853.80496935,E,2,08,1.3,371.965,M,-35.774,M,10.6,0100*55
$GPGGA,094237.50,3422.47497731,N,10853.80462801,E,2,08,1.3,371.935,M,-35.774,M,10.7,0100*52
$GPGGA,094237.60,3422.47499976,N,10853.80427558,E,2,08,1.3,371.400,M,-35.774,M,10.8,0100*56
$GPGGA,094237.70,3422.47491530,N,10853.80392730,E,2,08,1.3,371.411,M,-35.774,M,10.9,0100*55
$GPGGA,094237.80,3422.47490380,N,10853.80356878,E,2,08,1.3,371.021,M,-35.774,M,11.0,0100*52
$GPGGA,094237.90,3422.47481283,N,10853.80321062,E,2,08,1.3,371.029,M,-35.774,M,11.1,0100*5B
$GPGGA,094238.00,3422.47480999,N,10853.80284085,E,2,08,1.3,370.548,M,-35.774,M,11.2,0100*5B
$GPGGA,094238.10,3422.47471596,N,10853.80246518,E,2,08,1.3,370.559,M,-35.774,M,11.3,0100*59
$GPGGA,094238.20,3422.47472773,N,10853.80207991,E,2,08,1.3,370.011,M,-35.774,M,11.4,0100*56
$GPGGA,094238.30,3422.47463262,N,10853.80168552,E,2,08,1.3,370.020,M,-35.774,M,11.5,0100*58
$GPGGA,094238.40,3422.47441041,N,10853.80128991,E,2,08,1.3,370.644,M,-35.774,M,11.6,0100*5C
$GPGGA,094238.50,3422.47430751,N,10853.80087070,E,2,08,1.3,370.639,M,-35.774,M,11.7,0100*54
$GPGGA,094238.60,3422.47391544,N,10853.80044053,E,2,08,1.3,372.120,M,-35.774,M,11.8,0100*51
$GPGGA,094238.70,3422.47380959,N,10853.80000501,E,2,08,1.3,372.107,M,-35.774,M,11.9,0100*56
$GPGGA,094238.80,3422.47358259,N,10853.79954711,E,2,08,1.3,372.708,M,-35.774,M,12.0,0100*59
$GPGGA,094238.90,3422.47346721,N,10853.79908240,E,2,08,1.3,372.716,M,-35.774,M,12.1,0100*5B
$GPGGA,094239.00,3422.47381730,N,10853.79860758,E,2,08,1.3,370.329,M,-35.774,M,12.2,0100*52
$GPGGA,094239.10,3422.47370152,N,10853.79813255,E,2,08,1.3,370.310,M,-35.774,M,12.3,0100*58
$GPGGA,094239.20,3422.47361310,N,10853.79765604,E,2,08,1.3,370.144,M,-35.774,M,12.4,0100*55
$GPGGA,094239.30,3422.47349333,N,10853.79717627,E,2,08,1.3,370.145,M,-35.774,M,12.5,0100*5B
$GPGGA,094239.40,3422.47324633,N,10853.79669441,E,2,08,1.3,370.817,M,-35.774,M,12.6,0100*55
$GPGGA,094239.50,3422.47312818,N,10853.79621757,E,2,08,1.3,370.819,M,-35.774,M,12.7,0100*51
$GPGGA,094239.60,3422.47301873,N,10853.79573271,E,2,08,1.3,370.736,M,-35.774,M,12.8,0100*55
$GPGGA,094239.70,3422.47289256,N,10853.79523822,E,2,08,1.3,370.758,M,-35.774,M,12.9,0100*58
$GPGGA,094239.80,3422.47288764,N,10853.79473308,E,2,08,1.3,370.160,M,-35.774,M,13.0,0100*50
$GPGGA,094239.90,3422.47276314,N,10853.79421935,E,2,08,1.3,370.139,M,-35.774,M,13.1,0100*5D
$GPGGA,094240.00,3422.47267185,N,10853.79370300,E,2,08,1.3,369.962,M,-35.774,M,6.8,0100*6C
$GPGGA,094240.10,3422.47253983,N,10853.79317379,E,2,08,1.3,369.958,M,-35.774,M,6.9,0100*63
$GPGGA,094240.20,3422.47244545,N,10853.79264832,E,2,08,1.3,369.777,M,-35.774,M,7.0,0100*6A
$GPGGA,094240.30,3422.47231495,N,10853.79211209,E,2,08,1.3,369.759,M,-35.774,M,7.1,0100*68
$GPGGA,094240.40,3422.47211254,N,10853.79157799,E,2,08,1.3,370.121,M,-35.774,M,7.2,0100*69
$GPGGA,094240.50,3422.47198144,N,10853.79104993,E,2,08,1.3,370.122,M,-35.774,M,7.3,0100*68
$GPGGA,094240.60,3422.47188510,N,10853.79052745,E,2,08,1.3,369.956,M,-35.774,M,7.4,0100*6C
$GPGGA,094240.70,3422.47175355,N,10853.79000565,E,2,08,1.3,369.971,M,-35.774,M,7.5,0100*6B
$GPGGA,094240.80,3422.47150657,N,10853.78949175,E,2,08,1.3,370.570,M,-35.774,M,7.6,0100*62
$GPGGA,094240.90,3422.47137859,N,10853.78898175,E,2,08,1.3,370.579,M,-35.774,M,7.7,0100*67
$GPGGA,094241.00,3422.47131983,N,10853.78847746,E,2,08,1.3,370.237,M,-35.774,M,7.8,0100*69
$GPGGA,094241.10,3422.47119534,N,10853.78798352,E,2,08,1.3,370.227,M,-35.774,M,7.9,0100*6E
$GPGGA,094241.20,3422.47096174,N,10853.78749753,E,2,08,1.3,370.798,M,-35.774,M,8.0,0100*65
$GPGGA,094241.30,3422.47084169,N,10853.78702243,E,2,08,1.3,370.806,M,-35.774,M,8.1,0100*69
$GPGGA,094241.40,3422.47072153,N,10853.78655676,E,2,08,1.3,370.831,M,-35.774,M,8.2,0100*68
$GPGGA,094241.50,3422.47060597,N,10853.78609920,E,2,08,1.3,370.820,M,-35.774,M,8.3,0100*62
$GPGGA,094241.60,3422.47065396,N,10853.78565278,E,2,08,1.3,370.001,M,-35.774,M,8.4,0100*60
$GPGGA,094241.70,3422.47054553,N,10853.78521497,E,2,08,1.3,369.986,M,-35.774,M,8.5,0100*64
$GPGGA,094241.80,3422.47026570,N,10853.78479069,E,2,08,1.3,370.878,M,-35.774,M,8.6,0100*6D
$GPGGA,094241.90,3422.47016306,N,10853.78437980,E,2,08,1.3,370.871,M,-35.774,M,8.7,0100*64
$GPGGA,094242.00,3422.47018571,N,10853.78397703,E,2,08,1.3,370.232,M,-35.774,M,8.8,0100*6C
$GPGGA,094242.10,3422.47009041,N,10853.78357809,E,2,08,1.3,370.213,M,-35.774,M,8.9,0100*60
$GPGGA,094242.20,3422.47002102,N,10853.78319245,E,2,08,1.3,370.068,M,-35.774,M,9.0,0100*60
$GPGGA,094242.30,3422.46992346,N,10853.78280885,E,2,08,1.3,370.071,M,-35.774,M,9.1,0100*6C
$GPGGA,094242.40,3422.46987736,N,10853.78242908,E,2,08,1.3,369.800,M,-35.774,M,9.2,0100*63
$GPGGA,094242.50,3422.46977929,N,10853.78204668,E,2,08,1.3,369.792,M,-35.774,M,9.3,0100*63
$GPGGA,094242.60,3422.46969233,N,10853.78167171,E,2,08,1.3,369.770,M,-35.774,M,9.4,0100*6D
$GPGGA,094242.70,3422.46959637,N,10853.78131110,E,2,08,1.3,369.751,M,-35.774,M,9.5,0100*69
$GPGGA,094242.80,3422.46897331,N,10853.78094687,E,2,08,1.3,372.473,M,-35.774,M,9.6,0100*6B
$GPGGA,094242.90,3422.46888623,N,10853.78058352,E,2,08,1.3,372.428,M,-35.774,M,9.7,0100*60
$GPGGA,094243.00,3422.46931263,N,10853.78022273,E,2,08,1.3,369.754,M,-35.774,M,9.8,0100*69
$GPGGA,094243.10,3422.46921641,N,10853.77986238,E,2,08,1.3,369.746,M,-35.774,M,9.9,0100*68
$GPGGA,094243.20,3422.46890053,N,10853.77950592,E,2,08,1.3,370.858,M,-35.774,M,10.0,0100*50
$GPGGA,094243.30,3422.46880592,N,10853.77915270,E,2,08,1.3,370.866,M,-35.774,M,10.1,0100*5E
$GPGGA,094243.40,3422.46864282,N,10853.77880013,E,2,08,1.3,371.218,M,-35.774,M,10.2,0100*5E
$GPGGA,094243.50,3422.46854756,N,10853.77844121,E,2,08,1.3,371.187,M,-35.774,M,10.3,0100*5C
$GPGGA,094243.60,3422.46823383,N,10853.77809595,E,2,08,1.3,372.321,M,-35.774,M,10.4,0100*5B
$GPGGA,094243.70,3422.46813637,N,10853.77775379,E,2,08,1.3,372.327,M,-35.774,M,10.5,0100*54
$GPGGA,094243.80,3422.46802623,N,10853.77740723,E,2,08,1.3,372.406,M,-35.774,M,10.6,0100*54
$GPGGA,094243.90,3422.46793413,N,10853.77707159,E,2,08,1.3,372.401,M,-35.774,M,10.7,0100*5D
$GPGGA,094244.00,3422.46783834,N,10853.77673447,E,2,08,1.3,372.404,M,-35.774,M,10.8,0100*59
$GPGGA,094244.10,3422.46774162,N,10853.77639846,E,2,08,1.3,372.420,M,-35.774,M,10.9,0100*5E
$GPGGA,094244.20,3422.46765805,N,10853.77605903,E,2,08,1.3,372.398,M,-35.774,M,11.0,0100*56
$GPGGA,094244.30,3422.46756372,N,10853.77572933,E,2,08,1.3,372.410,M,-35.774,M,11.1,0100*5A
$GPGGA,094244.40,3422.46747400,N,10853.77539327,E,2,08,1.3,372.403,M,-35.774,M,11.2,0100*5E
$GPGGA,094244.50,3422.46738628,N,10853.77506430,E,2,08,1.3,372.396,M,-35.774,M,11.3,0100*58
$GPGGA,094244.60,3422.46730060,N,10853.77473714,E,2,08,1.3,372.383,M,-35.774,M,11.4,0100*5C
$GPGGA,094244.70,3422.46720881,N,10853.77440307,E,2,08,1.3,372.388,M,-35.774,M,11.5,0100*57
$GPGGA,094244.80,3422.46711993,N,10853.77407659,E,2,08,1.3,372.399,M,-35.774,M,11.6,0100*56
$GPGGA,094244.90,3422.46703531,N,10853.77374767,E,2,08,1.3,372.383,M,-35.774,M,11.7,0100*55
$GPGGA,094245.00,3422.46694470,N,10853.77342519,E,2,08,1.3,372.391,M,-35.774,M,11.8,0100*54
$GPGGA,094245.10,3422.46685890,N,10853.77310453,E,2,08,1.3,372.397,M,-35.774,M,11.9,0100*58
$GPGGA,094245.20,3422.46677542,N,10853.77278503,E,2,08,1.3,372.383,M,-35.774,M,12.0,0100*50
$GPGGA,094245.30,3422.46669053,N,10853.77246298,E,2,08,1.3,372.371,M,-35.774,M,12.1,0100*5F
$GPGGA,094245.40,3422.46660601,N,10853.77214907,E,2,08,1.3,372.395,M,-35.774,M,12.2,0100*53
$GPGGA,094245.50,3422.46652484,N,10853.77183292,E,2,08,1.3,372.390,M,-35.774,M,12.3,0100*52
$GPGGA,094245.60,3422.46644645,N,10853.77152053,E,2,08,1.3,372.369,M,-35.774,M,12.4,0100*5B
$GPGGA,094245.70,3422.46636467,N,10853.77121905,E,2,08,1.3,372.376,M,-35.774,M,12.5,0100*5C
$GPGGA,094245.80,3422.46628655,N,10853.77090819,E,2,08,1.3,372.359,M,-35.774,M,12.6,0100*56
$GPGGA,094245.90,3422.46620644,N,10853.77059674,E,2,08,1.3,372.360,M,-35.774,M,12.7,0100*54
$GPGGA,094246.00,3422.46613122,N,10853.77029936,E,2,08,1.3,372.340,M,-35.774,M,12.8,0100*5A
$GPGGA,094246.10,3422.46605020,N,10853.76999952,E,2,08,1.3,372.348,M,-35.774,M,12.9,0100*57
$GPGGA,094246.20,3422.46597315,N,10853.76969737,E,2,08,1.3,372.333,M,-35.774,M,13.0,0100*5F
$GPGGA,094246.30,3422.46589458,N,10853.76940142,E,2,08,1.3,372.350,M,-35.774,M,13.1,0100*54
$GPGGA,094246.40,3422.46582496,N,10853.76910351,E,2,08,1.3,372.305,M,-35.774,M,13.2,0100*5C
$GPGGA,094246.50,3422.46574629,N,10853.76880505,E,2,08,1.3,372.313,M,-35.774,M,13.3,0100*5B
$GPGGA,094246.60,3422.46605690,N,10853.76850179,E,2,08,1.3,370.334,M,-35.774,M,13.4,0100*5D
$GPGGA,094246.70,3422.46597630,N,10853.76820739,E,2,08,1.3,370.351,M,-35.774,M,13.5,0100*59
$GPGGA,094246.80,3422.46599553,N,10853.76790514,E,2,08,1.3,369.878,M,-35.774,M,13.6,0100*5C
$GPGGA,094246.90,3422.46591148,N,10853.76760777,E,2,08,1.3,369.895,M,-35.774,M,13.7,0100*51
$GPGGA,094247.00,3422.46577811,N,10853.76731082,E,2,08,1.3,370.185,M,-35.774,M,13.8,0100*52
$GPGGA,094247.10,3422.46570230,N,10853.76701706,E,2,08,1.3,370.189,M,-35.774,M,13.9,0100*58
$GPGGA,094247.20,3422.46543044,N,10853.76672146,E,2,08,1.3,371.201,M,-35.774,M,14.0,0100*51
$GPGGA,094247.30,3422.46535365,N,10853.76642076,E,2,08,1.3,371.197,M,-35.774,M,14.1,0100*5D
$GPGGA,094247.40,3422.46531839,N,10853.76612752,E,2,08,1.3,370.987,M,-35.774,M,14.2,0100*53
$GPGGA,094247.50,3422.46523893,N,10853.76583072,E,2,08,1.3,371.001,M,-35.774,M,14.3,0100*58
$GPGGA,094247.60,3422.46532270,N,10853.76553273,E,2,08,1.3,370.174,M,-35.774,M,14.4,0100*57
$GPGGA,094247.70,3422.46524480,N,10853.76523696,E,2,08,1.3,370.189,M,-35.774,M,14.5,0100*53
$GPGGA,094247.80,3422.46516966,N,10853.76494087,E,2,08,1.3,370.174,M,-35.774,M,14.6,0100*52
$GPGGA,094247.90,3422.46509624,N,10853.76464251,E,2,08,1.3,370.155,M,-35.774,M,14.7,0100*50
$GPGGA,094248.00,3422.46491730,N,10853.76435239,E,2,08,1.3,370.701,M,-35.774,M,5.2,0100*6A
$GPGGA,094248.10,3422.46484364,N,10853.76405188,E,2,08,1.3,370.689,M,-35.774,M,5.3,0100*60
$GPGGA,094248.20,3422.46446023,N,10853.76379453,E,2,08,1.3,372.283,M,-35.774,M,5.4,0100*69
$GPGGA,094248.30,3422.46438366,N,10853.76350197,E,2,08,1.3,372.285,M,-35.774,M,5.5,0100*62
$GPGGA,094248.40,3422.46472453,N,10853.76320398,E,2,08,1.3,370.139,M,-35.774,M,5.6,0100*65
$GPGGA,094248.50,3422.46465231,N,10853.76291527,E,2,08,1.3,370.138,M,-35.774,M,5.7,0100*69
$GPGGA,094248.60,3422.46413361,N,10853.76262597,E,2,08,1.3,372.424,M,-35.774,M,5.8,0100*6D
$GPGGA,094248.70,3422.46405932,N,10853.76234262,E,2,08,1.3,372.421,M,-35.774,M,5.9,0100*6D
$GPGGA,094248.80,3422.46398238,N,10853.76205307,E,2,08,1.3,372.432,M,-35.774,M,6.0,0100*68
$GPGGA,094248.90,3422.46390864,N,10853.76177400,E,2,08,1.3,372.436,M,-35.774,M,6.1,0100*61
$GPGGA,094249.00,3422.46383805,N,10853.76149242,E,2,08,1.3,372.438,M,-35.774,M,6.2,0100*6C
$GPGGA,094249.10,3422.46376789,N,10853.76120963,E,2,08,1.3,372.429,M,-35.774,M,6.3,0100*6A
$GPGGA,094249.20,3422.46369160,N,10853.76093217,E,2,08,1.3,372.434,M,-35.774,M,6.4,0100*6C
$GPGGA,094249.30,3422.46361875,N,10853.76064609,E,2,08,1.3,372.444,M,-35.774,M,6.5,0100*6D
$GPGGA,094249.40,3422.46354618,N,10853.76036711,E,2,08,1.3,372.441,M,-35.774,M,6.6,0100*60
$GPGGA,094249.50,3422.46347577,N,10853.76008370,E,2,08,1.3,372.429,M,-35.774,M,6.7,0100*68
$GPGGA,094249.60,3422.46340326,N,10853.75979920,E,2,08,1.3,372.428,M,-35.774,M,6.8,0100*63
$GPGGA,094249.70,3422.46333100,N,10853.75951948,E,2,08,1.3,372.421,M,-35.774,M,6.9,0100*6C
$GPGGA,094249.80,3422.46326219,N,10853.75923470,E,2,08,1.3,372.427,M,-35.774,M,7.0,0100*61
$GPGGA,094249.90,3422.46318690,N,10853.75895125,E,2,08,1.3,372.411,M,-35.774,M,7.1,0100*65
$GPGGA,094250.00,3422.46311678,N,10853.75866853,E,2,08,1.3,372.413,M,-35.774,M,7.2,0100*6E
$GPGGA,094250.10,3422.46304134,N,10853.75838533,E,2,08,1.3,372.412,M,-35.774,M,7.3,0100*64
$GPGGA,094250.20,3422.46296961,N,10853.75810095,E,2,08,1.3,372.416,M,-35.774,M,7.4,0100*65
$GPGGA,094250.30,3422.46289922,N,10853.75781520,E,2,08,1.3,372.425,M,-35.774,M,7.5,0100*60
